{"frame":5050,"timestamp":{"delta_seconds":0.05000000074505806,"elapsed_seconds":51.61414576601237},"control":{"throttle":0.0,"steer":0.0,"brake":1.0,"hand_brake":false,"reverse":false,"manual_gear_shift":false,"gear":0},"transform":{"location":{"x":-87.6230239868164,"y":12.967159271240234,"z":0.48239994049072266},"rotation":{"pitch":0.0,"yaw":-179.84078979492188,"roll":0.0}},"velocity":{"x":0.0,"y":0.0,"z":-1.470000147819519},"angular_velocity":{"x":0.0,"y":0.0,"z":0.0},"acceleration":{"x":0.0,"y":0.0,"z":-9.80000114440918},"speed_mps":1.470000147819519,"speed_kph":5.2920005321502686,"speed_limit_kph":30.0,"collisions_this_frame":[],"waypoint":{"x":-87.62295532226562,"y":12.94051742553711,"z":0.0},"lane_deviation_m":0.48313507437705994,"lane_width":3.5,"goal":{"x":-68.73516845703125,"y":129.30384826660156,"z":0.5999999642372131},"fault":{"name":"traction_control_loss","severity":1.0},"capture_flags":{"save_rgb":true,"save_depth":false,"video_rgb":true,"video_depth":false}}
{"frame":5051,"timestamp":{"delta_seconds":0.05000000074505806,"elapsed_seconds":51.66414576675743},"control":{"throttle":1.0,"steer":0.3330000042915344,"brake":0.0,"hand_brake":false,"reverse":false,"manual_gear_shift":false,"gear":0},"transform":{"location":{"x":-87.6230239868164,"y":12.967159271240234,"z":0.394199937582016},"rotation":{"pitch":0.0,"yaw":-179.84078979492188,"roll":0.0}},"velocity":{"x":0.0,"y":0.0,"z":-1.9600002765655518},"angular_velocity":{"x":0.0,"y":0.0,"z":0.0},"acceleration":{"x":0.0,"y":0.0,"z":-9.800003051757812},"speed_mps":1.9600002765655518,"speed_kph":7.056000995635986,"speed_limit_kph":30.0,"collisions_this_frame":[],"waypoint":{"x":-87.62295532226562,"y":12.94051742553711,"z":0.0},"lane_deviation_m":0.3950991928577423,"lane_width":3.5,"goal":{"x":-68.73516845703125,"y":129.30384826660156,"z":0.5999999642372131},"fault":{"name":"traction_control_loss","severity":1.0},"capture_flags":{"save_rgb":true,"save_depth":false,"video_rgb":true,"video_depth":false}}
{"frame":5052,"timestamp":{"delta_seconds":0.05000000074505806,"elapsed_seconds":51.71414576750249},"control":{"throttle":1.0,"steer":0.33899998664855957,"brake":0.0,"hand_brake":false,"reverse":false,"manual_gear_shift":false,"gear":0},"transform":{"location":{"x":-87.6230239868164,"y":12.967159271240234,"z":0.281499981880188},"rotation":{"pitch":0.0,"yaw":-179.84078979492188,"roll":0.0}},"velocity":{"x":0.0,"y":0.0,"z":-2.450000286102295},"angular_velocity":{"x":0.0,"y":0.0,"z":0.0},"acceleration":{"x":0.0,"y":0.0,"z":-9.800000190734863},"speed_mps":2.450000286102295,"speed_kph":8.820001029968262,"speed_limit_kph":30.0,"collisions_this_frame":[],"waypoint":{"x":-87.62295532226562,"y":12.94051742553711,"z":0.0},"lane_deviation_m":0.2827579081058502,"lane_width":3.5,"goal":{"x":-68.73516845703125,"y":129.30384826660156,"z":0.5999999642372131},"fault":{"name":"traction_control_loss","severity":1.0},"capture_flags":{"save_rgb":true,"save_depth":false,"video_rgb":true,"video_depth":false}}
{"frame":5053,"timestamp":{"delta_seconds":0.05000000074505806,"elapsed_seconds":51.764145768247545},"control":{"throttle":1.0,"steer":0.2720000147819519,"brake":0.0,"hand_brake":false,"reverse":false,"manual_gear_shift":false,"gear":0},"transform":{"location":{"x":-87.6230239868164,"y":12.967159271240234,"z":0.14429987967014313},"rotation":{"pitch":0.0,"yaw":-179.84078979492188,"roll":0.0}},"velocity":{"x":0.0,"y":0.0,"z":-2.93999981880188},"angular_velocity":{"x":0.0,"y":0.0,"z":0.0},"acceleration":{"x":0.0,"y":0.0,"z":-9.7999906539917},"speed_mps":2.93999981880188,"speed_kph":10.583999347686769,"speed_limit_kph":30.0,"collisions_this_frame":[],"waypoint":{"x":-87.62295532226562,"y":12.94051742553711,"z":0.0},"lane_deviation_m":0.1467387080192566,"lane_width":3.5,"goal":{"x":-68.73516845703125,"y":129.30384826660156,"z":0.5999999642372131},"fault":{"name":"traction_control_loss","severity":1.0},"capture_flags":{"save_rgb":true,"save_depth":false,"video_rgb":true,"video_depth":false}}
{"frame":5054,"timestamp":{"delta_seconds":0.05000000074505806,"elapsed_seconds":51.8141457689926},"control":{"throttle":1.0,"steer":0.25699999928474426,"brake":0.0,"hand_brake":false,"reverse":false,"manual_gear_shift":false,"gear":0},"transform":{"location":{"x":-87.623046875,"y":12.965848922729492,"z":0.009511374868452549},"rotation":{"pitch":0.08153196424245834,"yaw":-179.78562927246094,"roll":-0.2060547024011612}},"velocity":{"x":0.010653125122189522,"y":0.016738558188080788,"z":-1.9987695217132568},"angular_velocity":{"x":-6.044900417327881,"y":2.662297010421753,"z":0.5251731872558594},"acceleration":{"x":0.21306249499320984,"y":0.33477115631103516,"z":18.82460594177246},"speed_mps":1.9988679969760201,"speed_kph":7.195924789113673,"speed_limit_kph":30.0,"collisions_this_frame":[],"waypoint":{"x":-87.62297821044922,"y":12.94051742553711,"z":0.0},"lane_deviation_m":0.027058375999331474,"lane_width":3.5,"goal":{"x":-68.73516845703125,"y":129.30384826660156,"z":0.5999999642372131},"fault":{"name":"traction_control_loss","severity":1.0},"capture_flags":{"save_rgb":true,"save_depth":false,"video_rgb":true,"video_depth":false}}
{"frame":5055,"timestamp":{"delta_seconds":0.05000000074505806,"elapsed_seconds":51.86414576973766},"control":{"throttle":1.0,"steer":0.22300000488758087,"brake":0.0,"hand_brake":false,"reverse":false,"manual_gear_shift":false,"gear":0},"transform":{"location":{"x":-87.62345886230469,"y":12.96530818939209,"z":-0.047778356820344925},"rotation":{"pitch":0.19091743230819702,"yaw":-179.7668914794922,"roll":-0.41546630859375}},"velocity":{"x":0.004662773571908474,"y":0.01236625388264656,"z":-0.6878106594085693},"angular_velocity":{"x":-2.696287155151367,"y":1.627562403678894,"z":0.227303609251976},"acceleration":{"x":-0.11980703473091125,"y":-0.08744608610868454,"z":26.21917724609375},"speed_mps":0.687937619910791,"speed_kph":2.4765754316788477,"speed_limit_kph":30.0,"collisions_this_frame":[],"waypoint":{"x":-87.6233901977539,"y":12.940515518188477,"z":0.0},"lane_deviation_m":0.05382798984646797,"lane_width":3.5,"goal":{"x":-68.73516845703125,"y":129.30384826660156,"z":0.5999999642372131},"fault":{"name":"traction_control_loss","severity":1.0},"capture_flags":{"save_rgb":true,"save_depth":false,"video_rgb":true,"video_depth":false}}
{"frame":5056,"timestamp":{"delta_seconds":0.05000000074505806,"elapsed_seconds":51.91414577048272},"control":{"throttle":1.0,"steer":0.23499999940395355,"brake":0.0,"hand_brake":false,"reverse":false,"manual_gear_shift":false,"gear":0},"transform":{"location":{"x":-87.62348175048828,"y":12.965744018554688,"z":-0.06218494102358818},"rotation":{"pitch":0.20383332669734955,"yaw":-179.76234436035156,"roll":-0.40179443359375}},"velocity":{"x":-0.0004267882904969156,"y":0.006324733141809702,"z":-0.07738685607910156},"angular_velocity":{"x":3.110917329788208,"y":-1.059069037437439,"z":0.04542091488838196},"acceleration":{"x":-0.10179124027490616,"y":-0.12083041667938232,"z":12.208476066589355},"speed_mps":0.07764605522090347,"speed_kph":0.27952579879525247,"speed_limit_kph":30.0,"collisions_this_frame":[],"waypoint":{"x":-87.6234130859375,"y":12.940515518188477,"z":0.0},"lane_deviation_m":0.06710774451494217,"lane_width":3.5,"goal":{"x":-68.73516845703125,"y":129.30384826660156,"z":0.5999999642372131},"fault":{"name":"traction_control_loss","severity":1.0},"capture_flags":{"save_rgb":true,"save_depth":false,"video_rgb":true,"video_depth":false}}
{"frame":5057,"timestamp":{"delta_seconds":0.05000000074505806,"elapsed_seconds":51.96414577122778},"control":{"throttle":1.0,"steer":0.20999999344348907,"brake":0.0,"hand_brake":false,"reverse":false,"manual_gear_shift":false,"gear":0},"transform":{"location":{"x":-87.62325286865234,"y":12.96613883972168,"z":-0.05816425010561943},"rotation":{"pitch":0.16666343808174133,"yaw":-179.7636260986328,"roll":-0.3296813666820526}},"velocity":{"x":-0.0014228055952116847,"y":-0.0016011240659281611,"z":0.14758442342281342},"angular_velocity":{"x":1.4078410863876343,"y":-0.7312297224998474,"z":-0.061916809529066086},"acceleration":{"x":-0.0199203472584486,"y":-0.15851713716983795,"z":4.499425411224365},"speed_mps":0.14759996616219306,"speed_kph":0.5313598781838951,"speed_limit_kph":30.0,"collisions_this_frame":[],"waypoint":{"x":-87.62318420410156,"y":12.940515518188477,"z":0.0},"lane_deviation_m":0.06355815380811691,"lane_width":3.5,"goal":{"x":-68.73516845703125,"y":129.30384826660156,"z":0.5999999642372131},"fault":{"name":"traction_control_loss","severity":1.0},"capture_flags":{"save_rgb":true,"save_depth":false,"video_rgb":true,"video_depth":false}}
{"frame":5058,"timestamp":{"delta_seconds":0.05000000074505806,"elapsed_seconds":52.014145771972835},"control":{"throttle":1.0,"steer":0.19900000095367432,"brake":0.0,"hand_brake":false,"reverse":false,"manual_gear_shift":false,"gear":0},"transform":{"location":{"x":-87.62308502197266,"y":12.966553688049316,"z":-0.0482213981449604},"rotation":{"pitch":0.12957550585269928,"yaw":-179.7677001953125,"roll":-0.2595824599266052}},"velocity":{"x":-0.0020342692732810974,"y":-0.0014203810133039951,"z":0.21219757199287415},"angular_velocity":{"x":1.3814986944198608,"y":-0.7279325723648071,"z":-0.09522857517004013},"acceleration":{"x":-0.012229273095726967,"y":0.0036148610524833202,"z":1.2922630310058594},"speed_mps":0.21221207621945123,"speed_kph":0.7639634743900244,"speed_limit_kph":30.0,"collisions_this_frame":[],"waypoint":{"x":-87.62301635742188,"y":12.940515518188477,"z":0.0},"lane_deviation_m":0.054802317172288895,"lane_width":3.5,"goal":{"x":-68.73516845703125,"y":129.30384826660156,"z":0.5999999642372131},"fault":{"name":"traction_control_loss","severity":1.0},"capture_flags":{"save_rgb":true,"save_depth":false,"video_rgb":true,"video_depth":false}}
{"frame":5059,"timestamp":{"delta_seconds":0.05000000074505806,"elapsed_seconds":52.06414577271789},"control":{"throttle":1.0,"steer":0.19599999487400055,"brake":0.0,"hand_brake":false,"reverse":false,"manual_gear_shift":false,"gear":0},"transform":{"location":{"x":-87.6293716430664,"y":12.966374397277832,"z":-0.03744174912571907},"rotation":{"pitch":0.10334758460521698,"yaw":-179.7554931640625,"roll":-0.1978149116039276}},"velocity":{"x":-0.3689170777797699,"y":-0.040399108082056046,"z":0.20646712183952332},"angular_velocity":{"x":1.1565569639205933,"y":-0.25492963194847107,"z":0.6087722778320312},"acceleration":{"x":-7.337656021118164,"y":-0.7795745134353638,"z":-0.1146090030670166},"speed_mps":0.4246887926612698,"speed_kph":1.5288796535805713,"speed_limit_kph":30.0,"collisions_this_frame":[],"waypoint":{"x":-87.62930297851562,"y":12.940498352050781,"z":0.0},"lane_deviation_m":0.04551328346133232,"lane_width":3.5,"goal":{"x":-68.73516845703125,"y":129.30384826660156,"z":0.5999999642372131},"fault":{"name":"traction_control_loss","severity":1.0},"capture_flags":{"save_rgb":true,"save_depth":false,"video_rgb":true,"video_depth":false}}
{"frame":5060,"timestamp":{"delta_seconds":0.05000000074505806,"elapsed_seconds":52.11414577346295},"control":{"throttle":1.0,"steer":0.1979999989271164,"brake":0.0,"hand_brake":false,"reverse":false,"manual_gear_shift":false,"gear":0},"transform":{"location":{"x":-87.67571258544922,"y":12.961763381958008,"z":-0.027558021247386932},"rotation":{"pitch":0.13562706112861633,"yaw":-179.55267333984375,"roll":-0.2211913764476776}},"velocity":{"x":-1.2496411800384521,"y":-0.1528286635875702,"z":0.19579720497131348},"angular_velocity":{"x":-1.2357772588729858,"y":1.0466268062591553,"z":5.434826850891113},"acceleration":{"x":-17.61448097229004,"y":-2.248591184616089,"z":-0.21339833736419678},"speed_mps":1.2740864274987143,"speed_kph":4.586711138995372,"speed_limit_kph":30.0,"collisions_this_frame":[],"waypoint":{"x":-87.6756591796875,"y":12.940370559692383,"z":0.0},"lane_deviation_m":0.03488696366548538,"lane_width":3.5,"goal":{"x":-68.73516845703125,"y":129.30384826660156,"z":0.5999999642372131},"fault":{"name":"traction_control_loss","severity":1.0},"capture_flags":{"save_rgb":true,"save_depth":false,"video_rgb":true,"video_depth":false}}
{"frame":5061,"timestamp":{"delta_seconds":0.05000000074505806,"elapsed_seconds":52.16414577420801},"control":{"throttle":1.0,"steer":0.2720000147819519,"brake":0.0,"hand_brake":false,"reverse":false,"manual_gear_shift":false,"gear":0},"transform":{"location":{"x":-87.75617218017578,"y":12.951473236083984,"z":-0.018676336854696274},"rotation":{"pitch":0.20519936084747314,"yaw":-179.12672424316406,"roll":-0.3346862196922302}},"velocity":{"x":-1.8626289367675781,"y":-0.3006252646446228,"z":0.18181367218494415},"angular_velocity":{"x":-3.3143796920776367,"y":1.7469440698623657,"z":10.183830261230469},"acceleration":{"x":-12.25975513458252,"y":-2.955932140350342,"z":-0.2796706557273865},"speed_mps":1.895473111711148,"speed_kph":6.823703202160133,"speed_limit_kph":30.0,"collisions_this_frame":[],"waypoint":{"x":-87.75614166259766,"y":12.940147399902344,"z":0.0},"lane_deviation_m":0.02184218540787697,"lane_width":3.5,"goal":{"x":-68.73516845703125,"y":129.30384826660156,"z":0.5999999642372131},"fault":{"name":"traction_control_loss","severity":1.0},"capture_flags":{"save_rgb":true,"save_depth":false,"video_rgb":true,"video_depth":false}}
{"frame":5062,"timestamp":{"delta_seconds":0.05000000074505806,"elapsed_seconds":52.21414577495307},"control":{"throttle":1.0,"steer":0.18700000643730164,"brake":0.0,"hand_brake":false,"reverse":false,"manual_gear_shift":false,"gear":0},"transform":{"location":{"x":-87.86648559570312,"y":12.935308456420898,"z":-0.011715812608599663},"rotation":{"pitch":0.2492062747478485,"yaw":-178.50100708007812,"roll":-0.38418570160865784}},"velocity":{"x":-2.4082536697387695,"y":-0.44131866097450256,"z":0.12562021613121033},"angular_velocity":{"x":-0.4037953019142151,"y":0.561253547668457,"z":13.730390548706055},"acceleration":{"x":-10.912494659423828,"y":-2.8138680458068848,"z":-1.1238691806793213},"speed_mps":2.451576704293674,"speed_kph":8.825676135457226,"speed_limit_kph":30.0,"collisions_this_frame":[],"waypoint":{"x":-87.86650085449219,"y":12.939840316772461,"z":0.0},"lane_deviation_m":0.012561777606606483,"lane_width":3.5,"goal":{"x":-68.73516845703125,"y":129.30384826660156,"z":0.5999999642372131},"fault":{"name":"traction_control_loss","severity":1.0},"capture_flags":{"save_rgb":true,"save_depth":false,"video_rgb":true,"video_depth":false}}
{"frame":5063,"timestamp":{"delta_seconds":0.05000000074505806,"elapsed_seconds":52.264145775698125},"control":{"throttle":1.0,"steer":0.12300000339746475,"brake":0.0,"hand_brake":false,"reverse":false,"manual_gear_shift":false,"gear":0},"transform":{"location":{"x":-88.00173950195312,"y":12.9183349609375,"z":-0.006878051441162825},"rotation":{"pitch":0.25764837861061096,"yaw":-177.96168518066406,"roll":-0.3594054877758026}},"velocity":{"x":-2.897688150405884,"y":-0.36747944355010986,"z":0.09749317169189453},"angular_velocity":{"x":-0.6445567011833191,"y":0.6028080582618713,"z":8.91301155090332},"acceleration":{"x":-9.788689613342285,"y":1.476784348487854,"z":-0.5625408887863159},"speed_mps":2.9225233407042475,"speed_kph":10.521084026535291,"speed_limit_kph":30.0,"collisions_this_frame":[],"waypoint":{"x":-88.00180053710938,"y":12.939464569091797,"z":0.0},"lane_deviation_m":0.022220972925424576,"lane_width":3.5,"goal":{"x":-68.73516845703125,"y":129.30384826660156,"z":0.5999999642372131},"fault":{"name":"traction_control_loss","severity":1.0},"capture_flags":{"save_rgb":true,"save_depth":false,"video_rgb":true,"video_depth":false}}
{"frame":5064,"timestamp":{"delta_seconds":0.05000000074505806,"elapsed_seconds":52.31414577644318},"control":{"throttle":1.0,"steer":0.12200000137090683,"brake":0.0,"hand_brake":false,"reverse":false,"manual_gear_shift":false,"gear":0},"transform":{"location":{"x":-88.15862274169922,"y":12.90281867980957,"z":-0.005221443250775337},"rotation":{"pitch":0.1589658111333847,"yaw":-177.52435302734375,"roll":-0.10101315379142761}},"velocity":{"x":-3.3185064792633057,"y":-0.4222232699394226,"z":0.02075311541557312},"angular_velocity":{"x":2.944441556930542,"y":-1.2965649366378784,"z":8.768571853637695},"acceleration":{"x":-8.416366577148438,"y":-1.0948765277862549,"z":-1.5348011255264282},"speed_mps":3.345323367686647,"speed_kph":12.043164123671929,"speed_limit_kph":30.0,"collisions_this_frame":[],"waypoint":{"x":-88.15872955322266,"y":12.939027786254883,"z":0.0},"lane_deviation_m":0.0365837961435318,"lane_width":3.5,"goal":{"x":-68.73516845703125,"y":129.30384826660156,"z":0.5999999642372131},"fault":{"name":"traction_control_loss","severity":1.0},"capture_flags":{"save_rgb":true,"save_depth":false,"video_rgb":true,"video_depth":false}}
{"frame":5065,"timestamp":{"delta_seconds":0.05000000074505806,"elapsed_seconds":52.36414577718824},"control":{"throttle":1.0,"steer":0.1599999964237213,"brake":0.0,"hand_brake":false,"reverse":false,"manual_gear_shift":false,"gear":0},"transform":{"location":{"x":-88.33580780029297,"y":12.8816499710083,"z":-0.0038173673674464226},"rotation":{"pitch":0.11874966323375702,"yaw":-176.97047424316406,"roll":-0.046783447265625}},"velocity":{"x":-3.6957643032073975,"y":-0.5396835803985596,"z":0.024073466658592224},"angular_velocity":{"x":0.4572870135307312,"y":-0.4918573200702667,"z":12.159257888793945},"acceleration":{"x":-7.545156478881836,"y":-2.3492062091827393,"z":0.06640702486038208},"speed_mps":3.7350383777962484,"speed_kph":13.446138160066495,"speed_limit_kph":30.0,"collisions_this_frame":[],"waypoint":{"x":-88.33596801757812,"y":12.938535690307617,"z":0.0},"lane_deviation_m":0.05701388418674469,"lane_width":3.5,"goal":{"x":-68.73516845703125,"y":129.30384826660156,"z":0.5999999642372131},"fault":{"name":"traction_control_loss","severity":1.0},"capture_flags":{"save_rgb":true,"save_depth":false,"video_rgb":true,"video_depth":false}}
{"frame":5066,"timestamp":{"delta_seconds":0.05000000074505806,"elapsed_seconds":52.4141457779333},"control":{"throttle":1.0,"steer":0.12200000137090683,"brake":0.0,"hand_brake":false,"reverse":false,"manual_gear_shift":false,"gear":0},"transform":{"location":{"x":-88.53209686279297,"y":12.857752799987793,"z":-0.0025774382520467043},"rotation":{"pitch":0.1042286828160286,"yaw":-176.4178009033203,"roll":-0.0315856859087944}},"velocity":{"x":-4.071202278137207,"y":-0.5605109930038452,"z":0.022038716822862625},"angular_velocity":{"x":0.18740995228290558,"y":-0.17824818193912506,"z":10.866246223449707},"acceleration":{"x":-7.508759498596191,"y":-0.4165482521057129,"z":-0.04069499671459198},"speed_mps":4.1096649824318945,"speed_kph":14.79479393675482,"speed_limit_kph":30.0,"collisions_this_frame":[],"waypoint":{"x":-88.5323257446289,"y":12.937990188598633,"z":0.0},"lane_deviation_m":0.08027909696102142,"lane_width":3.5,"goal":{"x":-68.73516845703125,"y":129.30384826660156,"z":0.5999999642372131},"fault":{"name":"traction_control_loss","severity":1.0},"capture_flags":{"save_rgb":true,"save_depth":false,"video_rgb":true,"video_depth":false}}
{"frame":5067,"timestamp":{"delta_seconds":0.05000000074505806,"elapsed_seconds":52.46414577867836},"control":{"throttle":1.0,"steer":0.19599999487400055,"brake":0.0,"hand_brake":false,"reverse":false,"manual_gear_shift":false,"gear":0},"transform":{"location":{"x":-88.74552917480469,"y":12.82795238494873,"z":-0.001549797016195953},"rotation":{"pitch":0.09769219160079956,"yaw":-175.70755004882812,"roll":-0.0442199632525444}},"velocity":{"x":-4.389175891876221,"y":-0.761347234249115,"z":0.018176201730966568},"angular_velocity":{"x":-0.38918131589889526,"y":-0.13142536580562592,"z":16.41071319580078},"acceleration":{"x":-6.359472274780273,"y":-4.016724586486816,"z":-0.07725030183792114},"speed_mps":4.454755323834919,"speed_kph":16.03711916580571,"speed_limit_kph":30.0,"collisions_this_frame":[],"waypoint":{"x":-88.74681854248047,"y":12.937392234802246,"z":0.0},"lane_deviation_m":0.10945841670036316,"lane_width":3.5,"goal":{"x":-68.73516845703125,"y":129.30384826660156,"z":0.5999999642372131},"fault":{"name":"traction_control_loss","severity":1.0},"capture_flags":{"save_rgb":true,"save_depth":false,"video_rgb":true,"video_depth":false}}
{"frame":5068,"timestamp":{"delta_seconds":0.05000000074505806,"elapsed_seconds":52.514145779423416},"control":{"throttle":1.0,"steer":0.0949999988079071,"brake":0.0,"hand_brake":false,"reverse":false,"manual_gear_shift":false,"gear":0},"transform":{"location":{"x":-88.97634887695312,"y":12.795002937316895,"z":-0.000746879552025348},"rotation":{"pitch":0.09483717381954193,"yaw":-175.0541534423828,"roll":-0.0366821251809597}},"velocity":{"x":-4.755892753601074,"y":-0.7241393327713013,"z":0.014131631702184677},"angular_velocity":{"x":0.2817143499851227,"y":-0.015909265726804733,"z":11.283120155334473},"acceleration":{"x":-7.33433723449707,"y":0.7441580295562744,"z":-0.08089140057563782},"speed_mps":4.810726905576353,"speed_kph":17.318616860074872,"speed_limit_kph":30.0,"collisions_this_frame":[],"waypoint":{"x":-88.97801208496094,"y":12.936749458312988,"z":0.0},"lane_deviation_m":0.14175823330879211,"lane_width":3.5,"goal":{"x":-68.73516845703125,"y":129.30384826660156,"z":0.5999999642372131},"fault":{"name":"traction_control_loss","severity":1.0},"capture_flags":{"save_rgb":true,"save_depth":false,"video_rgb":true,"video_depth":false}}
{"frame":5069,"timestamp":{"delta_seconds":0.05000000074505806,"elapsed_seconds":52.564145780168474},"control":{"throttle":1.0,"steer":0.25600001215934753,"brake":0.0,"hand_brake":false,"reverse":false,"manual_gear_shift":false,"gear":0},"transform":{"location":{"x":-89.22357940673828,"y":12.756823539733887,"z":-4.974365219823085e-05},"rotation":{"pitch":0.09229633957147598,"yaw":-174.32078552246094,"roll":-0.0505371056497097}},"velocity":{"x":-5.046047687530518,"y":-0.9667593240737915,"z":0.01907753013074398},"angular_velocity":{"x":-0.7453094720840454,"y":-0.14409901201725006,"z":18.281818389892578},"acceleration":{"x":-5.803098678588867,"y":-4.852399826049805,"z":0.09891796857118607},"speed_mps":5.137857998005743,"speed_kph":18.496288792820675,"speed_limit_kph":30.0,"collisions_this_frame":[],"waypoint":{"x":-89.22566986083984,"y":12.93606185913086,"z":0.0},"lane_deviation_m":0.17925052344799042,"lane_width":3.5,"goal":{"x":-68.73516845703125,"y":129.30384826660156,"z":0.5999999642372131},"fault":{"name":"traction_control_loss","severity":1.0},"capture_flags":{"save_rgb":true,"save_depth":false,"video_rgb":true,"video_depth":false}}
{"frame":5070,"timestamp":{"delta_seconds":0.05000000074505806,"elapsed_seconds":52.61414578091353},"control":{"throttle":1.0,"steer":0.22100000083446503,"brake":0.0,"hand_brake":false,"reverse":false,"manual_gear_shift":false,"gear":0},"transform":{"location":{"x":-89.48477935791016,"y":12.706732749938965,"z":0.000638236990198493},"rotation":{"pitch":0.08920909464359283,"yaw":-173.23545837402344,"roll":-0.0815429612994194}},"velocity":{"x":-5.324336051940918,"y":-1.2203218936920166,"z":0.010343017056584358},"angular_velocity":{"x":-0.48963767290115356,"y":-0.11273780465126038,"z":23.234163284301758},"acceleration":{"x":-5.565767288208008,"y":-5.071251392364502,"z":-0.17469026148319244},"speed_mps":5.462403033118639,"speed_kph":19.6646509192271,"speed_limit_kph":30.0,"collisions_this_frame":[],"waypoint":{"x":-89.48744201660156,"y":12.935334205627441,"z":0.0},"lane_deviation_m":0.2286178469657898,"lane_width":3.5,"goal":{"x":-68.73516845703125,"y":129.30384826660156,"z":0.5999999642372131},"fault":{"name":"traction_control_loss","severity":1.0},"capture_flags":{"save_rgb":true,"save_depth":false,"video_rgb":true,"video_depth":false}}
{"frame":5071,"timestamp":{"delta_seconds":0.05000000074505806,"elapsed_seconds":52.66414578165859},"control":{"throttle":1.0,"steer":0.10700000077486038,"brake":0.0,"hand_brake":false,"reverse":false,"manual_gear_shift":false,"gear":0},"transform":{"location":{"x":-89.7550048828125,"y":12.653682708740234,"z":0.0010599136585369706},"rotation":{"pitch":0.07989271730184555,"yaw":-172.2914276123047,"roll":-0.0633544847369194}},"velocity":{"x":-5.4428205490112305,"y":-1.144383430480957,"z":0.0057318019680678844},"angular_velocity":{"x":0.6020548939704895,"y":-0.13575297594070435,"z":16.882678985595703},"acceleration":{"x":-2.36968994140625,"y":1.5187692642211914,"z":-0.09222429990768433},"speed_mps":5.5618289993717065,"speed_kph":20.022584397738143,"speed_limit_kph":30.0,"collisions_this_frame":[],"waypoint":{"x":-89.7582778930664,"y":12.934581756591797,"z":0.0},"lane_deviation_m":0.2809201180934906,"lane_width":3.5,"goal":{"x":-68.73516845703125,"y":129.30384826660156,"z":0.5999999642372131},"fault":{"name":"traction_control_loss","severity":1.0},"capture_flags":{"save_rgb":true,"save_depth":false,"video_rgb":true,"video_depth":false}}
{"frame":5072,"timestamp":{"delta_seconds":0.05000000074505806,"elapsed_seconds":52.71414578240365},"control":{"throttle":1.0,"steer":0.1420000046491623,"brake":0.0,"hand_brake":false,"reverse":false,"manual_gear_shift":false,"gear":0},"transform":{"location":{"x":-90.03474426269531,"y":12.597620964050293,"z":0.0013028716202825308},"rotation":{"pitch":0.07365675270557404,"yaw":-171.47166442871094,"roll":-0.057006824761629105}},"velocity":{"x":-5.712564468383789,"y":-1.2715660333633423,"z":0.003259801771491766},"angular_velocity":{"x":-0.006777835078537464,"y":-0.02263772115111351,"z":16.99640655517578},"acceleration":{"x":-5.394878387451172,"y":-2.543652057647705,"z":-0.04944000393152237},"speed_mps":5.8523741856576414,"speed_kph":21.06854706836751,"speed_limit_kph":30.0,"collisions_this_frame":[],"waypoint":{"x":-90.03865814208984,"y":12.933802604675293,"z":0.0},"lane_deviation_m":0.33620694279670715,"lane_width":3.5,"goal":{"x":-68.73516845703125,"y":129.30384826660156,"z":0.5999999642372131},"fault":{"name":"traction_control_loss","severity":1.0},"capture_flags":{"save_rgb":true,"save_depth":false,"video_rgb":true,"video_depth":false}}
{"frame":5073,"timestamp":{"delta_seconds":0.05000000074505806,"elapsed_seconds":52.764145783148706},"control":{"throttle":1.0,"steer":0.19599999487400055,"brake":0.0,"hand_brake":false,"reverse":false,"manual_gear_shift":false,"gear":0},"transform":{"location":{"x":-90.32634735107422,"y":12.532933235168457,"z":0.0014422606909647584},"rotation":{"pitch":0.07018019258975983,"yaw":-170.47825622558594,"roll":-0.07357785850763321}},"velocity":{"x":-5.890462398529053,"y":-1.5052311420440674,"z":0.0019002723274752498},"angular_velocity":{"x":-0.4691315293312073,"y":-0.13486690819263458,"z":22.459636688232422},"acceleration":{"x":-3.5579586029052734,"y":-4.673302173614502,"z":-0.027190588414669037},"speed_mps":6.079742730617706,"speed_kph":21.887073830223745,"speed_limit_kph":30.0,"collisions_this_frame":[],"waypoint":{"x":-90.33100128173828,"y":12.932990074157715,"z":0.0},"lane_deviation_m":0.40008652210235596,"lane_width":3.5,"goal":{"x":-68.73516845703125,"y":129.30384826660156,"z":0.5999999642372131},"fault":{"name":"traction_control_loss","severity":1.0},"capture_flags":{"save_rgb":true,"save_depth":false,"video_rgb":true,"video_depth":false}}
{"frame":5074,"timestamp":{"delta_seconds":0.05000000074505806,"elapsed_seconds":52.814145783893764},"control":{"throttle":1.0,"steer":0.18000000715255737,"brake":0.0,"hand_brake":false,"reverse":false,"manual_gear_shift":false,"gear":0},"transform":{"location":{"x":-90.62755584716797,"y":12.459403038024902,"z":0.0015291214222088456},"rotation":{"pitch":0.06735248863697052,"yaw":-169.38397216796875,"roll":-0.0838928073644638}},"velocity":{"x":-6.0638275146484375,"y":-1.6571481227874756,"z":0.001134691177867353},"angular_velocity":{"x":-0.07705317437648773,"y":-0.11076584458351135,"z":21.681612014770508},"acceleration":{"x":-3.4673023223876953,"y":-3.038339614868164,"z":-0.015311622992157936},"speed_mps":6.2861868661207945,"speed_kph":22.63027271803486,"speed_limit_kph":30.0,"collisions_this_frame":[],"waypoint":{"x":-90.633056640625,"y":12.932150840759277,"z":0.0},"lane_deviation_m":0.47278228402137756,"lane_width":3.5,"goal":{"x":-68.73516845703125,"y":129.30384826660156,"z":0.5999999642372131},"fault":{"name":"traction_control_loss","severity":1.0},"capture_flags":{"save_rgb":true,"save_depth":false,"video_rgb":true,"video_depth":false}}
{"frame":5075,"timestamp":{"delta_seconds":0.05000000074505806,"elapsed_seconds":52.86414578463882},"control":{"throttle":1.0,"steer":0.11100000143051147,"brake":0.0,"hand_brake":false,"reverse":false,"manual_gear_shift":false,"gear":0},"transform":{"location":{"x":-90.94681549072266,"y":12.378963470458984,"z":0.0015428542392328382},"rotation":{"pitch":0.07225656509399414,"yaw":-168.4329376220703,"roll":-0.072906494140625}},"velocity":{"x":-6.4689531326293945,"y":-1.751289963722229,"z":0.0006981944898143411},"angular_velocity":{"x":0.20514965057373047,"y":0.07311895489692688,"z":17.84620475769043},"acceleration":{"x":-8.10251235961914,"y":-1.8828368186950684,"z":-0.008729933761060238},"speed_mps":6.701818533552323,"speed_kph":24.12654672078836,"speed_limit_kph":30.0,"collisions_this_frame":[],"waypoint":{"x":-90.94002532958984,"y":12.901339530944824,"z":0.0},"lane_deviation_m":0.5224224328994751,"lane_width":3.5,"goal":{"x":-68.73516845703125,"y":129.30384826660156,"z":0.5999999642372131},"fault":{"name":"traction_control_loss","severity":1.0},"capture_flags":{"save_rgb":true,"save_depth":false,"video_rgb":true,"video_depth":false}}
{"frame":5076,"timestamp":{"delta_seconds":0.05000000074505806,"elapsed_seconds":52.91414578538388},"control":{"throttle":1.0,"steer":0.1720000058412552,"brake":0.0,"hand_brake":false,"reverse":false,"manual_gear_shift":false,"gear":0},"transform":{"location":{"x":-91.27825164794922,"y":12.290470123291016,"z":0.0015668487176299095},"rotation":{"pitch":0.07273468375205994,"yaw":-167.4463348388672,"roll":-0.0811462551355362}},"velocity":{"x":-6.691842079162598,"y":-1.976152777671814,"z":0.00044039724161848426},"angular_velocity":{"x":-0.25048592686653137,"y":-0.06374825537204742,"z":21.12152862548828},"acceleration":{"x":-4.4577789306640625,"y":-4.497256278991699,"z":-0.00515594519674778},"speed_mps":6.977530394566616,"speed_kph":25.119109420439816,"speed_limit_kph":30.0,"collisions_this_frame":[],"waypoint":{"x":-91.23918914794922,"y":12.877877235412598,"z":0.0},"lane_deviation_m":0.5887065529823303,"lane_width":3.5,"goal":{"x":-68.73516845703125,"y":129.30384826660156,"z":0.5999999642372131},"fault":{"name":"traction_control_loss","severity":1.0},"capture_flags":{"save_rgb":true,"save_depth":false,"video_rgb":true,"video_depth":false}}
{"frame":5077,"timestamp":{"delta_seconds":0.05000000074505806,"elapsed_seconds":52.96414578612894},"control":{"throttle":1.0,"steer":0.07199999690055847,"brake":0.0,"hand_brake":false,"reverse":false,"manual_gear_shift":false,"gear":0},"transform":{"location":{"x":-91.62462615966797,"y":12.195005416870117,"z":0.0015717697096988559},"rotation":{"pitch":0.07477007806301117,"yaw":-166.56787109375,"roll":-0.0679015964269638}},"velocity":{"x":-7.049122333526611,"y":-2.0335114002227783,"z":0.00028424261836335063},"angular_velocity":{"x":0.3414784073829651,"y":0.14952777326107025,"z":14.915045738220215},"acceleration":{"x":-7.145605087280273,"y":-1.147172451019287,"z":-0.0031230924651026726},"speed_mps":7.336572385566269,"speed_kph":26.41166058803857,"speed_limit_kph":30.0,"collisions_this_frame":[],"waypoint":{"x":-91.6839828491211,"y":12.831205368041992,"z":0.0},"lane_deviation_m":0.638964831829071,"lane_width":3.5,"goal":{"x":-68.73516845703125,"y":129.30384826660156,"z":0.5999999642372131},"fault":{"name":"traction_control_loss","severity":1.0},"capture_flags":{"save_rgb":true,"save_depth":false,"video_rgb":true,"video_depth":false}}
{"frame":5078,"timestamp":{"delta_seconds":0.05000000074505806,"elapsed_seconds":53.014145786873996},"control":{"throttle":1.0,"steer":0.10100000351667404,"brake":0.0,"hand_brake":false,"reverse":false,"manual_gear_shift":false,"gear":0},"transform":{"location":{"x":-91.98686218261719,"y":12.092835426330566,"z":0.001567573519423604},"rotation":{"pitch":0.07737921178340912,"yaw":-165.79965209960938,"roll":-0.0643310397863388}},"velocity":{"x":-7.341939449310303,"y":-2.2000999450683594,"z":0.00018447876209393144},"angular_velocity":{"x":-0.023231100291013718,"y":0.04133414849638939,"z":15.615732192993164},"acceleration":{"x":-5.856342315673828,"y":-3.331770896911621,"z":-0.001995277125388384},"speed_mps":7.664497027180654,"speed_kph":27.592189297850354,"speed_limit_kph":30.0,"collisions_this_frame":[],"waypoint":{"x":-92.01297760009766,"y":12.7875394821167,"z":0.0},"lane_deviation_m":0.6951965093612671,"lane_width":3.5,"goal":{"x":-68.73516845703125,"y":129.30384826660156,"z":0.5999999642372131},"fault":{"name":"traction_control_loss","severity":1.0},"capture_flags":{"save_rgb":true,"save_depth":false,"video_rgb":true,"video_depth":false}}
{"frame":5079,"timestamp":{"delta_seconds":0.05000000074505806,"elapsed_seconds":53.064145787619054},"control":{"throttle":1.0,"steer":0.0860000029206276,"brake":0.0,"hand_brake":false,"reverse":false,"manual_gear_shift":false,"gear":0},"transform":{"location":{"x":-92.36577606201172,"y":11.981965065002441,"z":0.0015538787702098489},"rotation":{"pitch":0.08095822483301163,"yaw":-165.0466766357422,"roll":-0.0642700120806694}},"velocity":{"x":-7.698977947235107,"y":-2.3762924671173096,"z":0.00012167930253781378},"angular_velocity":{"x":-0.06264519691467285,"y":0.07428485155105591,"z":15.325483322143555},"acceleration":{"x":-7.140769958496094,"y":-3.523850440979004,"z":-0.001255989191122353},"speed_mps":8.057358583065348,"speed_kph":29.006490899035253,"speed_limit_kph":30.0,"collisions_this_frame":[],"waypoint":{"x":-92.49329376220703,"y":12.709663391113281,"z":0.0},"lane_deviation_m":0.7387881875038147,"lane_width":3.5,"goal":{"x":-68.73516845703125,"y":129.30384826660156,"z":0.5999999642372131},"fault":{"name":"traction_control_loss","severity":1.0},"capture_flags":{"save_rgb":true,"save_depth":false,"video_rgb":true,"video_depth":false}}
{"frame":5080,"timestamp":{"delta_seconds":0.05000000074505806,"elapsed_seconds":53.11414578836411},"control":{"throttle":1.0,"steer":0.09799999743700027,"brake":0.0,"hand_brake":false,"reverse":false,"manual_gear_shift":false,"gear":0},"transform":{"location":{"x":-92.76103210449219,"y":11.861175537109375,"z":0.0015403747092932463},"rotation":{"pitch":0.08407962322235107,"yaw":-164.2738494873047,"roll":-0.070556640625}},"velocity":{"x":-8.001582145690918,"y":-2.586164712905884,"z":8.364677341887727e-05},"angular_velocity":{"x":-0.1344795972108841,"y":0.008942879736423492,"z":15.84553050994873},"acceleration":{"x":-6.052083969116211,"y":-4.197444915771484,"z":-0.0007606506114825606},"speed_mps":8.40913579171582,"speed_kph":30.27288885017695,"speed_limit_kph":30.0,"collisions_this_frame":[],"waypoint":{"x":-92.85287475585938,"y":12.640233993530273,"z":0.0},"lane_deviation_m":0.7844549417495728,"lane_width":3.5,"goal":{"x":-68.73516845703125,"y":129.30384826660156,"z":0.5999999642372131},"fault":{"name":"traction_control_loss","severity":1.0},"capture_flags":{"save_rgb":true,"save_depth":false,"video_rgb":true,"video_depth":false}}
{"frame":5081,"timestamp":{"delta_seconds":0.05000000074505806,"elapsed_seconds":53.16414578910917},"control":{"throttle":1.0,"steer":0.19099999964237213,"brake":0.0,"hand_brake":false,"reverse":false,"manual_gear_shift":false,"gear":0},"transform":{"location":{"x":-93.17086029052734,"y":11.72555923461914,"z":0.0015307617140933871},"rotation":{"pitch":0.08633358776569366,"yaw":-163.23719787597656,"roll":-0.10241695493459702}},"velocity":{"x":-8.262179374694824,"y":-3.0041167736053467,"z":5.291938578011468e-05},"angular_velocity":{"x":-0.8530892729759216,"y":-0.20486465096473694,"z":24.566184997558594},"acceleration":{"x":-5.211944580078125,"y":-8.359041213989258,"z":-0.0006145477527752519},"speed_mps":8.79137791315389,"speed_kph":31.648960487354003,"speed_limit_kph":30.0,"collisions_this_frame":[],"waypoint":{"x":-93.36511993408203,"y":12.524563789367676,"z":0.0},"lane_deviation_m":0.8222818374633789,"lane_width":3.5,"goal":{"x":-68.73516845703125,"y":129.30384826660156,"z":0.5999999642372131},"fault":{"name":"traction_control_loss","severity":1.0},"capture_flags":{"save_rgb":true,"save_depth":false,"video_rgb":true,"video_depth":false}}
{"frame":5082,"timestamp":{"delta_seconds":0.05000000074505806,"elapsed_seconds":53.21414578985423},"control":{"throttle":1.0,"steer":0.14399999380111694,"brake":0.0,"hand_brake":false,"reverse":false,"manual_gear_shift":false,"gear":0},"transform":{"location":{"x":-93.5955810546875,"y":11.573338508605957,"z":0.0015146255027502775},"rotation":{"pitch":0.08949596434831619,"yaw":-161.96969604492188,"roll":-0.1227722018957138}},"velocity":{"x":-8.575918197631836,"y":-3.307631254196167,"z":3.1852719985181466e-05},"angular_velocity":{"x":-0.2755456268787384,"y":-0.02323864959180355,"z":25.876291275024414},"acceleration":{"x":-6.274776458740234,"y":-6.070289611816406,"z":-0.00042133330134674907},"speed_mps":9.19167000317259,"speed_kph":33.09001201142132,"speed_limit_kph":30.0,"collisions_this_frame":[],"waypoint":{"x":-93.7525405883789,"y":12.423723220825195,"z":0.0},"lane_deviation_m":0.8647500872612,"lane_width":3.5,"goal":{"x":-68.73516845703125,"y":129.30384826660156,"z":0.5999999642372131},"fault":{"name":"traction_control_loss","severity":1.0},"capture_flags":{"save_rgb":true,"save_depth":false,"video_rgb":true,"video_depth":false}}
{"frame":5083,"timestamp":{"delta_seconds":0.05000000074505806,"elapsed_seconds":53.26414579059929},"control":{"throttle":1.0,"steer":0.15299999713897705,"brake":0.0,"hand_brake":false,"reverse":false,"manual_gear_shift":false,"gear":0},"transform":{"location":{"x":-94.0356216430664,"y":11.404793739318848,"z":0.0015005492605268955},"rotation":{"pitch":0.09210509806871414,"yaw":-160.61257934570312,"roll":-0.1380005031824112}},"velocity":{"x":-8.86164379119873,"y":-3.6595253944396973,"z":1.7910002497956157e-05},"angular_velocity":{"x":-0.2954709827899933,"y":-0.05934352055191994,"z":27.814632415771484},"acceleration":{"x":-5.714511871337891,"y":-7.0378828048706055,"z":-0.00027885433519259095},"speed_mps":9.587536534217787,"speed_kph":34.51513152318403,"speed_limit_kph":30.0,"collisions_this_frame":[],"waypoint":{"x":-94.29420471191406,"y":12.26291561126709,"z":0.0},"lane_deviation_m":0.8962368965148926,"lane_width":3.5,"goal":{"x":-68.73516845703125,"y":129.30384826660156,"z":0.5999999642372131},"fault":{"name":"traction_control_loss","severity":1.0},"capture_flags":{"save_rgb":true,"save_depth":false,"video_rgb":true,"video_depth":false}}
{"frame":5084,"timestamp":{"delta_seconds":0.05000000074505806,"elapsed_seconds":53.314145791344345},"control":{"throttle":0.0,"steer":0.10999999940395355,"brake":0.0,"hand_brake":false,"reverse":false,"manual_gear_shift":false,"gear":0},"transform":{"location":{"x":-94.4903793334961,"y":11.22206974029541,"z":0.0014959716936573386},"rotation":{"pitch":0.09303399920463562,"yaw":-159.3380126953125,"roll":-0.1348876804113388}},"velocity":{"x":-9.150574684143066,"y":-3.8926708698272705,"z":1.3751983715337701e-05},"angular_velocity":{"x":0.09142003208398819,"y":0.02200717106461525,"z":24.48875617980957},"acceleration":{"x":-5.778617858886719,"y":-4.662909507751465,"z":-8.316037565236911e-05},"speed_mps":9.944139155858133,"speed_kph":35.79890096108928,"speed_limit_kph":30.0,"collisions_this_frame":[],"waypoint":{"x":-94.70719146728516,"y":12.124320030212402,"z":0.0},"lane_deviation_m":0.9279360771179199,"lane_width":3.5,"goal":{"x":-68.73516845703125,"y":129.30384826660156,"z":0.5999999642372131},"fault":{"name":"traction_control_loss","severity":1.0},"capture_flags":{"save_rgb":true,"save_depth":false,"video_rgb":true,"video_depth":false}}
{"frame":5085,"timestamp":{"delta_seconds":0.05000000074505806,"elapsed_seconds":53.3641457920894},"control":{"throttle":0.7183569073677063,"steer":0.2240000069141388,"brake":0.0,"hand_brake":false,"reverse":false,"manual_gear_shift":false,"gear":0},"transform":{"location":{"x":-94.95342254638672,"y":11.022436141967773,"z":0.0015243148664012551},"rotation":{"pitch":0.08838264644145966,"yaw":-157.9263916015625,"roll":-0.16113276779651642}},"velocity":{"x":-9.208456039428711,"y":-4.336555480957031,"z":4.711151177616557e-06},"angular_velocity":{"x":-0.7591575384140015,"y":-0.45923981070518494,"z":31.968486785888672},"acceleration":{"x":-1.1576271057128906,"y":-8.877692222595215,"z":-0.00018081664165947586},"speed_mps":10.178476117255066,"speed_kph":36.64251402211824,"speed_limit_kph":30.0,"collisions_this_frame":[],"waypoint":{"x":-95.26685333251953,"y":11.913569450378418,"z":0.0},"lane_deviation_m":0.9446479678153992,"lane_width":3.5,"goal":{"x":-68.73516845703125,"y":129.30384826660156,"z":0.5999999642372131},"fault":{"name":"traction_control_loss","severity":1.0},"capture_flags":{"save_rgb":true,"save_depth":false,"video_rgb":true,"video_depth":false}}
{"frame":5086,"timestamp":{"delta_seconds":0.05000000074505806,"elapsed_seconds":53.41414579283446},"control":{"throttle":0.8437528610229492,"steer":0.23100000619888306,"brake":0.0,"hand_brake":false,"reverse":false,"manual_gear_shift":false,"gear":0},"transform":{"location":{"x":-95.41741943359375,"y":10.801071166992188,"z":0.0015726470155641437},"rotation":{"pitch":0.08028203994035721,"yaw":-156.0833282470703,"roll":-0.2039184421300888}},"velocity":{"x":-9.195602416992188,"y":-4.805675506591797,"z":-4.901885858998867e-06},"angular_velocity":{"x":-0.6314349174499512,"y":-0.4530400335788727,"z":39.50651931762695},"acceleration":{"x":0.25707244873046875,"y":-9.382400512695312,"z":-0.0001922607480082661},"speed_mps":10.375626288859527,"speed_kph":37.3522546398943,"speed_limit_kph":30.0,"collisions_this_frame":[],"waypoint":{"x":-95.82667541503906,"y":11.675180435180664,"z":0.0},"lane_deviation_m":0.9651734828948975,"lane_width":3.5,"goal":{"x":-68.73516845703125,"y":129.30384826660156,"z":0.5999999642372131},"fault":{"name":"traction_control_loss","severity":1.0},"capture_flags":{"save_rgb":true,"save_depth":false,"video_rgb":true,"video_depth":false}}
{"frame":5087,"timestamp":{"delta_seconds":0.05000000074505806,"elapsed_seconds":53.46414579357952},"control":{"throttle":0.7937528491020203,"steer":0.2919999957084656,"brake":0.0,"hand_brake":false,"reverse":false,"manual_gear_shift":false,"gear":0},"transform":{"location":{"x":-95.87957763671875,"y":10.556227684020996,"z":0.0016232299385592341},"rotation":{"pitch":0.07177845388650894,"yaw":-153.8458251953125,"roll":-0.2503967583179474}},"velocity":{"x":-9.091577529907227,"y":-5.347170352935791,"z":-1.760482700774446e-05},"angular_velocity":{"x":-0.7761241793632507,"y":-0.563664972782135,"z":48.0766487121582},"acceleration":{"x":2.0804977416992188,"y":-10.829896926879883,"z":-0.0002540588320698589},"speed_mps":10.547464755377918,"speed_kph":37.970873119360505,"speed_limit_kph":30.0,"collisions_this_frame":[],"waypoint":{"x":-96.24760437011719,"y":11.47683334350586,"z":0.0},"lane_deviation_m":0.991443932056427,"lane_width":3.5,"goal":{"x":-68.73516845703125,"y":129.30384826660156,"z":0.5999999642372131},"fault":{"name":"traction_control_loss","severity":1.0},"capture_flags":{"save_rgb":true,"save_depth":false,"video_rgb":true,"video_depth":false}}
{"frame":5088,"timestamp":{"delta_seconds":0.05000000074505806,"elapsed_seconds":53.51414579432458},"control":{"throttle":0.7437528371810913,"steer":0.2849999964237213,"brake":0.0,"hand_brake":false,"reverse":false,"manual_gear_shift":false,"gear":0},"transform":{"location":{"x":-96.33756256103516,"y":10.286643981933594,"z":0.0016668319003656507},"rotation":{"pitch":0.06435403972864151,"yaw":-151.28652954101562,"roll":-0.2881469428539276}},"velocity":{"x":-8.9791898727417,"y":-5.856608867645264,"z":-2.361297629249748e-05},"angular_velocity":{"x":-0.5053154826164246,"y":-0.4319530725479126,"z":52.88126754760742},"acceleration":{"x":2.247753143310547,"y":-10.188770294189453,"z":-0.00012016298569506034},"speed_mps":10.720341328515888,"speed_kph":38.5932287826572,"speed_limit_kph":30.0,"collisions_this_frame":[],"waypoint":{"x":-96.80323028564453,"y":11.188470840454102,"z":0.0},"lane_deviation_m":1.0149585008621216,"lane_width":3.5,"goal":{"x":-68.73516845703125,"y":129.30384826660156,"z":0.5999999642372131},"fault":{"name":"traction_control_loss","severity":1.0},"capture_flags":{"save_rgb":true,"save_depth":false,"video_rgb":true,"video_depth":false}}
{"frame":5089,"timestamp":{"delta_seconds":0.05000000074505806,"elapsed_seconds":53.564145795069635},"control":{"throttle":0.0,"steer":0.21400000154972076,"brake":1.0,"hand_brake":false,"reverse":false,"manual_gear_shift":false,"gear":0},"transform":{"location":{"x":-96.79293060302734,"y":9.995504379272461,"z":0.001700553810223937},"rotation":{"pitch":0.058500565588474274,"yaw":-148.78273010253906,"roll":-0.2940063178539276}},"velocity":{"x":-8.933557510375977,"y":-6.221383571624756,"z":-1.0080337233375758e-05},"angular_velocity":{"x":0.060587964951992035,"y":-0.1197613850235939,"z":48.28037643432617},"acceleration":{"x":0.9126472473144531,"y":-7.295494079589844,"z":0.000270652788458392},"speed_mps":10.886416459817207,"speed_kph":39.191099255341946,"speed_limit_kph":30.0,"collisions_this_frame":[],"waypoint":{"x":-97.35423278808594,"y":10.870694160461426,"z":0.0},"lane_deviation_m":1.039721131324768,"lane_width":3.5,"goal":{"x":-68.73516845703125,"y":129.30384826660156,"z":0.5999999642372131},"fault":{"name":"traction_control_loss","severity":1.0},"capture_flags":{"save_rgb":true,"save_depth":false,"video_rgb":true,"video_depth":false}}
{"frame":5090,"timestamp":{"delta_seconds":0.05000000074505806,"elapsed_seconds":53.61414579581469},"control":{"throttle":0.0,"steer":0.16099999845027924,"brake":1.0,"hand_brake":false,"reverse":false,"manual_gear_shift":false,"gear":0},"transform":{"location":{"x":-97.2435531616211,"y":9.689498901367188,"z":0.001757774269208312},"rotation":{"pitch":0.04861728474497795,"yaw":-146.62887573242188,"roll":-0.2758178412914276}},"velocity":{"x":-8.8165283203125,"y":-6.412468910217285,"z":9.202956789522432e-06},"angular_velocity":{"x":0.4514039158821106,"y":-0.00016721455904189497,"z":40.575050354003906},"acceleration":{"x":2.3405838012695312,"y":-3.821706771850586,"z":0.0003856658877339214},"speed_mps":10.901877322161551,"speed_kph":39.24675835978159,"speed_limit_kph":30.0,"collisions_this_frame":[],"waypoint":{"x":-97.7643814086914,"y":10.612098693847656,"z":0.0},"lane_deviation_m":1.0594600439071655,"lane_width":3.5,"goal":{"x":-68.73516845703125,"y":129.30384826660156,"z":0.5999999642372131},"fault":{"name":"traction_control_loss","severity":1.0},"capture_flags":{"save_rgb":true,"save_depth":false,"video_rgb":true,"video_depth":false}}
{"frame":5091,"timestamp":{"delta_seconds":0.05000000074505806,"elapsed_seconds":53.66414579655975},"control":{"throttle":0.0,"steer":0.2070000022649765,"brake":1.0,"hand_brake":false,"reverse":false,"manual_gear_shift":false,"gear":0},"transform":{"location":{"x":-97.68036651611328,"y":9.371870040893555,"z":0.0018588637467473745},"rotation":{"pitch":0.0314803384244442,"yaw":-144.63380432128906,"roll":-0.2764892578125}},"velocity":{"x":-8.453140258789062,"y":-6.629220485687256,"z":1.0023117283708416e-05},"angular_velocity":{"x":0.1138097420334816,"y":-0.3959186375141144,"z":39.81690979003906},"acceleration":{"x":7.26776123046875,"y":-4.335031509399414,"z":1.6403209883719683e-05},"speed_mps":10.742539014716979,"speed_kph":38.67314045298112,"speed_limit_kph":30.0,"collisions_this_frame":[],"waypoint":{"x":-98.28990936279297,"y":10.250995635986328,"z":0.0},"lane_deviation_m":1.0697699785232544,"lane_width":3.5,"goal":{"x":-68.73516845703125,"y":129.30384826660156,"z":0.5999999642372131},"fault":{"name":"traction_control_loss","severity":1.0},"capture_flags":{"save_rgb":true,"save_depth":false,"video_rgb":true,"video_depth":false}}
{"frame":5092,"timestamp":{"delta_seconds":0.05000000074505806,"elapsed_seconds":53.71414579730481},"control":{"throttle":0.0,"steer":-0.017999999225139618,"brake":1.0,"hand_brake":false,"reverse":false,"manual_gear_shift":false,"gear":0},"transform":{"location":{"x":-98.10318756103516,"y":9.051563262939453,"z":0.0019703293219208717},"rotation":{"pitch":0.012314829975366592,"yaw":-143.07049560546875,"roll":-0.2305602729320526}},"velocity":{"x":-8.307214736938477,"y":-6.457509517669678,"z":2.1219253540039062e-05},"angular_velocity":{"x":1.4766358137130737,"y":0.6230674982070923,"z":23.136030197143555},"acceleration":{"x":2.9185104370117188,"y":3.4342193603515625,"z":0.00022392271785065532},"speed_mps":10.521846123986633,"speed_kph":37.878646046351875,"speed_limit_kph":30.0,"collisions_this_frame":[],"waypoint":{"x":-98.66840362548828,"y":9.968563079833984,"z":0.0},"lane_deviation_m":1.077201008796692,"lane_width":3.5,"goal":{"x":-68.73516845703125,"y":129.30384826660156,"z":0.5999999642372131},"fault":{"name":"traction_control_loss","severity":1.0},"capture_flags":{"save_rgb":true,"save_depth":false,"video_rgb":true,"video_depth":false}}
{"frame":5093,"timestamp":{"delta_seconds":0.05000000074505806,"elapsed_seconds":53.76414579804987},"control":{"throttle":0.0,"steer":0.09300000220537186,"brake":1.0,"hand_brake":false,"reverse":false,"manual_gear_shift":false,"gear":0},"transform":{"location":{"x":-98.51321411132812,"y":8.735051155090332,"z":0.0020800780039280653},"rotation":{"pitch":-0.0063110943883657455,"yaw":-142.0791015625,"roll":-0.1939697265625}},"velocity":{"x":-7.988624572753906,"y":-6.426440238952637,"z":2.8238295271876268e-05},"angular_velocity":{"x":0.4662354588508606,"y":-0.09381834417581558,"z":18.99706268310547},"acceleration":{"x":6.371803283691406,"y":0.6213855743408203,"z":0.00014038084191270173},"speed_mps":10.252670711089602,"speed_kph":36.90961455992257,"speed_limit_kph":30.0,"collisions_this_frame":[],"waypoint":{"x":-99.14930725097656,"y":9.58013916015625,"z":0.0},"lane_deviation_m":1.0577298402786255,"lane_width":3.5,"goal":{"x":-68.73516845703125,"y":129.30384826660156,"z":0.5999999642372131},"fault":{"name":"traction_control_loss","severity":1.0},"capture_flags":{"save_rgb":true,"save_depth":false,"video_rgb":true,"video_depth":false}}
{"frame":5094,"timestamp":{"delta_seconds":0.05000000074505806,"elapsed_seconds":53.814145798794925},"control":{"throttle":0.44375285506248474,"steer":0.08699999749660492,"brake":0.0,"hand_brake":false,"reverse":false,"manual_gear_shift":false,"gear":0},"transform":{"location":{"x":-98.90602111816406,"y":8.418959617614746,"z":0.0021720505319535732},"rotation":{"pitch":-0.021842943504452705,"yaw":-141.15225219726562,"roll":-0.1826171576976776}},"velocity":{"x":-7.664659023284912,"y":-6.402824401855469,"z":1.7623900930630043e-05},"angular_velocity":{"x":0.3228525221347809,"y":-0.0802924856543541,"z":18.332067489624023},"acceleration":{"x":6.479310989379883,"y":0.4723167419433594,"z":-0.00021228787954896688},"speed_mps":9.987149656660266,"speed_kph":35.95373876397696,"speed_limit_kph":30.0,"collisions_this_frame":[],"waypoint":{"x":-99.60364532470703,"y":9.178740501403809,"z":0.0},"lane_deviation_m":1.031480073928833,"lane_width":3.5,"goal":{"x":-68.73516845703125,"y":129.30384826660156,"z":0.5999999642372131},"fault":{"name":"traction_control_loss","severity":1.0},"capture_flags":{"save_rgb":true,"save_depth":false,"video_rgb":true,"video_depth":false}}
{"frame":5095,"timestamp":{"delta_seconds":0.05000000074505806,"elapsed_seconds":53.86414579953998},"control":{"throttle":0.3937528729438782,"steer":0.032999999821186066,"brake":0.0,"hand_brake":false,"reverse":false,"manual_gear_shift":false,"gear":0},"transform":{"location":{"x":-99.28715515136719,"y":8.10509204864502,"z":0.002221679547801614},"rotation":{"pitch":-0.030305547639727592,"yaw":-140.45941162109375,"roll":-0.1541747897863388}},"velocity":{"x":-7.512031555175781,"y":-6.319279670715332,"z":1.4467239452642389e-05},"angular_velocity":{"x":0.5247678756713867,"y":0.2950019836425781,"z":11.561129570007324},"acceleration":{"x":3.052549362182617,"y":1.6708946228027344,"z":-6.313322955975309e-05},"speed_mps":9.816512295254462,"speed_kph":35.33944426291607,"speed_limit_kph":30.0,"collisions_this_frame":[],"waypoint":{"x":-99.91073608398438,"y":8.882539749145508,"z":0.0},"lane_deviation_m":0.996635913848877,"lane_width":3.5,"goal":{"x":-68.73516845703125,"y":129.30384826660156,"z":0.5999999642372131},"fault":{"name":"traction_control_loss","severity":1.0},"capture_flags":{"save_rgb":true,"save_depth":false,"video_rgb":true,"video_depth":false}}
{"frame":5096,"timestamp":{"delta_seconds":0.05000000074505806,"elapsed_seconds":53.91414580028504},"control":{"throttle":0.3437528610229492,"steer":-0.07100000232458115,"brake":0.0,"hand_brake":false,"reverse":false,"manual_gear_shift":false,"gear":0},"transform":{"location":{"x":-99.66434478759766,"y":7.796729564666748,"z":0.0022338484413921833},"rotation":{"pitch":-0.032375093549489975,"yaw":-140.2551727294922,"roll":-0.0977477952837944}},"velocity":{"x":-7.536545276641846,"y":-6.104269981384277,"z":1.789093039405998e-05},"angular_velocity":{"x":0.954298198223114,"y":0.7783626317977905,"z":-0.7435170412063599},"acceleration":{"x":-0.49027442932128906,"y":4.300193786621094,"z":6.84738188283518e-05},"speed_mps":9.69853734914816,"speed_kph":34.914734456933374,"speed_limit_kph":30.0,"collisions_this_frame":[],"waypoint":{"x":-100.32180786132812,"y":8.44881820678711,"z":0.0},"lane_deviation_m":0.9260033965110779,"lane_width":3.5,"goal":{"x":-68.73516845703125,"y":129.30384826660156,"z":0.5999999642372131},"fault":{"name":"traction_control_loss","severity":1.0},"capture_flags":{"save_rgb":true,"save_depth":false,"video_rgb":true,"video_depth":false}}
{"frame":5097,"timestamp":{"delta_seconds":0.05000000074505806,"elapsed_seconds":53.9641458010301},"control":{"throttle":0.29375284910202026,"steer":0.2549999952316284,"brake":0.0,"hand_brake":false,"reverse":false,"manual_gear_shift":false,"gear":0},"transform":{"location":{"x":-100.03571319580078,"y":7.48968505859375,"z":0.0022308730985969305},"rotation":{"pitch":-0.03176720812916756,"yaw":-140.1204833984375,"roll":-0.0948791354894638}},"velocity":{"x":-7.298665523529053,"y":-6.223238468170166,"z":1.0156631105928682e-05},"angular_velocity":{"x":-0.47215157747268677,"y":-0.37788140773773193,"z":7.407864093780518},"acceleration":{"x":4.757595062255859,"y":-2.3793697357177734,"z":-0.00015468598576262593},"speed_mps":9.591622149363877,"speed_kph":34.529839737709956,"speed_limit_kph":30.0,"collisions_this_frame":[],"waypoint":{"x":-100.70077514648438,"y":8.005094528198242,"z":0.0},"lane_deviation_m":0.8414031863212585,"lane_width":3.5,"goal":{"x":-68.73516845703125,"y":129.30384826660156,"z":0.5999999642372131},"fault":{"name":"traction_control_loss","severity":1.0},"capture_flags":{"save_rgb":true,"save_depth":false,"video_rgb":true,"video_depth":false}}
{"frame":5098,"timestamp":{"delta_seconds":0.05000000074505806,"elapsed_seconds":54.01414580177516},"control":{"throttle":0.2437528669834137,"steer":0.24300000071525574,"brake":0.0,"hand_brake":false,"reverse":false,"manual_gear_shift":false,"gear":0},"transform":{"location":{"x":-100.39130401611328,"y":7.174611568450928,"z":0.00223541259765625},"rotation":{"pitch":-0.032409247010946274,"yaw":-139.2706298828125,"roll":-0.14788818359375}},"velocity":{"x":-6.87500524520874,"y":-6.4754557609558105,"z":-9.183883776131552e-06},"angular_velocity":{"x":-0.8915871381759644,"y":-0.8033214211463928,"z":23.318178176879883},"acceleration":{"x":8.47320556640625,"y":-5.044345855712891,"z":-0.00038681027945131063},"speed_mps":9.444428221646232,"speed_kph":33.99994159792644,"speed_limit_kph":30.0,"collisions_this_frame":[],"waypoint":{"x":-100.9495849609375,"y":7.6868815422058105,"z":0.0},"lane_deviation_m":0.7576959133148193,"lane_width":3.5,"goal":{"x":-68.73516845703125,"y":129.30384826660156,"z":0.5999999642372131},"fault":{"name":"traction_control_loss","severity":1.0},"capture_flags":{"save_rgb":true,"save_depth":false,"video_rgb":true,"video_depth":false}}
{"frame":5099,"timestamp":{"delta_seconds":0.05000000074505806,"elapsed_seconds":54.064145802520216},"control":{"throttle":1.0,"steer":0.30300000309944153,"brake":0.0,"hand_brake":false,"reverse":false,"manual_gear_shift":false,"gear":0},"transform":{"location":{"x":-100.72637176513672,"y":6.849756717681885,"z":0.0022488401737064123},"rotation":{"pitch":-0.034608565270900726,"yaw":-137.63360595703125,"roll":-0.2077941596508026}},"velocity":{"x":-6.389059543609619,"y":-6.739805221557617,"z":-2.465247962391004e-05},"angular_velocity":{"x":-0.7843780517578125,"y":-0.7627237439155579,"z":38.232669830322266},"acceleration":{"x":9.718914031982422,"y":-5.286989212036133,"z":-0.00030937191331759095},"speed_mps":9.286821645586407,"speed_kph":33.432557924111066,"speed_limit_kph":30.0,"collisions_this_frame":[],"waypoint":{"x":-101.2752914428711,"y":7.232010841369629,"z":0.0},"lane_deviation_m":0.6689066290855408,"lane_width":3.5,"goal":{"x":-68.73516845703125,"y":129.30384826660156,"z":0.5999999642372131},"fault":{"name":"traction_control_loss","severity":1.0},"capture_flags":{"save_rgb":true,"save_depth":false,"video_rgb":true,"video_depth":false}}
{"frame":5100,"timestamp":{"delta_seconds":0.05000000074505806,"elapsed_seconds":54.114145803265274},"control":{"throttle":0.4739426076412201,"steer":0.609000027179718,"brake":0.0,"hand_brake":false,"reverse":false,"manual_gear_shift":false,"gear":0},"transform":{"location":{"x":-101.03872680664062,"y":6.513835430145264,"z":0.0022623443510383368},"rotation":{"pitch":-0.03686252981424332,"yaw":-135.337890625,"roll":-0.2645873427391052}},"velocity":{"x":-5.836403846740723,"y":-7.027004241943359,"z":-3.4637450880836695e-05},"angular_velocity":{"x":-0.8123264908790588,"y":-0.8714356422424316,"z":51.103424072265625},"acceleration":{"x":11.05311393737793,"y":-5.743980407714844,"z":-0.00019969942513853312},"speed_mps":9.134681082541395,"speed_kph":32.88485189714902,"speed_limit_kph":30.0,"collisions_this_frame":[],"waypoint":{"x":-101.48978424072266,"y":6.904452800750732,"z":0.0},"lane_deviation_m":0.5966907739639282,"lane_width":3.5,"goal":{"x":-68.73516845703125,"y":129.30384826660156,"z":0.5999999642372131},"fault":{"name":"traction_control_loss","severity":1.0},"capture_flags":{"save_rgb":true,"save_depth":false,"video_rgb":true,"video_depth":false}}
{"frame":5101,"timestamp":{"delta_seconds":0.05000000074505806,"elapsed_seconds":54.16414580401033},"control":{"throttle":1.0,"steer":0.5429999828338623,"brake":0.0,"hand_brake":false,"reverse":false,"manual_gear_shift":false,"gear":0},"transform":{"location":{"x":-101.3227310180664,"y":6.165351390838623,"z":0.0022836304269731045},"rotation":{"pitch":-0.04043471813201904,"yaw":-132.33349609375,"roll":-0.32830801606178284}},"velocity":{"x":-5.153464317321777,"y":-7.332424163818359,"z":-4.8379897634731606e-05},"angular_velocity":{"x":-0.8279887437820435,"y":-1.011290431022644,"z":66.09503173828125},"acceleration":{"x":13.658790588378906,"y":-6.1083984375,"z":-0.00027484894962981343},"speed_mps":8.96228980732027,"speed_kph":32.264243306352974,"speed_limit_kph":30.0,"collisions_this_frame":[],"waypoint":{"x":-101.76560974121094,"y":6.443326473236084,"z":0.0},"lane_deviation_m":0.5228928327560425,"lane_width":3.5,"goal":{"x":-68.73516845703125,"y":129.30384826660156,"z":0.5999999642372131},"fault":{"name":"traction_control_loss","severity":1.0},"capture_flags":{"save_rgb":true,"save_depth":false,"video_rgb":true,"video_depth":false}}
