{"frame":36,"timestamp":{"delta_seconds":0.05000000074505806,"elapsed_seconds":3.973627449013293},"control":{"throttle":0.75,"steer":0.0,"brake":0.0,"hand_brake":false,"reverse":false,"manual_gear_shift":false,"gear":0},"transform":{"location":{"x":-87.6230239868164,"y":12.967159271240234,"z":0.48239994049072266},"rotation":{"pitch":0.0,"yaw":-179.84078979492188,"roll":0.0}},"velocity":{"x":0.0,"y":0.0,"z":-1.470000147819519},"angular_velocity":{"x":0.0,"y":0.0,"z":0.0},"acceleration":{"x":0.0,"y":0.0,"z":-9.80000114440918},"speed_mps":1.470000147819519,"speed_kph":5.2920005321502686,"speed_limit_kph":30.0,"collisions_this_frame":[],"waypoint":{"x":-87.62295532226562,"y":12.94051742553711,"z":0.0},"lane_deviation_m":0.48313507437705994,"lane_width":3.5,"goal":{"x":6.006511211395264,"y":66.28325653076172,"z":0.5999999642372131},"fault":{"name":"traction_control_loss","severity":1.0},"capture_flags":{"save_rgb":true,"save_depth":false,"video_rgb":true,"video_depth":false}}
{"frame":37,"timestamp":{"delta_seconds":0.05000000074505806,"elapsed_seconds":4.023627449758351},"control":{"throttle":0.75,"steer":0.0,"brake":0.0,"hand_brake":false,"reverse":false,"manual_gear_shift":false,"gear":0},"transform":{"location":{"x":-87.6230239868164,"y":12.967159271240234,"z":0.394199937582016},"rotation":{"pitch":0.0,"yaw":-179.84078979492188,"roll":0.0}},"velocity":{"x":0.0,"y":0.0,"z":-1.9600002765655518},"angular_velocity":{"x":0.0,"y":0.0,"z":0.0},"acceleration":{"x":0.0,"y":0.0,"z":-9.800003051757812},"speed_mps":1.9600002765655518,"speed_kph":7.056000995635986,"speed_limit_kph":30.0,"collisions_this_frame":[],"waypoint":{"x":-87.62295532226562,"y":12.94051742553711,"z":0.0},"lane_deviation_m":0.3950991928577423,"lane_width":3.5,"goal":{"x":6.006511211395264,"y":66.28325653076172,"z":0.5999999642372131},"fault":{"name":"traction_control_loss","severity":1.0},"capture_flags":{"save_rgb":true,"save_depth":false,"video_rgb":true,"video_depth":false}}
{"frame":38,"timestamp":{"delta_seconds":0.05000000074505806,"elapsed_seconds":4.073627450503409},"control":{"throttle":0.75,"steer":0.0,"brake":0.0,"hand_brake":false,"reverse":false,"manual_gear_shift":false,"gear":0},"transform":{"location":{"x":-87.6230239868164,"y":12.967159271240234,"z":0.281499981880188},"rotation":{"pitch":0.0,"yaw":-179.84078979492188,"roll":0.0}},"velocity":{"x":0.0,"y":0.0,"z":-2.450000286102295},"angular_velocity":{"x":0.0,"y":0.0,"z":0.0},"acceleration":{"x":0.0,"y":0.0,"z":-9.800000190734863},"speed_mps":2.450000286102295,"speed_kph":8.820001029968262,"speed_limit_kph":30.0,"collisions_this_frame":[],"waypoint":{"x":-87.62295532226562,"y":12.94051742553711,"z":0.0},"lane_deviation_m":0.2827579081058502,"lane_width":3.5,"goal":{"x":6.006511211395264,"y":66.28325653076172,"z":0.5999999642372131},"fault":{"name":"traction_control_loss","severity":1.0},"capture_flags":{"save_rgb":true,"save_depth":false,"video_rgb":true,"video_depth":false}}
{"frame":39,"timestamp":{"delta_seconds":0.05000000074505806,"elapsed_seconds":4.123627451248467},"control":{"throttle":0.75,"steer":0.0,"brake":0.0,"hand_brake":false,"reverse":false,"manual_gear_shift":false,"gear":0},"transform":{"location":{"x":-87.6230239868164,"y":12.967159271240234,"z":0.14429987967014313},"rotation":{"pitch":0.0,"yaw":-179.84078979492188,"roll":0.0}},"velocity":{"x":0.0,"y":0.0,"z":-2.93999981880188},"angular_velocity":{"x":0.0,"y":0.0,"z":0.0},"acceleration":{"x":0.0,"y":0.0,"z":-9.7999906539917},"speed_mps":2.93999981880188,"speed_kph":10.583999347686769,"speed_limit_kph":30.0,"collisions_this_frame":[],"waypoint":{"x":-87.62295532226562,"y":12.94051742553711,"z":0.0},"lane_deviation_m":0.1467387080192566,"lane_width":3.5,"goal":{"x":6.006511211395264,"y":66.28325653076172,"z":0.5999999642372131},"fault":{"name":"traction_control_loss","severity":1.0},"capture_flags":{"save_rgb":true,"save_depth":false,"video_rgb":true,"video_depth":false}}
{"frame":40,"timestamp":{"delta_seconds":0.05000000074505806,"elapsed_seconds":4.173627451993525},"control":{"throttle":0.75,"steer":0.0,"brake":0.0,"hand_brake":false,"reverse":false,"manual_gear_shift":false,"gear":0},"transform":{"location":{"x":-87.62357330322266,"y":12.96517276763916,"z":0.009365997277200222},"rotation":{"pitch":0.07286445051431656,"yaw":-179.8075408935547,"roll":-0.1875305026769638}},"velocity":{"x":0.0027095067780464888,"y":-0.022531399503350258,"z":-2.008272886276245},"angular_velocity":{"x":-5.179205417633057,"y":2.2222490310668945,"z":0.21223808825016022},"acceleration":{"x":0.05419013649225235,"y":-0.45062798261642456,"z":18.634538650512695},"speed_mps":2.0084011031521767,"speed_kph":7.230243971347837,"speed_limit_kph":30.0,"collisions_this_frame":[],"waypoint":{"x":-87.62350463867188,"y":12.940515518188477,"z":0.0},"lane_deviation_m":0.026376251131296158,"lane_width":3.5,"goal":{"x":6.006511211395264,"y":66.28325653076172,"z":0.5999999642372131},"fault":{"name":"traction_control_loss","severity":1.0},"capture_flags":{"save_rgb":true,"save_depth":false,"video_rgb":true,"video_depth":false}}
{"frame":41,"timestamp":{"delta_seconds":0.05000000074505806,"elapsed_seconds":4.223627452738583},"control":{"throttle":0.75,"steer":0.0,"brake":0.0,"hand_brake":false,"reverse":false,"manual_gear_shift":false,"gear":0},"transform":{"location":{"x":-87.62406921386719,"y":12.96351146697998,"z":-0.04846011847257614},"rotation":{"pitch":0.15083788335323334,"yaw":-179.8032989501953,"roll":-0.33303821086883545}},"velocity":{"x":-0.0006389307673089206,"y":-0.006589831784367561,"z":-0.7027705311775208},"angular_velocity":{"x":-1.4378985166549683,"y":1.0056092739105225,"z":-0.048369329422712326},"acceleration":{"x":-0.06696875393390656,"y":0.31883135437965393,"z":26.110048294067383},"speed_mps":0.702801717134361,"speed_kph":2.5300861816837,"speed_limit_kph":30.0,"collisions_this_frame":[],"waypoint":{"x":-87.62400817871094,"y":12.940513610839844,"z":0.0},"lane_deviation_m":0.05364036187529564,"lane_width":3.5,"goal":{"x":6.006511211395264,"y":66.28325653076172,"z":0.5999999642372131},"fault":{"name":"traction_control_loss","severity":1.0},"capture_flags":{"save_rgb":true,"save_depth":false,"video_rgb":true,"video_depth":false}}
{"frame":42,"timestamp":{"delta_seconds":0.05000000074505806,"elapsed_seconds":4.273627453483641},"control":{"throttle":0.75,"steer":0.0,"brake":0.0,"hand_brake":false,"reverse":false,"manual_gear_shift":false,"gear":0},"transform":{"location":{"x":-87.62419128417969,"y":12.963289260864258,"z":-0.06371334195137024},"rotation":{"pitch":0.17248958349227905,"yaw":-179.8021240234375,"roll":-0.34954833984375}},"velocity":{"x":0.0011277806479483843,"y":-0.00022247667948249727,"z":-0.1011342778801918},"angular_velocity":{"x":0.21106195449829102,"y":0.11070902645587921,"z":0.06372814625501633},"acceleration":{"x":0.035334229469299316,"y":0.12734709680080414,"z":12.032724380493164},"speed_mps":0.10114081049413562,"speed_kph":0.36410691777888826,"speed_limit_kph":30.0,"collisions_this_frame":[],"waypoint":{"x":-87.62413024902344,"y":12.940513610839844,"z":0.0},"lane_deviation_m":0.0676618367433548,"lane_width":3.5,"goal":{"x":6.006511211395264,"y":66.28325653076172,"z":0.5999999642372131},"fault":{"name":"traction_control_loss","severity":1.0},"capture_flags":{"save_rgb":true,"save_depth":false,"video_rgb":true,"video_depth":false}}
{"frame":43,"timestamp":{"delta_seconds":0.05000000074505806,"elapsed_seconds":4.323627454228699},"control":{"throttle":0.75,"steer":0.0,"brake":0.0,"hand_brake":false,"reverse":false,"manual_gear_shift":false,"gear":0},"transform":{"location":{"x":-87.62409973144531,"y":12.96371078491211,"z":-0.06023666262626648},"rotation":{"pitch":0.15232686698436737,"yaw":-179.80409240722656,"roll":-0.29660025238990784}},"velocity":{"x":-0.001690506935119629,"y":0.0026213484816253185,"z":0.14474524557590485},"angular_velocity":{"x":1.149038314819336,"y":-0.4998834431171417,"z":-0.0935584306716919},"acceleration":{"x":-0.05636575073003769,"y":0.05687650293111801,"z":4.917590618133545},"speed_mps":0.1447788499691471,"speed_kph":0.5212038598889296,"speed_limit_kph":30.0,"collisions_this_frame":[],"waypoint":{"x":-87.62403869628906,"y":12.940513610839844,"z":0.0},"lane_deviation_m":0.06454896181821823,"lane_width":3.5,"goal":{"x":6.006511211395264,"y":66.28325653076172,"z":0.5999999642372131},"fault":{"name":"traction_control_loss","severity":1.0},"capture_flags":{"save_rgb":true,"save_depth":false,"video_rgb":true,"video_depth":false}}
{"frame":44,"timestamp":{"delta_seconds":0.05000000074505806,"elapsed_seconds":4.373627454973757},"control":{"throttle":0.75,"steer":0.0,"brake":0.0,"hand_brake":false,"reverse":false,"manual_gear_shift":false,"gear":0},"transform":{"location":{"x":-87.62395477294922,"y":12.964290618896484,"z":-0.050149381160736084},"rotation":{"pitch":0.12685710191726685,"yaw":-179.8055877685547,"roll":-0.245391845703125}},"velocity":{"x":5.244612566457363e-06,"y":0.005225048400461674,"z":0.2200310230255127},"angular_velocity":{"x":0.9269015789031982,"y":-0.49148479104042053,"z":-6.928906077519059e-05},"acceleration":{"x":0.03391503170132637,"y":0.05207400023937225,"z":1.5057156085968018},"speed_mps":0.22009305362038764,"speed_kph":0.7923349930333955,"speed_limit_kph":30.0,"collisions_this_frame":[],"waypoint":{"x":-87.62389373779297,"y":12.940513610839844,"z":0.0},"lane_deviation_m":0.05550054460763931,"lane_width":3.5,"goal":{"x":6.006511211395264,"y":66.28325653076172,"z":0.5999999642372131},"fault":{"name":"traction_control_loss","severity":1.0},"capture_flags":{"save_rgb":true,"save_depth":false,"video_rgb":true,"video_depth":false}}
{"frame":45,"timestamp":{"delta_seconds":0.05000000074505806,"elapsed_seconds":4.423627455718815},"control":{"throttle":0.75,"steer":0.0,"brake":0.0,"hand_brake":false,"reverse":false,"manual_gear_shift":false,"gear":0},"transform":{"location":{"x":-87.62382507324219,"y":12.964905738830566,"z":-0.03888813033699989},"rotation":{"pitch":0.10226842015981674,"yaw":-179.80819702148438,"roll":-0.1998290717601776}},"velocity":{"x":-0.001454890938475728,"y":0.0064743999391794205,"z":0.21779030561447144},"angular_velocity":{"x":0.8898360133171082,"y":-0.47551146149635315,"z":-0.08678608387708664},"acceleration":{"x":-0.029202710837125778,"y":0.024987030774354935,"z":-0.044814348220825195},"speed_mps":0.2178913761071332,"speed_kph":0.7844089539856794,"speed_limit_kph":30.0,"collisions_this_frame":[],"waypoint":{"x":-87.62376403808594,"y":12.940513610839844,"z":0.0},"lane_deviation_m":0.0459049716591835,"lane_width":3.5,"goal":{"x":6.006511211395264,"y":66.28325653076172,"z":0.5999999642372131},"fault":{"name":"traction_control_loss","severity":1.0},"capture_flags":{"save_rgb":true,"save_depth":false,"video_rgb":true,"video_depth":false}}
{"frame":46,"timestamp":{"delta_seconds":0.05000000074505806,"elapsed_seconds":4.473627456463873},"control":{"throttle":0.75,"steer":0.0,"brake":0.0,"hand_brake":false,"reverse":false,"manual_gear_shift":false,"gear":0},"transform":{"location":{"x":-87.6353988647461,"y":12.965546607971191,"z":-0.02891639620065689},"rotation":{"pitch":0.08981698006391525,"yaw":-179.81588745117188,"roll":-0.1486816257238388}},"velocity":{"x":-0.5586385726928711,"y":0.005193727556616068,"z":0.1845855712890625},"angular_velocity":{"x":0.7965388894081116,"y":0.13306739926338196,"z":0.09199506789445877},"acceleration":{"x":-11.14367389678955,"y":-0.02561344765126705,"z":-0.6640946865081787},"speed_mps":0.5883671156976485,"speed_kph":2.1181216165115346,"speed_limit_kph":30.0,"collisions_this_frame":[],"waypoint":{"x":-87.63533020019531,"y":12.940483093261719,"z":0.0},"lane_deviation_m":0.038266729563474655,"lane_width":3.5,"goal":{"x":6.006511211395264,"y":66.28325653076172,"z":0.5999999642372131},"fault":{"name":"traction_control_loss","severity":1.0},"capture_flags":{"save_rgb":true,"save_depth":false,"video_rgb":true,"video_depth":false}}
{"frame":47,"timestamp":{"delta_seconds":0.05000000074505806,"elapsed_seconds":4.5236274572089314},"control":{"throttle":0.75,"steer":0.0,"brake":0.0,"hand_brake":false,"reverse":false,"manual_gear_shift":false,"gear":0},"transform":{"location":{"x":-87.68722534179688,"y":12.965476989746094,"z":-0.02046249434351921},"rotation":{"pitch":0.1298418939113617,"yaw":-179.82127380371094,"roll":-0.1773376166820526}},"velocity":{"x":-1.3169410228729248,"y":0.0038132392801344395,"z":0.17031094431877136},"angular_velocity":{"x":-1.7949984073638916,"y":1.3242930173873901,"z":-0.05425053462386131},"acceleration":{"x":-15.166049003601074,"y":-0.02760976552963257,"z":-0.28549253940582275},"speed_mps":1.327913406918593,"speed_kph":4.780488264906935,"speed_limit_kph":30.0,"collisions_this_frame":[],"waypoint":{"x":-87.6871566772461,"y":12.940338134765625,"z":0.0},"lane_deviation_m":0.03241420164704323,"lane_width":3.5,"goal":{"x":6.006511211395264,"y":66.28325653076172,"z":0.5999999642372131},"fault":{"name":"traction_control_loss","severity":1.0},"capture_flags":{"save_rgb":true,"save_depth":false,"video_rgb":true,"video_depth":false}}
{"frame":48,"timestamp":{"delta_seconds":0.05000000074505806,"elapsed_seconds":4.5736274579539895},"control":{"throttle":0.75,"steer":0.05150080844759941,"brake":0.0,"hand_brake":false,"reverse":false,"manual_gear_shift":false,"gear":0},"transform":{"location":{"x":-87.76888275146484,"y":12.96402359008789,"z":-0.013332824222743511},"rotation":{"pitch":0.182871475815773,"yaw":-179.74937438964844,"roll":-0.241790771484375}},"velocity":{"x":-1.833407998085022,"y":-0.04459275305271149,"z":0.1267785280942917},"angular_velocity":{"x":-0.18336156010627747,"y":0.5814968943595886,"z":1.698958396911621},"acceleration":{"x":-10.329339981079102,"y":-0.9681198596954346,"z":-0.8706483244895935},"speed_mps":1.8383270101515408,"speed_kph":6.6179772365455465,"speed_limit_kph":30.0,"collisions_this_frame":[],"waypoint":{"x":-87.7688217163086,"y":12.94011116027832,"z":0.0},"lane_deviation_m":0.027378316968679428,"lane_width":3.5,"goal":{"x":6.006511211395264,"y":66.28325653076172,"z":0.5999999642372131},"fault":{"name":"traction_control_loss","severity":1.0},"capture_flags":{"save_rgb":true,"save_depth":false,"video_rgb":true,"video_depth":false}}
{"frame":49,"timestamp":{"delta_seconds":0.05000000074505806,"elapsed_seconds":4.623627458699048},"control":{"throttle":0.75,"steer":0.05150080844759941,"brake":0.0,"hand_brake":false,"reverse":false,"manual_gear_shift":false,"gear":0},"transform":{"location":{"x":-87.8724594116211,"y":12.961467742919922,"z":-0.008237075991928577},"rotation":{"pitch":0.19750173389911652,"yaw":-179.64883422851562,"roll":-0.24301140010356903}},"velocity":{"x":-2.223397731781006,"y":-0.07428763806819916,"z":0.09748802334070206},"angular_velocity":{"x":-0.9187405705451965,"y":0.49809199571609497,"z":2.00368595123291},"acceleration":{"x":-7.799794673919678,"y":-0.5938977003097534,"z":-0.5858100652694702},"speed_mps":2.2267734598637445,"speed_kph":8.016384455509481,"speed_limit_kph":30.0,"collisions_this_frame":[],"waypoint":{"x":-87.87240600585938,"y":12.939823150634766,"z":0.0},"lane_deviation_m":0.023159028962254524,"lane_width":3.5,"goal":{"x":6.006511211395264,"y":66.28325653076172,"z":0.5999999642372131},"fault":{"name":"traction_control_loss","severity":1.0},"capture_flags":{"save_rgb":true,"save_depth":false,"video_rgb":true,"video_depth":false}}
{"frame":50,"timestamp":{"delta_seconds":0.05000000074505806,"elapsed_seconds":4.673627459444106},"control":{"throttle":0.75,"steer":0.07025499641895294,"brake":0.0,"hand_brake":false,"reverse":false,"manual_gear_shift":false,"gear":0},"transform":{"location":{"x":-87.99382781982422,"y":12.956795692443848,"z":-0.0042892456986010075},"rotation":{"pitch":0.2136414796113968,"yaw":-179.47500610351562,"roll":-0.2732543349266052}},"velocity":{"x":-2.5573794841766357,"y":-0.12722773849964142,"z":0.06941445916891098},"angular_velocity":{"x":-0.26618459820747375,"y":0.1648717075586319,"z":3.2035884857177734},"acceleration":{"x":-6.679635047912598,"y":-1.0588020086288452,"z":-0.5614712834358215},"speed_mps":2.5614829866061966,"speed_kph":9.221338751782309,"speed_limit_kph":30.0,"collisions_this_frame":[],"waypoint":{"x":-87.99378204345703,"y":12.939485549926758,"z":0.0},"lane_deviation_m":0.01783369854092598,"lane_width":3.5,"goal":{"x":6.006511211395264,"y":66.28325653076172,"z":0.5999999642372131},"fault":{"name":"traction_control_loss","severity":1.0},"capture_flags":{"save_rgb":true,"save_depth":false,"video_rgb":true,"video_depth":false}}
{"frame":51,"timestamp":{"delta_seconds":0.05000000074505806,"elapsed_seconds":4.723627460189164},"control":{"throttle":0.75,"steer":0.07025499641895294,"brake":0.0,"hand_brake":false,"reverse":false,"manual_gear_shift":false,"gear":0},"transform":{"location":{"x":-88.13044738769531,"y":12.951395988464355,"z":-0.002314987126737833},"rotation":{"pitch":0.1683095097541809,"yaw":-179.26727294921875,"roll":-0.1533813774585724}},"velocity":{"x":-2.8650264739990234,"y":-0.1821383237838745,"z":-0.01062841434031725},"angular_velocity":{"x":6.001688480377197,"y":-2.3991167545318604,"z":4.359775543212891},"acceleration":{"x":-6.152939796447754,"y":-1.0982117652893066,"z":-1.6008574962615967},"speed_mps":2.8708298502170875,"speed_kph":10.334987460781516,"speed_limit_kph":30.0,"collisions_this_frame":[],"waypoint":{"x":-88.13041687011719,"y":12.939105987548828,"z":0.0},"lane_deviation_m":0.012506167404353619,"lane_width":3.5,"goal":{"x":6.006511211395264,"y":66.28325653076172,"z":0.5999999642372131},"fault":{"name":"traction_control_loss","severity":1.0},"capture_flags":{"save_rgb":true,"save_depth":false,"video_rgb":true,"video_depth":false}}
{"frame":52,"timestamp":{"delta_seconds":0.05000000074505806,"elapsed_seconds":4.773627460934222},"control":{"throttle":0.75,"steer":0.0797322615981102,"brake":0.0,"hand_brake":false,"reverse":false,"manual_gear_shift":false,"gear":0},"transform":{"location":{"x":-88.2811279296875,"y":12.943225860595703,"z":-0.00191497802734375},"rotation":{"pitch":0.09898992627859116,"yaw":-179.01771545410156,"roll":-0.028717041015625}},"velocity":{"x":-3.130693197250366,"y":-0.22033509612083435,"z":0.0050578308291733265},"angular_velocity":{"x":1.195268988609314,"y":-0.851983904838562,"z":5.2758965492248535},"acceleration":{"x":-5.3133344650268555,"y":-0.7639354467391968,"z":0.31372490525245667},"speed_mps":3.138441178602045,"speed_kph":11.298388242967363,"speed_limit_kph":30.0,"collisions_this_frame":[],"waypoint":{"x":-88.28112030029297,"y":12.938688278198242,"z":0.0},"lane_deviation_m":0.004925124812871218,"lane_width":3.5,"goal":{"x":6.006511211395264,"y":66.28325653076172,"z":0.5999999642372131},"fault":{"name":"traction_control_loss","severity":1.0},"capture_flags":{"save_rgb":true,"save_depth":false,"video_rgb":true,"video_depth":false}}
{"frame":53,"timestamp":{"delta_seconds":0.05000000074505806,"elapsed_seconds":4.82362746167928},"control":{"throttle":0.75,"steer":0.0797322615981102,"brake":0.0,"hand_brake":false,"reverse":false,"manual_gear_shift":false,"gear":0},"transform":{"location":{"x":-88.4459457397461,"y":12.933320999145508,"z":-0.0013331985101103783},"rotation":{"pitch":0.07550090551376343,"yaw":-178.7359619140625,"roll":-0.005615233443677425}},"velocity":{"x":-3.411379337310791,"y":-0.24483007192611694,"z":0.010528544895350933},"angular_velocity":{"x":0.18401546776294708,"y":-0.2758425772190094,"z":5.836048603057861},"acceleration":{"x":-5.613722801208496,"y":-0.48989951610565186,"z":0.10941427946090698},"speed_mps":3.42016981996625,"speed_kph":12.3126113518785,"speed_limit_kph":30.0,"collisions_this_frame":[],"waypoint":{"x":-88.44596099853516,"y":12.938230514526367,"z":0.0},"lane_deviation_m":0.005087336525321007,"lane_width":3.5,"goal":{"x":6.006511211395264,"y":66.28325653076172,"z":0.5999999642372131},"fault":{"name":"traction_control_loss","severity":1.0},"capture_flags":{"save_rgb":true,"save_depth":false,"video_rgb":true,"video_depth":false}}
{"frame":54,"timestamp":{"delta_seconds":0.05000000074505806,"elapsed_seconds":4.873627462424338},"control":{"throttle":0.0,"steer":0.08909723907709122,"brake":0.0,"hand_brake":false,"reverse":false,"manual_gear_shift":false,"gear":0},"transform":{"location":{"x":-88.62383270263672,"y":12.921500205993652,"z":-0.0007265090825967491},"rotation":{"pitch":0.06741396337747574,"yaw":-178.40817260742188,"roll":-0.006439207587391138}},"velocity":{"x":-3.645833969116211,"y":-0.29179850220680237,"z":0.011223201639950275},"angular_velocity":{"x":-0.06508997082710266,"y":-0.12202084064483643,"z":6.875443935394287},"acceleration":{"x":-4.689092636108398,"y":-0.9393686056137085,"z":0.013893134891986847},"speed_mps":3.657509761642045,"speed_kph":13.167035141911363,"speed_limit_kph":30.0,"collisions_this_frame":[],"waypoint":{"x":-88.6238784790039,"y":12.937734603881836,"z":0.0},"lane_deviation_m":0.01625071093440056,"lane_width":3.5,"goal":{"x":6.006511211395264,"y":66.28325653076172,"z":0.5999999642372131},"fault":{"name":"traction_control_loss","severity":1.0},"capture_flags":{"save_rgb":true,"save_depth":false,"video_rgb":true,"video_depth":false}}
{"frame":55,"timestamp":{"delta_seconds":0.05000000074505806,"elapsed_seconds":4.923627463169396},"control":{"throttle":0.0,"steer":0.08909723907709122,"brake":0.0,"hand_brake":false,"reverse":false,"manual_gear_shift":false,"gear":0},"transform":{"location":{"x":-88.81053161621094,"y":12.90787124633789,"z":-0.00016124725516419858},"rotation":{"pitch":0.060945775359869,"yaw":-178.05567932128906,"roll":-0.01022338680922985}},"velocity":{"x":-3.7755181789398193,"y":-0.32658031582832336,"z":0.009942016564309597},"angular_velocity":{"x":-0.0694999247789383,"y":-0.15290795266628265,"z":7.157992839813232},"acceleration":{"x":-2.593684196472168,"y":-0.6956362724304199,"z":-0.025623701512813568},"speed_mps":3.7896294100986894,"speed_kph":13.642665876355283,"speed_limit_kph":30.0,"collisions_this_frame":[],"waypoint":{"x":-88.81087493896484,"y":12.937213897705078,"z":0.0},"lane_deviation_m":0.029345102608203888,"lane_width":3.5,"goal":{"x":6.006511211395264,"y":66.28325653076172,"z":0.5999999642372131},"fault":{"name":"traction_control_loss","severity":1.0},"capture_flags":{"save_rgb":true,"save_depth":false,"video_rgb":true,"video_depth":false}}
{"frame":56,"timestamp":{"delta_seconds":0.05000000074505806,"elapsed_seconds":4.973627463914454},"control":{"throttle":0.0,"steer":-0.005743510089814663,"brake":1.0,"hand_brake":false,"reverse":false,"manual_gear_shift":false,"gear":0},"transform":{"location":{"x":-89.00001525878906,"y":12.897306442260742,"z":0.00033977508428506553},"rotation":{"pitch":0.05076196417212486,"yaw":-177.91075134277344,"roll":0.007700454443693161}},"velocity":{"x":-3.783937931060791,"y":-0.1800267994403839,"z":0.008061141707003117},"angular_velocity":{"x":0.4027590751647949,"y":-0.22611041367053986,"z":0.900745153427124},"acceleration":{"x":-0.1683950424194336,"y":2.931070327758789,"z":-0.03761749714612961},"speed_mps":3.788226616326297,"speed_kph":13.63761581877467,"speed_limit_kph":30.0,"collisions_this_frame":[],"waypoint":{"x":-89.0004653930664,"y":12.936687469482422,"z":0.0},"lane_deviation_m":0.03938506543636322,"lane_width":3.5,"goal":{"x":6.006511211395264,"y":66.28325653076172,"z":0.5999999642372131},"fault":{"name":"traction_control_loss","severity":1.0},"capture_flags":{"save_rgb":true,"save_depth":false,"video_rgb":true,"video_depth":false}}
{"frame":57,"timestamp":{"delta_seconds":0.05000000074505806,"elapsed_seconds":5.023627464659512},"control":{"throttle":0.0,"steer":-0.005743510089814663,"brake":1.0,"hand_brake":false,"reverse":false,"manual_gear_shift":false,"gear":0},"transform":{"location":{"x":-89.1868667602539,"y":12.889933586120605,"z":0.0007677078247070312},"rotation":{"pitch":0.03684886917471886,"yaw":-177.9090118408203,"roll":0.018531491979956627}},"velocity":{"x":-3.698026657104492,"y":-0.1357409805059433,"z":0.0061968229711055756},"angular_velocity":{"x":0.11952632665634155,"y":-0.29297542572021484,"z":-0.2624228298664093},"acceleration":{"x":1.7182254791259766,"y":0.8857163786888123,"z":-0.03728637471795082},"speed_mps":3.7005222835512117,"speed_kph":13.321880220784362,"speed_limit_kph":30.0,"collisions_this_frame":[],"waypoint":{"x":-89.18739318847656,"y":12.93616771697998,"z":0.0},"lane_deviation_m":0.04624349996447563,"lane_width":3.5,"goal":{"x":6.006511211395264,"y":66.28325653076172,"z":0.5999999642372131},"fault":{"name":"traction_control_loss","severity":1.0},"capture_flags":{"save_rgb":true,"save_depth":false,"video_rgb":true,"video_depth":false}}
{"frame":58,"timestamp":{"delta_seconds":0.05000000074505806,"elapsed_seconds":5.07362746540457},"control":{"throttle":0.0,"steer":0.0038145959842950106,"brake":1.0,"hand_brake":false,"reverse":false,"manual_gear_shift":false,"gear":0},"transform":{"location":{"x":-89.36688995361328,"y":12.883118629455566,"z":0.0011217116843909025},"rotation":{"pitch":0.02091403864324093,"yaw":-177.90467834472656,"roll":0.017087867483496666}},"velocity":{"x":-3.5304338932037354,"y":-0.13559234142303467,"z":0.004602193832397461},"angular_velocity":{"x":-0.05524788051843643,"y":-0.3321964740753174,"z":0.2038992941379547},"acceleration":{"x":3.3518552780151367,"y":0.0029727816581726074,"z":-0.03189258277416229},"speed_mps":3.533039758836905,"speed_kph":12.718943131812859,"speed_limit_kph":30.0,"collisions_this_frame":[],"waypoint":{"x":-89.36748504638672,"y":12.935667991638184,"z":0.0},"lane_deviation_m":0.052564702928066254,"lane_width":3.5,"goal":{"x":6.006511211395264,"y":66.28325653076172,"z":0.5999999642372131},"fault":{"name":"traction_control_loss","severity":1.0},"capture_flags":{"save_rgb":true,"save_depth":false,"video_rgb":true,"video_depth":false}}
{"frame":59,"timestamp":{"delta_seconds":0.05000000074505806,"elapsed_seconds":5.123627466149628},"control":{"throttle":0.0,"steer":0.0038145959842950106,"brake":1.0,"hand_brake":false,"reverse":false,"manual_gear_shift":false,"gear":0},"transform":{"location":{"x":-89.53724670410156,"y":12.87656307220459,"z":0.001406822120770812},"rotation":{"pitch":0.004856264218688011,"yaw":-177.89210510253906,"roll":0.013360343873500824}},"velocity":{"x":-3.326680898666382,"y":-0.12948361039161682,"z":0.0033353709150105715},"angular_velocity":{"x":-0.06195138022303581,"y":-0.3092595636844635,"z":0.2656390070915222},"acceleration":{"x":4.07505989074707,"y":0.12217462062835693,"z":-0.025336459279060364},"speed_mps":3.3292015456579005,"speed_kph":11.985125564368442,"speed_limit_kph":30.0,"collisions_this_frame":[],"waypoint":{"x":-89.53790283203125,"y":12.93519401550293,"z":0.0},"lane_deviation_m":0.05865148827433586,"lane_width":3.5,"goal":{"x":6.006511211395264,"y":66.28325653076172,"z":0.5999999642372131},"fault":{"name":"traction_control_loss","severity":1.0},"capture_flags":{"save_rgb":true,"save_depth":false,"video_rgb":true,"video_depth":false}}
{"frame":60,"timestamp":{"delta_seconds":0.05000000074505806,"elapsed_seconds":5.173627466894686},"control":{"throttle":0.05624999850988388,"steer":0.1392422318458557,"brake":0.0,"hand_brake":false,"reverse":false,"manual_gear_shift":false,"gear":0},"transform":{"location":{"x":-89.6974105834961,"y":12.867463111877441,"z":0.0016223525162786245},"rotation":{"pitch":-0.008544566109776497,"yaw":-177.7357635498047,"roll":-0.00482177734375}},"velocity":{"x":-3.1304945945739746,"y":-0.26088282465934753,"z":0.0023726557847112417},"angular_velocity":{"x":-0.511182427406311,"y":-0.25379201769828796,"z":5.558658123016357},"acceleration":{"x":3.9237260818481445,"y":-2.6279842853546143,"z":-0.019254302605986595},"speed_mps":3.1413471448336594,"speed_kph":11.308849721401174,"speed_limit_kph":30.0,"collisions_this_frame":[],"waypoint":{"x":-89.69816589355469,"y":12.934748649597168,"z":0.0},"lane_deviation_m":0.06730932742357254,"lane_width":3.5,"goal":{"x":6.006511211395264,"y":66.28325653076172,"z":0.5999999642372131},"fault":{"name":"traction_control_loss","severity":1.0},"capture_flags":{"save_rgb":true,"save_depth":false,"video_rgb":true,"video_depth":false}}
{"frame":61,"timestamp":{"delta_seconds":0.05000000074505806,"elapsed_seconds":5.223627467639744},"control":{"throttle":0.05624999850988388,"steer":0.1392422318458557,"brake":0.0,"hand_brake":false,"reverse":false,"manual_gear_shift":false,"gear":0},"transform":{"location":{"x":-89.85037994384766,"y":12.85287094116211,"z":0.0017631149385124445},"rotation":{"pitch":-0.016112415120005608,"yaw":-177.34495544433594,"roll":-0.026641845703125}},"velocity":{"x":-3.0246965885162354,"y":-0.36783427000045776,"z":0.001661758404225111},"angular_velocity":{"x":-0.30863043665885925,"y":-0.106165811419487,"z":8.591444969177246},"acceleration":{"x":2.115960121154785,"y":-2.139029026031494,"z":-0.014217947609722614},"speed_mps":3.046981172276835,"speed_kph":10.969132220196608,"speed_limit_kph":30.0,"collisions_this_frame":[],"waypoint":{"x":-89.8512954711914,"y":12.93432331085205,"z":0.0},"lane_deviation_m":0.0814765989780426,"lane_width":3.5,"goal":{"x":6.006511211395264,"y":66.28325653076172,"z":0.5999999642372131},"fault":{"name":"traction_control_loss","severity":1.0},"capture_flags":{"save_rgb":true,"save_depth":false,"video_rgb":true,"video_depth":false}}
{"frame":62,"timestamp":{"delta_seconds":0.05000000074505806,"elapsed_seconds":5.273627468384802},"control":{"throttle":0.19699408113956451,"steer":0.12727373838424683,"brake":0.0,"hand_brake":false,"reverse":false,"manual_gear_shift":false,"gear":0},"transform":{"location":{"x":-90.00010681152344,"y":12.836336135864258,"z":0.0018408583709970117},"rotation":{"pitch":-0.01785411313176155,"yaw":-176.93284606933594,"roll":-0.03063964657485485}},"velocity":{"x":-2.974074125289917,"y":-0.3850995898246765,"z":0.0011514377547428012},"angular_velocity":{"x":0.012964628636837006,"y":-0.006782779470086098,"z":8.075451850891113},"acceleration":{"x":1.0124492645263672,"y":-0.345306396484375,"z":-0.010206412523984909},"speed_mps":2.9989031199108487,"speed_kph":10.796051231679055,"speed_limit_kph":30.0,"collisions_this_frame":[],"waypoint":{"x":-90.00120544433594,"y":12.933906555175781,"z":0.0},"lane_deviation_m":0.09759397059679031,"lane_width":3.5,"goal":{"x":6.006511211395264,"y":66.28325653076172,"z":0.5999999642372131},"fault":{"name":"traction_control_loss","severity":1.0},"capture_flags":{"save_rgb":true,"save_depth":false,"video_rgb":true,"video_depth":false}}
{"frame":63,"timestamp":{"delta_seconds":0.05000000074505806,"elapsed_seconds":5.32362746912986},"control":{"throttle":0.19699408113956451,"steer":0.12727373838424683,"brake":0.0,"hand_brake":false,"reverse":false,"manual_gear_shift":false,"gear":0},"transform":{"location":{"x":-90.14822387695312,"y":12.818745613098145,"z":0.0018795394571498036},"rotation":{"pitch":-0.016604188829660416,"yaw":-176.52708435058594,"roll":-0.029052725061774254}},"velocity":{"x":-2.951688766479492,"y":-0.4091377556324005,"z":0.0007909393170848489},"angular_velocity":{"x":0.028622619807720184,"y":0.044487252831459045,"z":8.154948234558105},"acceleration":{"x":0.4477071762084961,"y":-0.48076331615448,"z":-0.007209968753159046},"speed_mps":2.9799095460819185,"speed_kph":10.727674365894908,"speed_limit_kph":30.0,"collisions_this_frame":[],"waypoint":{"x":-90.14952087402344,"y":12.933494567871094,"z":0.0},"lane_deviation_m":0.11477167159318924,"lane_width":3.5,"goal":{"x":6.006511211395264,"y":66.28325653076172,"z":0.5999999642372131},"fault":{"name":"traction_control_loss","severity":1.0},"capture_flags":{"save_rgb":true,"save_depth":false,"video_rgb":true,"video_depth":false}}
{"frame":64,"timestamp":{"delta_seconds":0.05000000074505806,"elapsed_seconds":5.3736274698749185},"control":{"throttle":0.5613817572593689,"steer":0.1334356665611267,"brake":0.0,"hand_brake":false,"reverse":false,"manual_gear_shift":false,"gear":0},"transform":{"location":{"x":-90.29556274414062,"y":12.79991626739502,"z":0.001895904541015625},"rotation":{"pitch":-0.013981396332383156,"yaw":-176.11264038085938,"roll":-0.02752685360610485}},"velocity":{"x":-2.943103075027466,"y":-0.4350300133228302,"z":0.0005413246108219028},"angular_velocity":{"x":0.040356069803237915,"y":0.06330271810293198,"z":8.31192684173584},"acceleration":{"x":0.17171382904052734,"y":-0.5178451538085938,"z":-0.004992294125258923},"speed_mps":2.975081026755426,"speed_kph":10.710291696319535,"speed_limit_kph":30.0,"collisions_this_frame":[],"waypoint":{"x":-90.29706573486328,"y":12.933084487915039,"z":0.0},"lane_deviation_m":0.13319019973278046,"lane_width":3.5,"goal":{"x":6.006511211395264,"y":66.28325653076172,"z":0.5999999642372131},"fault":{"name":"traction_control_loss","severity":1.0},"capture_flags":{"save_rgb":true,"save_depth":false,"video_rgb":true,"video_depth":false}}
{"frame":65,"timestamp":{"delta_seconds":0.05000000074505806,"elapsed_seconds":5.4236274706199765},"control":{"throttle":0.5613817572593689,"steer":0.1334356665611267,"brake":0.0,"hand_brake":false,"reverse":false,"manual_gear_shift":false,"gear":0},"transform":{"location":{"x":-90.44428253173828,"y":12.77962589263916,"z":0.0018907928606495261},"rotation":{"pitch":-0.009459811262786388,"yaw":-175.6864776611328,"roll":-0.026489252224564552}},"velocity":{"x":-2.995269298553467,"y":-0.4704555869102478,"z":0.0003674888575915247},"angular_velocity":{"x":-0.004622426815330982,"y":0.1108332946896553,"z":8.666895866394043},"acceleration":{"x":-1.0433244705200195,"y":-0.708511471748352,"z":-0.0034767151810228825},"speed_mps":3.0319905615222655,"speed_kph":10.915166021480156,"speed_limit_kph":30.0,"collisions_this_frame":[],"waypoint":{"x":-90.44601440429688,"y":12.932670593261719,"z":0.0},"lane_deviation_m":0.15306617319583893,"lane_width":3.5,"goal":{"x":6.006511211395264,"y":66.28325653076172,"z":0.5999999642372131},"fault":{"name":"traction_control_loss","severity":1.0},"capture_flags":{"save_rgb":true,"save_depth":false,"video_rgb":true,"video_depth":false}}
{"frame":66,"timestamp":{"delta_seconds":0.05000000074505806,"elapsed_seconds":5.473627471365035},"control":{"throttle":0.14502987265586853,"steer":0.1547916680574417,"brake":0.0,"hand_brake":false,"reverse":false,"manual_gear_shift":false,"gear":0},"transform":{"location":{"x":-90.59613800048828,"y":12.75683307647705,"z":0.0018724440596997738},"rotation":{"pitch":-0.0038453962188214064,"yaw":-175.207275390625,"roll":-0.029541010037064552}},"velocity":{"x":-3.055630683898926,"y":-0.5325644016265869,"z":0.00024752615718171},"angular_velocity":{"x":-0.04873530939221382,"y":0.10197232663631439,"z":9.883886337280273},"acceleration":{"x":-1.2072277069091797,"y":-1.2421762943267822,"z":-0.002399254124611616},"speed_mps":3.101693695311273,"speed_kph":11.166097303120583,"speed_limit_kph":30.0,"collisions_this_frame":[],"waypoint":{"x":-90.59812927246094,"y":12.93224811553955,"z":0.0},"lane_deviation_m":0.175436332821846,"lane_width":3.5,"goal":{"x":6.006511211395264,"y":66.28325653076172,"z":0.5999999642372131},"fault":{"name":"traction_control_loss","severity":1.0},"capture_flags":{"save_rgb":true,"save_depth":false,"video_rgb":true,"video_depth":false}}
{"frame":67,"timestamp":{"delta_seconds":0.05000000074505806,"elapsed_seconds":5.523627472110093},"control":{"throttle":0.14502987265586853,"steer":0.1547916680574417,"brake":0.0,"hand_brake":false,"reverse":false,"manual_gear_shift":false,"gear":0},"transform":{"location":{"x":-90.75035095214844,"y":12.731462478637695,"z":0.002484626602381468},"rotation":{"pitch":-0.027464188635349274,"yaw":-174.69931030273438,"roll":-0.08685300499200821}},"velocity":{"x":-3.101378917694092,"y":-0.5692542791366577,"z":0.04649164155125618},"angular_velocity":{"x":-5.343120574951172,"y":-3.2228522300720215,"z":10.200652122497559},"acceleration":{"x":-0.9149646759033203,"y":-0.733797550201416,"z":0.9248822927474976},"speed_mps":3.1535318451169796,"speed_kph":11.352714642421127,"speed_limit_kph":30.0,"collisions_this_frame":[],"waypoint":{"x":-90.7429428100586,"y":12.913330078125,"z":0.0},"lane_deviation_m":0.18203537166118622,"lane_width":3.5,"goal":{"x":6.006511211395264,"y":66.28325653076172,"z":0.5999999642372131},"fault":{"name":"traction_control_loss","severity":1.0},"capture_flags":{"save_rgb":true,"save_depth":false,"video_rgb":true,"video_depth":false}}
{"frame":68,"timestamp":{"delta_seconds":0.05000000074505806,"elapsed_seconds":5.573627472855151},"control":{"throttle":0.03092750906944275,"steer":0.16788677871227264,"brake":0.0,"hand_brake":false,"reverse":false,"manual_gear_shift":false,"gear":0},"transform":{"location":{"x":-90.90503692626953,"y":12.704241752624512,"z":0.004528808407485485},"rotation":{"pitch":-0.10482973605394363,"yaw":-174.16004943847656,"roll":-0.21618647873401642}},"velocity":{"x":-3.0951943397521973,"y":-0.607356607913971,"z":0.03394179418683052},"angular_velocity":{"x":-2.583148717880249,"y":-1.9188058376312256,"z":10.829814910888672},"acceleration":{"x":0.12369155883789062,"y":-0.7620465755462646,"z":-0.2509969472885132},"speed_mps":3.154403603758312,"speed_kph":11.355852973529924,"speed_limit_kph":30.0,"collisions_this_frame":[],"waypoint":{"x":-90.8818359375,"y":12.905165672302246,"z":0.0},"lane_deviation_m":0.202309712767601,"lane_width":3.5,"goal":{"x":6.006511211395264,"y":66.28325653076172,"z":0.5999999642372131},"fault":{"name":"traction_control_loss","severity":1.0},"capture_flags":{"save_rgb":true,"save_depth":false,"video_rgb":true,"video_depth":false}}
{"frame":69,"timestamp":{"delta_seconds":0.05000000074505806,"elapsed_seconds":5.623627473600209},"control":{"throttle":0.03092750906944275,"steer":0.16788677871227264,"brake":0.0,"hand_brake":false,"reverse":false,"manual_gear_shift":false,"gear":0},"transform":{"location":{"x":-91.0593032836914,"y":12.675610542297363,"z":0.0051759337075054646},"rotation":{"pitch":-0.12048453092575073,"yaw":-173.6049041748047,"roll":-0.22482292354106903}},"velocity":{"x":-3.0695550441741943,"y":-0.6475291848182678,"z":0.012025909498333931},"angular_velocity":{"x":-0.2787398397922516,"y":-0.4322200417518616,"z":11.241142272949219},"acceleration":{"x":0.5127859115600586,"y":-0.8034515380859375,"z":-0.4383176863193512},"speed_mps":3.137133538264814,"speed_kph":11.29368073775333,"speed_limit_kph":30.0,"collisions_this_frame":[],"waypoint":{"x":-91.02037048339844,"y":12.895663261413574,"z":0.0},"lane_deviation_m":0.22353020310401917,"lane_width":3.5,"goal":{"x":6.006511211395264,"y":66.28325653076172,"z":0.5999999642372131},"fault":{"name":"traction_control_loss","severity":1.0},"capture_flags":{"save_rgb":true,"save_depth":false,"video_rgb":true,"video_depth":false}}
{"frame":70,"timestamp":{"delta_seconds":0.05000000074505806,"elapsed_seconds":5.673627474345267},"control":{"throttle":0.05974492430686951,"steer":0.17673252522945404,"brake":0.0,"hand_brake":false,"reverse":false,"manual_gear_shift":false,"gear":0},"transform":{"location":{"x":-91.21205139160156,"y":12.645509719848633,"z":0.0032176589593291283},"rotation":{"pitch":-0.03568090498447418,"yaw":-173.03665161132812,"roll":-0.0664367601275444}},"velocity":{"x":-3.0129973888397217,"y":-0.7043672800064087,"z":-0.021872948855161667},"angular_velocity":{"x":1.426658272743225,"y":1.2075718641281128,"z":11.302098274230957},"acceleration":{"x":1.1311531066894531,"y":-1.1367619037628174,"z":-0.6779772043228149},"speed_mps":3.094311709603644,"speed_kph":11.139522154573118,"speed_limit_kph":30.0,"collisions_this_frame":[],"waypoint":{"x":-91.15754699707031,"y":12.884910583496094,"z":0.0},"lane_deviation_m":0.2455480694770813,"lane_width":3.5,"goal":{"x":6.006511211395264,"y":66.28325653076172,"z":0.5999999642372131},"fault":{"name":"traction_control_loss","severity":1.0},"capture_flags":{"save_rgb":true,"save_depth":false,"video_rgb":true,"video_depth":false}}
{"frame":71,"timestamp":{"delta_seconds":0.05000000074505806,"elapsed_seconds":5.723627475090325},"control":{"throttle":0.05974492430686951,"steer":0.17673252522945404,"brake":0.0,"hand_brake":false,"reverse":false,"manual_gear_shift":false,"gear":0},"transform":{"location":{"x":-91.36206817626953,"y":12.613163948059082,"z":0.0023294067941606045},"rotation":{"pitch":-0.008913395926356316,"yaw":-172.46678161621094,"roll":-0.0320434607565403}},"velocity":{"x":-2.970759630203247,"y":-0.7257510423660278,"z":-0.010717048309743404},"angular_velocity":{"x":0.2946867346763611,"y":0.34907177090644836,"z":11.446939468383789},"acceleration":{"x":0.8447551727294922,"y":-0.4276752471923828,"z":0.22311800718307495},"speed_mps":3.0581435890201725,"speed_kph":11.009316920472621,"speed_limit_kph":30.0,"collisions_this_frame":[],"waypoint":{"x":-91.29235076904297,"y":12.873042106628418,"z":0.0},"lane_deviation_m":0.2690773010253906,"lane_width":3.5,"goal":{"x":6.006511211395264,"y":66.28325653076172,"z":0.5999999642372131},"fault":{"name":"traction_control_loss","severity":1.0},"capture_flags":{"save_rgb":true,"save_depth":false,"video_rgb":true,"video_depth":false}}
{"frame":72,"timestamp":{"delta_seconds":0.05000000074505806,"elapsed_seconds":5.773627475835383},"control":{"throttle":0.05974492430686951,"steer":0.18202944099903107,"brake":0.0,"hand_brake":false,"reverse":false,"manual_gear_shift":false,"gear":0},"transform":{"location":{"x":-91.50955963134766,"y":12.5797119140625,"z":0.0019461059710010886},"rotation":{"pitch":-0.0021993208210915327,"yaw":-171.8950958251953,"roll":-0.0242004357278347}},"velocity":{"x":-2.919114112854004,"y":-0.7424313426017761,"z":-0.0048309992998838425},"angular_velocity":{"x":0.09224557876586914,"y":0.0685323104262352,"z":11.348919868469238},"acceleration":{"x":1.0329103469848633,"y":-0.3336060047149658,"z":0.11772097647190094},"speed_mps":3.0120515999722066,"speed_kph":10.843385759899943,"speed_limit_kph":30.0,"collisions_this_frame":[],"waypoint":{"x":-91.53702545166016,"y":12.848191261291504,"z":0.0},"lane_deviation_m":0.2698875963687897,"lane_width":3.5,"goal":{"x":6.006511211395264,"y":66.28325653076172,"z":0.5999999642372131},"fault":{"name":"traction_control_loss","severity":1.0},"capture_flags":{"save_rgb":true,"save_depth":false,"video_rgb":true,"video_depth":false}}
{"frame":73,"timestamp":{"delta_seconds":0.05000000074505806,"elapsed_seconds":5.823627476580441},"control":{"throttle":0.05974492430686951,"steer":0.18202944099903107,"brake":0.0,"hand_brake":false,"reverse":false,"manual_gear_shift":false,"gear":0},"transform":{"location":{"x":-91.65461730957031,"y":12.545188903808594,"z":0.001801032922230661},"rotation":{"pitch":-0.00191928306594491,"yaw":-171.3236846923828,"roll":-0.0225219689309597}},"velocity":{"x":-2.8725852966308594,"y":-0.766601026058197,"z":-0.0018332862528041005},"angular_velocity":{"x":0.0012505782069638371,"y":-0.01422199048101902,"z":11.472431182861328},"acceleration":{"x":0.9305763244628906,"y":-0.48339366912841797,"z":0.059954263269901276},"speed_mps":2.973117350612277,"speed_kph":10.703222462204199,"speed_limit_kph":30.0,"collisions_this_frame":[],"waypoint":{"x":-91.66828918457031,"y":12.83309268951416,"z":0.0},"lane_deviation_m":0.28823384642601013,"lane_width":3.5,"goal":{"x":6.006511211395264,"y":66.28325653076172,"z":0.5999999642372131},"fault":{"name":"traction_control_loss","severity":1.0},"capture_flags":{"save_rgb":true,"save_depth":false,"video_rgb":true,"video_depth":false}}
{"frame":74,"timestamp":{"delta_seconds":0.05000000074505806,"elapsed_seconds":5.873627477325499},"control":{"throttle":0.2728053033351898,"steer":0.18496166169643402,"brake":0.0,"hand_brake":false,"reverse":false,"manual_gear_shift":false,"gear":0},"transform":{"location":{"x":-91.79730987548828,"y":12.509636878967285,"z":0.0017647170461714268},"rotation":{"pitch":-0.0032989811152219772,"yaw":-170.75547790527344,"roll":-0.0220947228372097}},"velocity":{"x":-2.828502655029297,"y":-0.7838865518569946,"z":-0.0003991127014160156},"angular_velocity":{"x":0.02817944437265396,"y":-0.02410757541656494,"z":11.264751434326172},"acceleration":{"x":0.88165283203125,"y":-0.34571051597595215,"z":0.02868347056210041},"speed_mps":2.935115935526394,"speed_kph":10.566417367895019,"speed_limit_kph":30.0,"collisions_this_frame":[],"waypoint":{"x":-91.7974624633789,"y":12.817025184631348,"z":0.0},"lane_deviation_m":0.3073934018611908,"lane_width":3.5,"goal":{"x":6.006511211395264,"y":66.28325653076172,"z":0.5999999642372131},"fault":{"name":"traction_control_loss","severity":1.0},"capture_flags":{"save_rgb":true,"save_depth":false,"video_rgb":true,"video_depth":false}}
{"frame":75,"timestamp":{"delta_seconds":0.05000000074505806,"elapsed_seconds":5.923627478070557},"control":{"throttle":0.2728053033351898,"steer":0.18496166169643402,"brake":0.0,"hand_brake":false,"reverse":false,"manual_gear_shift":false,"gear":0},"transform":{"location":{"x":-91.9388427734375,"y":12.472766876220703,"z":0.0017686081118881702},"rotation":{"pitch":-0.0037839245051145554,"yaw":-170.18496704101562,"roll":-0.022521965205669403}},"velocity":{"x":-2.8167784214019775,"y":-0.8169987201690674,"z":0.00022221564722713083},"angular_velocity":{"x":-0.030436474829912186,"y":-0.0017304517095908523,"z":11.510499954223633},"acceleration":{"x":0.23448467254638672,"y":-0.6622433662414551,"z":0.012426567263901234},"speed_mps":2.9328702039833785,"speed_kph":10.558332734340162,"speed_limit_kph":30.0,"collisions_this_frame":[],"waypoint":{"x":-91.92562866210938,"y":12.799894332885742,"z":0.0},"lane_deviation_m":0.32739901542663574,"lane_width":3.5,"goal":{"x":6.006511211395264,"y":66.28325653076172,"z":0.5999999642372131},"fault":{"name":"traction_control_loss","severity":1.0},"capture_flags":{"save_rgb":true,"save_depth":false,"video_rgb":true,"video_depth":false}}
{"frame":76,"timestamp":{"delta_seconds":0.05000000074505806,"elapsed_seconds":5.973627478815615},"control":{"throttle":0.43016183376312256,"steer":0.18878543376922607,"brake":0.0,"hand_brake":false,"reverse":false,"manual_gear_shift":false,"gear":0},"transform":{"location":{"x":-92.08035278320312,"y":12.434277534484863,"z":0.0017824172973632812},"rotation":{"pitch":-0.0029643019661307335,"yaw":-169.60733032226562,"roll":-0.02340698055922985}},"velocity":{"x":-2.82415509223938,"y":-0.8497836589813232,"z":0.0004372024559415877},"angular_velocity":{"x":-0.0048196520656347275,"y":0.0264890193939209,"z":11.551823616027832},"acceleration":{"x":-0.14753341674804688,"y":-0.6556987762451172,"z":0.004299736116081476},"speed_mps":2.9492345520896257,"speed_kph":10.617244387522653,"speed_limit_kph":30.0,"collisions_this_frame":[],"waypoint":{"x":-92.0538101196289,"y":12.781573295593262,"z":0.0},"lane_deviation_m":0.3483131229877472,"lane_width":3.5,"goal":{"x":6.006511211395264,"y":66.28325653076172,"z":0.5999999642372131},"fault":{"name":"traction_control_loss","severity":1.0},"capture_flags":{"save_rgb":true,"save_depth":false,"video_rgb":true,"video_depth":false}}
{"frame":77,"timestamp":{"delta_seconds":0.05000000074505806,"elapsed_seconds":6.023627479560673},"control":{"throttle":0.43016183376312256,"steer":0.18878543376922607,"brake":0.0,"hand_brake":false,"reverse":false,"manual_gear_shift":false,"gear":0},"transform":{"location":{"x":-92.22345733642578,"y":12.393668174743652,"z":0.001791038434021175},"rotation":{"pitch":-0.00045762263471260667,"yaw":-169.015869140625,"roll":-0.02496338076889515}},"velocity":{"x":-2.868842601776123,"y":-0.9011991620063782,"z":0.00046328542521223426},"angular_velocity":{"x":-0.061826642602682114,"y":0.0527813620865345,"z":12.015809059143066},"acceleration":{"x":-0.8937501907348633,"y":-1.0283100605010986,"z":0.0005216593854129314},"speed_mps":3.0070613592010353,"speed_kph":10.825420893123727,"speed_limit_kph":30.0,"collisions_this_frame":[],"waypoint":{"x":-92.18345642089844,"y":12.761828422546387,"z":0.0},"lane_deviation_m":0.3703312575817108,"lane_width":3.5,"goal":{"x":6.006511211395264,"y":66.28325653076172,"z":0.5999999642372131},"fault":{"name":"traction_control_loss","severity":1.0},"capture_flags":{"save_rgb":true,"save_depth":false,"video_rgb":true,"video_depth":false}}
{"frame":78,"timestamp":{"delta_seconds":0.05000000074505806,"elapsed_seconds":6.073627480305731},"control":{"throttle":0.0,"steer":0.19434784352779388,"brake":0.0,"hand_brake":false,"reverse":false,"manual_gear_shift":false,"gear":0},"transform":{"location":{"x":-92.36891174316406,"y":12.350564956665039,"z":0.0017947006272152066},"rotation":{"pitch":0.0026023020036518574,"yaw":-168.40396118164062,"roll":-0.02700805477797985}},"velocity":{"x":-2.912551164627075,"y":-0.9518658518791199,"z":0.0004068565322086215},"angular_velocity":{"x":-0.03376967832446098,"y":0.05281444638967514,"z":12.30322551727295},"acceleration":{"x":-0.874171257019043,"y":-1.013333797454834,"z":-0.0011285778600722551},"speed_mps":3.0641480140613857,"speed_kph":11.030932850620989,"speed_limit_kph":30.0,"collisions_this_frame":[],"waypoint":{"x":-92.43223571777344,"y":12.720500946044922,"z":0.0},"lane_deviation_m":0.3753209114074707,"lane_width":3.5,"goal":{"x":6.006511211395264,"y":66.28325653076172,"z":0.5999999642372131},"fault":{"name":"traction_control_loss","severity":1.0},"capture_flags":{"save_rgb":true,"save_depth":false,"video_rgb":true,"video_depth":false}}
{"frame":79,"timestamp":{"delta_seconds":0.05000000074505806,"elapsed_seconds":6.123627481050789},"control":{"throttle":0.0,"steer":0.19434784352779388,"brake":0.0,"hand_brake":false,"reverse":false,"manual_gear_shift":false,"gear":0},"transform":{"location":{"x":-92.51588439941406,"y":12.305089950561523,"z":0.0018020629649981856},"rotation":{"pitch":0.00443279230967164,"yaw":-167.7773895263672,"roll":-0.0285644493997097}},"velocity":{"x":-2.9255199432373047,"y":-0.9984045028686523,"z":0.00032980917603708804},"angular_velocity":{"x":-0.03914056718349457,"y":0.010783359408378601,"z":12.63645076751709},"acceleration":{"x":-0.25937557220458984,"y":-0.9307730197906494,"z":-0.0015409471234306693},"speed_mps":3.091193717385194,"speed_kph":11.128297382586698,"speed_limit_kph":30.0,"collisions_this_frame":[],"waypoint":{"x":-92.56635284423828,"y":12.696332931518555,"z":0.0},"lane_deviation_m":0.39448878169059753,"lane_width":3.5,"goal":{"x":6.006511211395264,"y":66.28325653076172,"z":0.5999999642372131},"fault":{"name":"traction_control_loss","severity":1.0},"capture_flags":{"save_rgb":true,"save_depth":false,"video_rgb":true,"video_depth":false}}
{"frame":80,"timestamp":{"delta_seconds":0.05000000074505806,"elapsed_seconds":6.173627481795847},"control":{"throttle":0.04358499124646187,"steer":0.21032823622226715,"brake":0.0,"hand_brake":false,"reverse":false,"manual_gear_shift":false,"gear":0},"transform":{"location":{"x":-92.661376953125,"y":12.25765609741211,"z":0.0018239974742755294},"rotation":{"pitch":0.0030940754804760218,"yaw":-167.12310791015625,"roll":-0.03085327334702015}},"velocity":{"x":-2.874305248260498,"y":-1.0357353687286377,"z":0.0002545261231716722},"angular_velocity":{"x":-0.0019884121138602495,"y":-0.04595492035150528,"z":13.140819549560547},"acceleration":{"x":1.0242938995361328,"y":-0.746617317199707,"z":-0.0015056610573083162},"speed_mps":3.0552215106268217,"speed_kph":10.998797438256558,"speed_limit_kph":30.0,"collisions_this_frame":[],"waypoint":{"x":-92.69930267333984,"y":12.671061515808105,"z":0.0},"lane_deviation_m":0.4151454269886017,"lane_width":3.5,"goal":{"x":6.006511211395264,"y":66.28325653076172,"z":0.5999999642372131},"fault":{"name":"traction_control_loss","severity":1.0},"capture_flags":{"save_rgb":true,"save_depth":false,"video_rgb":true,"video_depth":false}}
{"frame":81,"timestamp":{"delta_seconds":0.05000000074505806,"elapsed_seconds":6.2236274825409055},"control":{"throttle":0.04358499124646187,"steer":0.21032823622226715,"brake":0.0,"hand_brake":false,"reverse":false,"manual_gear_shift":false,"gear":0},"transform":{"location":{"x":-92.8045425415039,"y":12.20867919921875,"z":0.001849441439844668},"rotation":{"pitch":0.0005873962072655559,"yaw":-166.4583740234375,"roll":-0.0315856896340847}},"velocity":{"x":-2.8266518115997314,"y":-1.0673699378967285,"z":0.00018667220138013363},"angular_velocity":{"x":-0.00739555386826396,"y":-0.05444837734103203,"z":13.366716384887695},"acceleration":{"x":0.953068733215332,"y":-0.6326913833618164,"z":-0.001357078435830772},"speed_mps":3.021463069969948,"speed_kph":10.877267051891813,"speed_limit_kph":30.0,"collisions_this_frame":[],"waypoint":{"x":-92.83027648925781,"y":12.644880294799805,"z":0.0},"lane_deviation_m":0.43696343898773193,"lane_width":3.5,"goal":{"x":6.006511211395264,"y":66.28325653076172,"z":0.5999999642372131},"fault":{"name":"traction_control_loss","severity":1.0},"capture_flags":{"save_rgb":true,"save_depth":false,"video_rgb":true,"video_depth":false}}
{"frame":82,"timestamp":{"delta_seconds":0.05000000074505806,"elapsed_seconds":6.2736274832859635},"control":{"throttle":0.03733498975634575,"steer":0.21494396030902863,"brake":0.0,"hand_brake":false,"reverse":false,"manual_gear_shift":false,"gear":0},"transform":{"location":{"x":-92.94503784179688,"y":12.158528327941895,"z":0.00187339773401618},"rotation":{"pitch":-0.0021993208210915327,"yaw":-165.79408264160156,"roll":-0.031097412109375}},"velocity":{"x":-2.7684149742126465,"y":-1.0846848487854004,"z":0.0001342964096693322},"angular_velocity":{"x":0.05299025774002075,"y":-0.045600615441799164,"z":13.161772727966309},"acceleration":{"x":1.1647367477416992,"y":-0.3462982177734375,"z":-0.0010475157760083675},"speed_mps":2.973325193897388,"speed_kph":10.703970698030597,"speed_limit_kph":30.0,"collisions_this_frame":[],"waypoint":{"x":-92.95893859863281,"y":12.617914199829102,"z":0.0},"lane_deviation_m":0.45959997177124023,"lane_width":3.5,"goal":{"x":6.006511211395264,"y":66.28325653076172,"z":0.5999999642372131},"fault":{"name":"traction_control_loss","severity":1.0},"capture_flags":{"save_rgb":true,"save_depth":false,"video_rgb":true,"video_depth":false}}
{"frame":83,"timestamp":{"delta_seconds":0.05000000074505806,"elapsed_seconds":6.323627484031022},"control":{"throttle":0.03733498975634575,"steer":0.21494396030902863,"brake":0.0,"hand_brake":false,"reverse":false,"manual_gear_shift":false,"gear":0},"transform":{"location":{"x":-93.08273315429688,"y":12.107352256774902,"z":0.0018936156993731856},"rotation":{"pitch":-0.004699169658124447,"yaw":-165.1321563720703,"roll":-0.030242912471294403}},"velocity":{"x":-2.7123351097106934,"y":-1.1079577207565308,"z":9.88769534160383e-05},"angular_velocity":{"x":0.01003999076783657,"y":-0.04282228276133537,"z":13.281691551208496},"acceleration":{"x":1.1215972900390625,"y":-0.4654574394226074,"z":-0.0007083890959620476},"speed_mps":2.929903081695703,"speed_kph":10.54765109410453,"speed_limit_kph":30.0,"collisions_this_frame":[],"waypoint":{"x":-93.08512115478516,"y":12.590253829956055,"z":0.0},"lane_deviation_m":0.48291119933128357,"lane_width":3.5,"goal":{"x":6.006511211395264,"y":66.28325653076172,"z":0.5999999642372131},"fault":{"name":"traction_control_loss","severity":1.0},"capture_flags":{"save_rgb":true,"save_depth":false,"video_rgb":true,"video_depth":false}}
{"frame":84,"timestamp":{"delta_seconds":0.05000000074505806,"elapsed_seconds":6.37362748477608},"control":{"throttle":0.4222765266895294,"steer":0.21892403066158295,"brake":0.0,"hand_brake":false,"reverse":false,"manual_gear_shift":false,"gear":0},"transform":{"location":{"x":-93.2176284790039,"y":12.055265426635742,"z":0.0019090271089226007},"rotation":{"pitch":-0.006625283043831587,"yaw":-164.47450256347656,"roll":-0.029205316677689552}},"velocity":{"x":-2.6592843532562256,"y":-1.1221674680709839,"z":6.720543024130166e-05},"angular_velocity":{"x":0.05092167854309082,"y":-0.018189700320363045,"z":13.029250144958496},"acceleration":{"x":1.0610151290893555,"y":-0.2841949462890625,"z":-0.0006334304343909025},"speed_mps":2.8863563713420413,"speed_kph":10.390882936831348,"speed_limit_kph":30.0,"collisions_this_frame":[],"waypoint":{"x":-93.33055114746094,"y":12.532999038696289,"z":0.0},"lane_deviation_m":0.49090179800987244,"lane_width":3.5,"goal":{"x":6.006511211395264,"y":66.28325653076172,"z":0.5999999642372131},"fault":{"name":"traction_control_loss","severity":1.0},"capture_flags":{"save_rgb":true,"save_depth":false,"video_rgb":true,"video_depth":false}}
{"frame":85,"timestamp":{"delta_seconds":0.05000000074505806,"elapsed_seconds":6.423627485521138},"control":{"throttle":0.4222765266895294,"steer":0.21892403066158295,"brake":0.0,"hand_brake":false,"reverse":false,"manual_gear_shift":false,"gear":0},"transform":{"location":{"x":-93.3511734008789,"y":12.001757621765137,"z":0.0019116210751235485},"rotation":{"pitch":-0.006625283043831587,"yaw":-163.81362915039062,"roll":-0.028991693630814552}},"velocity":{"x":-2.6499006748199463,"y":-1.1620903015136719,"z":4.623413042281754e-05},"angular_velocity":{"x":-0.0296319667249918,"y":0.015163145959377289,"z":13.35993766784668},"acceleration":{"x":0.18767356872558594,"y":-0.7984566688537598,"z":-0.0004194260109215975},"speed_mps":2.8935147238991092,"speed_kph":10.416653006036794,"speed_limit_kph":30.0,"collisions_this_frame":[],"waypoint":{"x":-93.4540023803711,"y":12.502456665039062,"z":0.0},"lane_deviation_m":0.5111526250839233,"lane_width":3.5,"goal":{"x":6.006511211395264,"y":66.28325653076172,"z":0.5999999642372131},"fault":{"name":"traction_control_loss","severity":1.0},"capture_flags":{"save_rgb":true,"save_depth":false,"video_rgb":true,"video_depth":false}}
{"frame":86,"timestamp":{"delta_seconds":0.05000000074505806,"elapsed_seconds":6.473627486266196},"control":{"throttle":0.5645208358764648,"steer":0.21653559803962708,"brake":0.0,"hand_brake":false,"reverse":false,"manual_gear_shift":false,"gear":0},"transform":{"location":{"x":-93.48560333251953,"y":11.946248054504395,"z":0.001899032504297793},"rotation":{"pitch":-0.004152754787355661,"yaw":-163.15264892578125,"roll":-0.028564443811774254}},"velocity":{"x":-2.683288812637329,"y":-1.2029978036880493,"z":3.25202927342616e-05},"angular_velocity":{"x":0.0014995732344686985,"y":0.07006488740444183,"z":13.195005416870117},"acceleration":{"x":-0.6677627563476562,"y":-0.8181500434875488,"z":-0.00027427676832303405},"speed_mps":2.940619419231344,"speed_kph":10.58622990923284,"speed_limit_kph":30.0,"collisions_this_frame":[],"waypoint":{"x":-93.57836151123047,"y":12.470501899719238,"z":0.0},"lane_deviation_m":0.5324000120162964,"lane_width":3.5,"goal":{"x":6.006511211395264,"y":66.28325653076172,"z":0.5999999642372131},"fault":{"name":"traction_control_loss","severity":1.0},"capture_flags":{"save_rgb":true,"save_depth":false,"video_rgb":true,"video_depth":false}}
{"frame":87,"timestamp":{"delta_seconds":0.05000000074505806,"elapsed_seconds":6.523627487011254},"control":{"throttle":0.5645208358764648,"steer":0.21653559803962708,"brake":0.0,"hand_brake":false,"reverse":false,"manual_gear_shift":false,"gear":0},"transform":{"location":{"x":-93.62309265136719,"y":11.887651443481445,"z":0.0018725204281508923},"rotation":{"pitch":0.0005873962072655559,"yaw":-162.47372436523438,"roll":-0.0299682579934597}},"velocity":{"x":-2.7582101821899414,"y":-1.2796584367752075,"z":2.2125243049231358e-05},"angular_velocity":{"x":-0.08886228501796722,"y":0.08778367936611176,"z":13.849212646484375},"acceleration":{"x":-1.498427391052246,"y":-1.533212661743164,"z":-0.0002079010009765625},"speed_mps":3.0406001257047537,"speed_kph":10.946160452537114,"speed_limit_kph":30.0,"collisions_this_frame":[],"waypoint":{"x":-93.70565795898438,"y":12.436549186706543,"z":0.0},"lane_deviation_m":0.5550759434700012,"lane_width":3.5,"goal":{"x":6.006511211395264,"y":66.28325653076172,"z":0.5999999642372131},"fault":{"name":"traction_control_loss","severity":1.0},"capture_flags":{"save_rgb":true,"save_depth":false,"video_rgb":true,"video_depth":false}}
