{"frame":12643,"timestamp":{"delta_seconds":0.05000000074505806,"elapsed_seconds":124.63622627966106},"control":{"throttle":0.0,"steer":0.0,"brake":1.0,"hand_brake":false,"reverse":false,"manual_gear_shift":false,"gear":0},"transform":{"location":{"x":-64.64484405517578,"y":24.471010208129883,"z":0.48239994049072266},"rotation":{"pitch":0.0,"yaw":0.15919795632362366,"roll":0.0}},"velocity":{"x":0.0,"y":0.0,"z":-1.470000147819519},"angular_velocity":{"x":0.0,"y":0.0,"z":0.0},"acceleration":{"x":0.0,"y":0.0,"z":-9.80000114440918},"speed_mps":1.470000147819519,"speed_kph":5.2920005321502686,"speed_limit_kph":30.0,"collisions_this_frame":[],"waypoint":{"x":-64.64469146728516,"y":24.504404067993164,"z":0.0},"lane_deviation_m":0.4835544228553772,"lane_width":3.5,"goal":{"x":65.23527526855469,"y":13.414804458618164,"z":0.5999999642372131},"fault":{"name":"traction_control_loss","severity":1.0},"capture_flags":{"save_rgb":true,"save_depth":false,"video_rgb":true,"video_depth":false}}
{"frame":12644,"timestamp":{"delta_seconds":0.05000000074505806,"elapsed_seconds":124.68622628040612},"control":{"throttle":0.0,"steer":0.3930000066757202,"brake":1.0,"hand_brake":false,"reverse":false,"manual_gear_shift":false,"gear":0},"transform":{"location":{"x":-64.64484405517578,"y":24.471010208129883,"z":0.394199937582016},"rotation":{"pitch":0.0,"yaw":0.15919795632362366,"roll":0.0}},"velocity":{"x":0.0,"y":0.0,"z":-1.9600002765655518},"angular_velocity":{"x":0.0,"y":0.0,"z":0.0},"acceleration":{"x":0.0,"y":0.0,"z":-9.800003051757812},"speed_mps":1.9600002765655518,"speed_kph":7.056000995635986,"speed_limit_kph":30.0,"collisions_this_frame":[],"waypoint":{"x":-64.64469146728516,"y":24.504404067993164,"z":0.0},"lane_deviation_m":0.39561188220977783,"lane_width":3.5,"goal":{"x":65.23527526855469,"y":13.414804458618164,"z":0.5999999642372131},"fault":{"name":"traction_control_loss","severity":1.0},"capture_flags":{"save_rgb":true,"save_depth":false,"video_rgb":true,"video_depth":false}}
{"frame":12645,"timestamp":{"delta_seconds":0.05000000074505806,"elapsed_seconds":124.73622628115118},"control":{"throttle":0.0,"steer":0.44699999690055847,"brake":1.0,"hand_brake":false,"reverse":false,"manual_gear_shift":false,"gear":0},"transform":{"location":{"x":-64.64484405517578,"y":24.471010208129883,"z":0.28150004148483276},"rotation":{"pitch":0.0,"yaw":0.15919795632362366,"roll":0.0}},"velocity":{"x":0.0,"y":0.0,"z":-2.450000286102295},"angular_velocity":{"x":0.0,"y":0.0,"z":0.0},"acceleration":{"x":0.0,"y":0.0,"z":-9.800000190734863},"speed_mps":2.450000286102295,"speed_kph":8.820001029968262,"speed_limit_kph":30.0,"collisions_this_frame":[],"waypoint":{"x":-64.64469146728516,"y":24.504404067993164,"z":0.0},"lane_deviation_m":0.2834738790988922,"lane_width":3.5,"goal":{"x":65.23527526855469,"y":13.414804458618164,"z":0.5999999642372131},"fault":{"name":"traction_control_loss","severity":1.0},"capture_flags":{"save_rgb":true,"save_depth":false,"video_rgb":true,"video_depth":false}}
{"frame":12646,"timestamp":{"delta_seconds":0.05000000074505806,"elapsed_seconds":124.78622628189623},"control":{"throttle":0.0,"steer":0.5260000228881836,"brake":1.0,"hand_brake":false,"reverse":false,"manual_gear_shift":false,"gear":0},"transform":{"location":{"x":-64.64484405517578,"y":24.471010208129883,"z":0.1442999690771103},"rotation":{"pitch":0.0,"yaw":0.15919795632362366,"roll":0.0}},"velocity":{"x":0.0,"y":0.0,"z":-2.93999981880188},"angular_velocity":{"x":0.0,"y":0.0,"z":0.0},"acceleration":{"x":0.0,"y":0.0,"z":-9.7999906539917},"speed_mps":2.93999981880188,"speed_kph":10.583999347686769,"speed_limit_kph":30.0,"collisions_this_frame":[],"waypoint":{"x":-64.64469146728516,"y":24.504404067993164,"z":0.0},"lane_deviation_m":0.1481136530637741,"lane_width":3.5,"goal":{"x":65.23527526855469,"y":13.414804458618164,"z":0.5999999642372131},"fault":{"name":"traction_control_loss","severity":1.0},"capture_flags":{"save_rgb":true,"save_depth":false,"video_rgb":true,"video_depth":false}}
{"frame":12647,"timestamp":{"delta_seconds":0.05000000074505806,"elapsed_seconds":124.83622628264129},"control":{"throttle":0.0,"steer":0.4880000054836273,"brake":1.0,"hand_brake":false,"reverse":false,"manual_gear_shift":false,"gear":0},"transform":{"location":{"x":-64.64484405517578,"y":24.471010208129883,"z":0.008085555396974087},"rotation":{"pitch":0.0,"yaw":0.15919795632362366,"roll":0.0}},"velocity":{"x":-1.3685421151876653e-07,"y":-2.2699971395923058e-06,"z":-2.06459641456604},"angular_velocity":{"x":0.0009187828400172293,"y":-0.0008250222308561206,"z":1.6381280147470534e-05},"acceleration":{"x":-2.7370842872187495e-06,"y":-4.539994188235141e-05,"z":17.508068084716797},"speed_mps":2.0645964145672924,"speed_kph":7.4325470924422525,"speed_limit_kph":30.0,"collisions_this_frame":[],"waypoint":{"x":-64.64469146728516,"y":24.504404067993164,"z":0.0},"lane_deviation_m":0.034359123557806015,"lane_width":3.5,"goal":{"x":65.23527526855469,"y":13.414804458618164,"z":0.5999999642372131},"fault":{"name":"traction_control_loss","severity":1.0},"capture_flags":{"save_rgb":true,"save_depth":false,"video_rgb":true,"video_depth":false}}
{"frame":12648,"timestamp":{"delta_seconds":0.05000000074505806,"elapsed_seconds":124.88622628338635},"control":{"throttle":0.0,"steer":0.6119999885559082,"brake":1.0,"hand_brake":false,"reverse":false,"manual_gear_shift":false,"gear":0},"transform":{"location":{"x":-64.64484405517578,"y":24.471010208129883,"z":-0.05158813297748566},"rotation":{"pitch":0.0,"yaw":0.15919795632362366,"roll":0.0}},"velocity":{"x":-1.351504153035421e-07,"y":-2.5687813831609674e-07,"z":-0.7380883097648621},"angular_velocity":{"x":0.0001292694651056081,"y":-0.00024186563678085804,"z":3.8719072108506225e-06},"acceleration":{"x":3.407592430448858e-08,"y":4.026238093501888e-05,"z":26.530160903930664},"speed_mps":0.7380883097649191,"speed_kph":2.6571179151537088,"speed_limit_kph":30.0,"collisions_this_frame":[],"waypoint":{"x":-64.64469146728516,"y":24.504404067993164,"z":0.0},"lane_deviation_m":0.061453305184841156,"lane_width":3.5,"goal":{"x":65.23527526855469,"y":13.414804458618164,"z":0.5999999642372131},"fault":{"name":"traction_control_loss","severity":1.0},"capture_flags":{"save_rgb":true,"save_depth":false,"video_rgb":true,"video_depth":false}}
{"frame":12649,"timestamp":{"delta_seconds":0.05000000074505806,"elapsed_seconds":124.93622628413141},"control":{"throttle":0.0,"steer":0.6299999952316284,"brake":1.0,"hand_brake":false,"reverse":false,"manual_gear_shift":false,"gear":0},"transform":{"location":{"x":-64.64484405517578,"y":24.471010208129883,"z":-0.06773185729980469},"rotation":{"pitch":0.0,"yaw":0.15919795632362366,"roll":0.0}},"velocity":{"x":-3.5419279953430305e-08,"y":4.124980534925271e-08,"z":-0.11209765821695328},"angular_velocity":{"x":-6.0806185501860455e-05,"y":-4.7708039346616715e-05,"z":4.5499436396312376e-07},"acceleration":{"x":1.9946228348999284e-06,"y":5.962558589089895e-06,"z":12.51981258392334},"speed_mps":0.11209765821696646,"speed_kph":0.4035515695810793,"speed_limit_kph":30.0,"collisions_this_frame":[],"waypoint":{"x":-64.64469146728516,"y":24.504404067993164,"z":0.0},"lane_deviation_m":0.07551673799753189,"lane_width":3.5,"goal":{"x":65.23527526855469,"y":13.414804458618164,"z":0.5999999642372131},"fault":{"name":"traction_control_loss","severity":1.0},"capture_flags":{"save_rgb":true,"save_depth":false,"video_rgb":true,"video_depth":false}}
{"frame":12650,"timestamp":{"delta_seconds":0.05000000074505806,"elapsed_seconds":124.98622628487647},"control":{"throttle":0.0,"steer":0.6510000228881836,"brake":1.0,"hand_brake":false,"reverse":false,"manual_gear_shift":false,"gear":0},"transform":{"location":{"x":-64.64484405517578,"y":24.471010208129883,"z":-0.06445323675870895},"rotation":{"pitch":0.0,"yaw":0.15919795632362366,"roll":0.0}},"velocity":{"x":1.1009296807529267e-09,"y":6.109598871262278e-08,"z":0.15056216716766357},"angular_velocity":{"x":-5.9767786297015846e-05,"y":8.633158358861692e-06,"z":-2.790678479414055e-07},"acceleration":{"x":7.304041673705797e-07,"y":3.9692366726740147e-07,"z":5.2531962394714355},"speed_mps":0.15056216716767598,"speed_kph":0.5420238018036335,"speed_limit_kph":30.0,"collisions_this_frame":[],"waypoint":{"x":-64.64469146728516,"y":24.504404067993164,"z":0.0},"lane_deviation_m":0.07259058207273483,"lane_width":3.5,"goal":{"x":65.23527526855469,"y":13.414804458618164,"z":0.5999999642372131},"fault":{"name":"traction_control_loss","severity":1.0},"capture_flags":{"save_rgb":true,"save_depth":false,"video_rgb":true,"video_depth":false}}
{"frame":12651,"timestamp":{"delta_seconds":0.05000000074505806,"elapsed_seconds":125.03622628562152},"control":{"throttle":0.0,"steer":0.7009999752044678,"brake":1.0,"hand_brake":false,"reverse":false,"manual_gear_shift":false,"gear":0},"transform":{"location":{"x":-64.64484405517578,"y":24.471010208129883,"z":-0.05396205931901932},"rotation":{"pitch":0.0,"yaw":0.15919795632362366,"roll":0.0}},"velocity":{"x":1.4286379190764364e-08,"y":4.288094501703199e-08,"z":0.23337239027023315},"angular_velocity":{"x":-3.687790740514174e-05,"y":2.2874335627420805e-05,"z":-3.723304757841106e-07},"acceleration":{"x":2.637089835388906e-07,"y":-3.643008881226706e-07,"z":1.6562044620513916},"speed_mps":0.2333723902702375,"speed_kph":0.840140604972855,"speed_limit_kph":30.0,"collisions_this_frame":[],"waypoint":{"x":-64.64469146728516,"y":24.504404067993164,"z":0.0},"lane_deviation_m":0.06345925480127335,"lane_width":3.5,"goal":{"x":65.23527526855469,"y":13.414804458618164,"z":0.5999999642372131},"fault":{"name":"traction_control_loss","severity":1.0},"capture_flags":{"save_rgb":true,"save_depth":false,"video_rgb":true,"video_depth":false}}
{"frame":12652,"timestamp":{"delta_seconds":0.05000000074505806,"elapsed_seconds":125.08622628636658},"control":{"throttle":0.0,"steer":0.6620000004768372,"brake":1.0,"hand_brake":false,"reverse":false,"manual_gear_shift":false,"gear":0},"transform":{"location":{"x":-64.64484405517578,"y":24.471010208129883,"z":-0.04207824543118477},"rotation":{"pitch":0.0,"yaw":0.15919795632362366,"roll":0.0}},"velocity":{"x":3.0756378777141435e-08,"y":-6.687032261254444e-09,"z":0.23370583355426788},"angular_velocity":{"x":-6.829434823885094e-06,"y":3.308985833427869e-05,"z":1.5696366872930412e-08},"acceleration":{"x":3.293999952802551e-07,"y":-9.913595704347244e-07,"z":0.00666886568069458},"speed_mps":0.23370583355427,"speed_kph":0.841341000795372,"speed_limit_kph":30.0,"collisions_this_frame":[],"waypoint":{"x":-64.64469146728516,"y":24.504404067993164,"z":0.0},"lane_deviation_m":0.05371919646859169,"lane_width":3.5,"goal":{"x":65.23527526855469,"y":13.414804458618164,"z":0.5999999642372131},"fault":{"name":"traction_control_loss","severity":1.0},"capture_flags":{"save_rgb":true,"save_depth":false,"video_rgb":true,"video_depth":false}}
{"frame":12653,"timestamp":{"delta_seconds":0.05000000074505806,"elapsed_seconds":125.13622628711164},"control":{"throttle":0.0,"steer":0.6449999809265137,"brake":1.0,"hand_brake":false,"reverse":false,"manual_gear_shift":false,"gear":0},"transform":{"location":{"x":-64.64484405517578,"y":24.471010208129883,"z":-0.031292419880628586},"rotation":{"pitch":0.0,"yaw":0.15919795632362366,"roll":0.0}},"velocity":{"x":2.815854216464686e-08,"y":-1.6111840750454576e-08,"z":0.2014344185590744},"angular_velocity":{"x":1.5226766663545277e-05,"y":3.4907694498542696e-05,"z":5.4986291075920235e-08},"acceleration":{"x":-5.19567322498915e-08,"y":-1.884961733367163e-07,"z":-0.6454282999038696},"speed_mps":0.201434418559077,"speed_kph":0.7251639068126773,"speed_limit_kph":30.0,"collisions_this_frame":[],"waypoint":{"x":-64.64469146728516,"y":24.504404067993164,"z":0.0},"lane_deviation_m":0.0457644909620285,"lane_width":3.5,"goal":{"x":65.23527526855469,"y":13.414804458618164,"z":0.5999999642372131},"fault":{"name":"traction_control_loss","severity":1.0},"capture_flags":{"save_rgb":true,"save_depth":false,"video_rgb":true,"video_depth":false}}
{"frame":12654,"timestamp":{"delta_seconds":0.05000000074505806,"elapsed_seconds":125.1862262878567},"control":{"throttle":0.0,"steer":0.5899999737739563,"brake":1.0,"hand_brake":false,"reverse":false,"manual_gear_shift":false,"gear":0},"transform":{"location":{"x":-64.64484405517578,"y":24.471010208129883,"z":-0.02243545465171337},"rotation":{"pitch":0.0,"yaw":0.15919795632362366,"roll":0.0}},"velocity":{"x":4.63135618744559e-09,"y":1.4701202033506888e-08,"z":0.16076505184173584},"angular_velocity":{"x":-3.4069535104208626e-06,"y":1.0995470802299678e-05,"z":-2.013280777646287e-07},"acceleration":{"x":-4.705437106622412e-07,"y":6.162608201520925e-07,"z":-0.8133873343467712},"speed_mps":0.16076505184173656,"speed_kph":0.5787541866302517,"speed_limit_kph":30.0,"collisions_this_frame":[],"waypoint":{"x":-64.64469146728516,"y":24.504404067993164,"z":0.0},"lane_deviation_m":0.04023086652159691,"lane_width":3.5,"goal":{"x":65.23527526855469,"y":13.414804458618164,"z":0.5999999642372131},"fault":{"name":"traction_control_loss","severity":1.0},"capture_flags":{"save_rgb":true,"save_depth":false,"video_rgb":true,"video_depth":false}}
{"frame":12655,"timestamp":{"delta_seconds":0.05000000074505806,"elapsed_seconds":125.23622628860176},"control":{"throttle":0.0,"steer":0.6240000128746033,"brake":1.0,"hand_brake":false,"reverse":false,"manual_gear_shift":false,"gear":0},"transform":{"location":{"x":-64.64484405517578,"y":24.471010208129883,"z":-0.015568007715046406},"rotation":{"pitch":0.0,"yaw":0.15919795632362366,"roll":0.0}},"velocity":{"x":-6.230914117999475e-10,"y":-2.090401451937396e-08,"z":0.12242042273283005},"angular_velocity":{"x":4.043002991238609e-05,"y":2.7201870125281857e-06,"z":-2.3123806158764637e-07},"acceleration":{"x":-1.0508895087468773e-07,"y":-7.121043381630443e-07,"z":-0.7668925523757935},"speed_mps":0.12242042273283184,"speed_kph":0.4407135218381946,"speed_limit_kph":30.0,"collisions_this_frame":[],"waypoint":{"x":-64.64469146728516,"y":24.504404067993164,"z":0.0},"lane_deviation_m":0.036844756454229355,"lane_width":3.5,"goal":{"x":65.23527526855469,"y":13.414804458618164,"z":0.5999999642372131},"fault":{"name":"traction_control_loss","severity":1.0},"capture_flags":{"save_rgb":true,"save_depth":false,"video_rgb":true,"video_depth":false}}
{"frame":12656,"timestamp":{"delta_seconds":0.05000000074505806,"elapsed_seconds":125.28622628934681},"control":{"throttle":0.0,"steer":0.671999990940094,"brake":1.0,"hand_brake":false,"reverse":false,"manual_gear_shift":false,"gear":0},"transform":{"location":{"x":-64.64484405517578,"y":24.471010208129883,"z":-0.010438079945743084},"rotation":{"pitch":0.0,"yaw":0.15919795632362366,"roll":0.0}},"velocity":{"x":-1.827586437741502e-08,"y":5.857861395952568e-08,"z":0.09031091630458832},"angular_velocity":{"x":-3.076866050832905e-05,"y":-6.933229997230228e-06,"z":-5.630936925626884e-07},"acceleration":{"x":-3.5305546930430864e-07,"y":1.5896525837888476e-06,"z":-0.6421900987625122},"speed_mps":0.09031091630460916,"speed_kph":0.325119298696593,"speed_limit_kph":30.0,"collisions_this_frame":[],"waypoint":{"x":-64.64469146728516,"y":24.504404067993164,"z":0.0},"lane_deviation_m":0.034987520426511765,"lane_width":3.5,"goal":{"x":65.23527526855469,"y":13.414804458618164,"z":0.5999999642372131},"fault":{"name":"traction_control_loss","severity":1.0},"capture_flags":{"save_rgb":true,"save_depth":false,"video_rgb":true,"video_depth":false}}
{"frame":12657,"timestamp":{"delta_seconds":0.05000000074505806,"elapsed_seconds":125.33622629009187},"control":{"throttle":0.0,"steer":0.640999972820282,"brake":1.0,"hand_brake":false,"reverse":false,"manual_gear_shift":false,"gear":0},"transform":{"location":{"x":-64.64484405517578,"y":24.471010208129883,"z":-0.006705322302877903},"rotation":{"pitch":0.0,"yaw":0.15919795632362366,"roll":0.0}},"velocity":{"x":8.88717988090093e-09,"y":8.450302146911781e-08,"z":0.06511299312114716},"angular_velocity":{"x":-8.089358743745834e-05,"y":2.2142194211483002e-05,"z":-5.428248641692335e-07},"acceleration":{"x":5.432608531918959e-07,"y":5.184881501918426e-07,"z":-0.5039584636688232},"speed_mps":0.0651129931212026,"speed_kph":0.23440677523632936,"speed_limit_kph":30.0,"collisions_this_frame":[],"waypoint":{"x":-64.64469146728516,"y":24.504404067993164,"z":0.0},"lane_deviation_m":0.03406074643135071,"lane_width":3.5,"goal":{"x":65.23527526855469,"y":13.414804458618164,"z":0.5999999642372131},"fault":{"name":"traction_control_loss","severity":1.0},"capture_flags":{"save_rgb":true,"save_depth":false,"video_rgb":true,"video_depth":false}}
{"frame":12658,"timestamp":{"delta_seconds":0.05000000074505806,"elapsed_seconds":125.38622629083693},"control":{"throttle":0.0,"steer":0.6179999709129333,"brake":1.0,"hand_brake":false,"reverse":false,"manual_gear_shift":false,"gear":0},"transform":{"location":{"x":-64.64484405517578,"y":24.471010208129883,"z":-0.004041633568704128},"rotation":{"pitch":0.0,"yaw":0.15919795632362366,"roll":0.0}},"velocity":{"x":5.88655080235867e-09,"y":4.072420978218361e-08,"z":0.046137578785419464},"angular_velocity":{"x":-4.378933226689696e-05,"y":9.24796040635556e-06,"z":-1.6688333914771647e-07},"acceleration":{"x":-6.001258157084521e-08,"y":-8.755762337386841e-07,"z":-0.37950828671455383},"speed_mps":0.04613757878543781,"speed_kph":0.1660952836275761,"speed_limit_kph":30.0,"collisions_this_frame":[],"waypoint":{"x":-64.64469146728516,"y":24.504404067993164,"z":0.0},"lane_deviation_m":0.033637892454862595,"lane_width":3.5,"goal":{"x":65.23527526855469,"y":13.414804458618164,"z":0.5999999642372131},"fault":{"name":"traction_control_loss","severity":1.0},"capture_flags":{"save_rgb":true,"save_depth":false,"video_rgb":true,"video_depth":false}}
{"frame":12659,"timestamp":{"delta_seconds":0.05000000074505806,"elapsed_seconds":125.43622629158199},"control":{"throttle":0.0,"steer":0.6240000128746033,"brake":1.0,"hand_brake":false,"reverse":false,"manual_gear_shift":false,"gear":0},"transform":{"location":{"x":-64.64484405517578,"y":24.471010208129883,"z":-0.002169380197301507},"rotation":{"pitch":0.0,"yaw":0.15919795632362366,"roll":0.0}},"velocity":{"x":-3.15304085063417e-08,"y":7.380276656476781e-08,"z":0.03224973753094673},"angular_velocity":{"x":-5.2453455282375216e-05,"y":-2.6724479539552703e-05,"z":-5.054921530245338e-07},"acceleration":{"x":-7.483391755158664e-07,"y":6.615711072299746e-07,"z":-0.27775681018829346},"speed_mps":0.032249737531046596,"speed_kph":0.11609905511176775,"speed_limit_kph":30.0,"collisions_this_frame":[],"waypoint":{"x":-64.64469146728516,"y":24.504404067993164,"z":0.0},"lane_deviation_m":0.03346459940075874,"lane_width":3.5,"goal":{"x":65.23527526855469,"y":13.414804458618164,"z":0.5999999642372131},"fault":{"name":"traction_control_loss","severity":1.0},"capture_flags":{"save_rgb":true,"save_depth":false,"video_rgb":true,"video_depth":false}}
{"frame":12660,"timestamp":{"delta_seconds":0.05000000074505806,"elapsed_seconds":125.48622629232705},"control":{"throttle":0.0,"steer":0.6970000267028809,"brake":1.0,"hand_brake":false,"reverse":false,"manual_gear_shift":false,"gear":0},"transform":{"location":{"x":-64.64484405517578,"y":24.471010208129883,"z":-0.0008690643007867038},"rotation":{"pitch":0.0,"yaw":0.15919795632362366,"roll":0.0}},"velocity":{"x":-8.883455082653313e-10,"y":6.482332448598527e-10,"z":0.022295618429780006},"angular_velocity":{"x":-9.48863998928573e-06,"y":-3.971921159973135e-06,"z":1.2423986106568918e-07},"acceleration":{"x":6.128412906036829e-07,"y":-1.4630905980084208e-06,"z":-0.1990823745727539},"speed_mps":0.022295618429780034,"speed_kph":0.08026422634720813,"speed_limit_kph":30.0,"collisions_this_frame":[],"waypoint":{"x":-64.64469146728516,"y":24.504404067993164,"z":0.0},"lane_deviation_m":0.03340551629662514,"lane_width":3.5,"goal":{"x":65.23527526855469,"y":13.414804458618164,"z":0.5999999642372131},"fault":{"name":"traction_control_loss","severity":1.0},"capture_flags":{"save_rgb":true,"save_depth":false,"video_rgb":true,"video_depth":false}}
{"frame":12661,"timestamp":{"delta_seconds":0.05000000074505806,"elapsed_seconds":125.5362262930721},"control":{"throttle":0.0,"steer":0.5879999995231628,"brake":1.0,"hand_brake":false,"reverse":false,"manual_gear_shift":false,"gear":0},"transform":{"location":{"x":-64.64484405517578,"y":24.471010208129883,"z":2.5100707716774195e-05},"rotation":{"pitch":0.0,"yaw":0.15919795632362366,"roll":0.0}},"velocity":{"x":-1.6671801716938717e-08,"y":3.0004546403006316e-08,"z":0.015275278128683567},"angular_velocity":{"x":1.6036263332352974e-05,"y":-4.074297066836152e-06,"z":-3.9833480514062103e-07},"acceleration":{"x":-3.1566912639391376e-07,"y":5.871262374057551e-07,"z":-0.1404068022966385},"speed_mps":0.015275278128722133,"speed_kph":0.05499100126339968,"speed_limit_kph":30.0,"collisions_this_frame":[],"waypoint":{"x":-64.64469146728516,"y":24.504404067993164,"z":0.0},"lane_deviation_m":0.0333942174911499,"lane_width":3.5,"goal":{"x":65.23527526855469,"y":13.414804458618164,"z":0.5999999642372131},"fault":{"name":"traction_control_loss","severity":1.0},"capture_flags":{"save_rgb":true,"save_depth":false,"video_rgb":true,"video_depth":false}}
{"frame":12662,"timestamp":{"delta_seconds":0.05000000074505806,"elapsed_seconds":125.58622629381716},"control":{"throttle":0.0,"steer":0.5929999947547913,"brake":1.0,"hand_brake":false,"reverse":false,"manual_gear_shift":false,"gear":0},"transform":{"location":{"x":-64.64484405517578,"y":24.471010208129883,"z":0.0006349944742396474},"rotation":{"pitch":0.0,"yaw":0.15919795632362366,"roll":0.0}},"velocity":{"x":6.397924412482325e-09,"y":-1.1030587998561714e-08,"z":0.010385398752987385},"angular_velocity":{"x":-1.779864942363929e-05,"y":-1.6666122064634692e-06,"z":2.9506966825465497e-07},"acceleration":{"x":4.613945066012093e-07,"y":-8.207027235584974e-07,"z":-0.09779758751392365},"speed_mps":0.010385398752995214,"speed_kph":0.03738743551078277,"speed_limit_kph":30.0,"collisions_this_frame":[],"waypoint":{"x":-64.64469146728516,"y":24.504404067993164,"z":0.0},"lane_deviation_m":0.033400245010852814,"lane_width":3.5,"goal":{"x":65.23527526855469,"y":13.414804458618164,"z":0.5999999642372131},"fault":{"name":"traction_control_loss","severity":1.0},"capture_flags":{"save_rgb":true,"save_depth":false,"video_rgb":true,"video_depth":false}}
{"frame":12663,"timestamp":{"delta_seconds":0.05000000074505806,"elapsed_seconds":125.63622629456222},"control":{"throttle":0.0,"steer":0.5580000281333923,"brake":1.0,"hand_brake":false,"reverse":false,"manual_gear_shift":false,"gear":0},"transform":{"location":{"x":-64.64484405517578,"y":24.471010208129883,"z":0.0010480880737304688},"rotation":{"pitch":0.0,"yaw":0.15919795632362366,"roll":0.0}},"velocity":{"x":7.360642650944271e-10,"y":-1.2380316327664787e-08,"z":0.007016772869974375},"angular_velocity":{"x":1.1445248674135655e-05,"y":-7.665316275051737e-07,"z":7.324206574566006e-09},"acceleration":{"x":-1.1323720627842704e-07,"y":-2.6994566582061452e-08,"z":-0.06737251579761505},"speed_mps":0.007016772869985336,"speed_kph":0.025260382331947207,"speed_limit_kph":30.0,"collisions_this_frame":[],"waypoint":{"x":-64.64469146728516,"y":24.504404067993164,"z":0.0},"lane_deviation_m":0.03341064974665642,"lane_width":3.5,"goal":{"x":65.23527526855469,"y":13.414804458618164,"z":0.5999999642372131},"fault":{"name":"traction_control_loss","severity":1.0},"capture_flags":{"save_rgb":true,"save_depth":false,"video_rgb":true,"video_depth":false}}
{"frame":12664,"timestamp":{"delta_seconds":0.05000000074505806,"elapsed_seconds":125.68622629530728},"control":{"throttle":0.0,"steer":0.5849999785423279,"brake":1.0,"hand_brake":false,"reverse":false,"manual_gear_shift":false,"gear":0},"transform":{"location":{"x":-64.64484405517578,"y":24.471010208129883,"z":0.0013262939173728228},"rotation":{"pitch":0.0,"yaw":0.15919795632362366,"roll":0.0}},"velocity":{"x":-4.2487569018589966e-09,"y":1.702289154081882e-08,"z":0.0047130584716796875},"angular_velocity":{"x":-3.1691770345787518e-06,"y":1.115450913857785e-06,"z":-1.3173307422675862e-07},"acceleration":{"x":-9.969642178475624e-08,"y":5.880641538169584e-07,"z":-0.046074286103248596},"speed_mps":0.0047130584717123445,"speed_kph":0.01696701049816444,"speed_limit_kph":30.0,"collisions_this_frame":[],"waypoint":{"x":-64.64469146728516,"y":24.504404067993164,"z":0.0},"lane_deviation_m":0.03342053294181824,"lane_width":3.5,"goal":{"x":65.23527526855469,"y":13.414804458618164,"z":0.5999999642372131},"fault":{"name":"traction_control_loss","severity":1.0},"capture_flags":{"save_rgb":true,"save_depth":false,"video_rgb":true,"video_depth":false}}
{"frame":12665,"timestamp":{"delta_seconds":0.05000000074505806,"elapsed_seconds":125.73622629605234},"control":{"throttle":0.0,"steer":0.621999979019165,"brake":1.0,"hand_brake":false,"reverse":false,"manual_gear_shift":false,"gear":0},"transform":{"location":{"x":-64.64484405517578,"y":24.471010208129883,"z":0.0015126037178561091},"rotation":{"pitch":0.0,"yaw":0.15919795632362366,"roll":0.0}},"velocity":{"x":-2.889298578168109e-09,"y":2.9185075689497353e-08,"z":0.003150415373966098},"angular_velocity":{"x":-2.0123836293350905e-05,"y":1.6764001884439494e-06,"z":-2.1012972695189092e-07},"acceleration":{"x":2.718916647381775e-08,"y":2.4324367586814333e-07,"z":-0.03125286102294922},"speed_mps":0.0031504153741026063,"speed_kph":0.011341495346769382,"speed_limit_kph":30.0,"collisions_this_frame":[],"waypoint":{"x":-64.64469146728516,"y":24.504404067993164,"z":0.0},"lane_deviation_m":0.03342844918370247,"lane_width":3.5,"goal":{"x":65.23527526855469,"y":13.414804458618164,"z":0.5999999642372131},"fault":{"name":"traction_control_loss","severity":1.0},"capture_flags":{"save_rgb":true,"save_depth":false,"video_rgb":true,"video_depth":false}}
{"frame":12666,"timestamp":{"delta_seconds":0.05000000074505806,"elapsed_seconds":125.7862262967974},"control":{"throttle":0.0,"steer":0.5709999799728394,"brake":1.0,"hand_brake":false,"reverse":false,"manual_gear_shift":false,"gear":0},"transform":{"location":{"x":-64.64484405517578,"y":24.471010208129883,"z":0.0015981292817741632},"rotation":{"pitch":0.0,"yaw":0.15919795632362366,"roll":0.0}},"velocity":{"x":5.506110234421158e-09,"y":-3.9807854790296915e-08,"z":0.0005038547678850591},"angular_velocity":{"x":2.9759330573142506e-05,"y":2.8993966338930477e-07,"z":2.1059550192603638e-07},"acceleration":{"x":1.679081833572127e-07,"y":-1.3798586451230221e-06,"z":-0.05293121188879013},"speed_mps":0.0005038547694876861,"speed_kph":0.0018138771701556701,"speed_limit_kph":30.0,"collisions_this_frame":[],"waypoint":{"x":-64.64469146728516,"y":24.504404067993164,"z":0.0},"lane_deviation_m":0.033432427793741226,"lane_width":3.5,"goal":{"x":65.23527526855469,"y":13.414804458618164,"z":0.5999999642372131},"fault":{"name":"traction_control_loss","severity":1.0},"capture_flags":{"save_rgb":true,"save_depth":false,"video_rgb":true,"video_depth":false}}
{"frame":12667,"timestamp":{"delta_seconds":0.05000000074505806,"elapsed_seconds":125.83622629754245},"control":{"throttle":0.0,"steer":0.5109999775886536,"brake":1.0,"hand_brake":false,"reverse":false,"manual_gear_shift":false,"gear":0},"transform":{"location":{"x":-64.64484405517578,"y":24.471010208129883,"z":0.0016386413481086493},"rotation":{"pitch":0.0,"yaw":0.15919795632362366,"roll":0.0}},"velocity":{"x":-1.708517771703555e-08,"y":5.1045606852540004e-08,"z":0.0009395122178830206},"angular_velocity":{"x":-4.934395110467449e-05,"y":-1.969817458302714e-05,"z":-2.05383461349129e-08},"acceleration":{"x":-4.5182574126556574e-07,"y":1.8170692328567384e-06,"z":0.008713148534297943},"speed_mps":0.0009395122194250748,"speed_kph":0.0033822439899302693,"speed_limit_kph":30.0,"collisions_this_frame":[],"waypoint":{"x":-64.64469146728516,"y":24.504404067993164,"z":0.0},"lane_deviation_m":0.03343438729643822,"lane_width":3.5,"goal":{"x":65.23527526855469,"y":13.414804458618164,"z":0.5999999642372131},"fault":{"name":"traction_control_loss","severity":1.0},"capture_flags":{"save_rgb":true,"save_depth":false,"video_rgb":true,"video_depth":false}}
{"frame":12668,"timestamp":{"delta_seconds":0.05000000074505806,"elapsed_seconds":125.88622629828751},"control":{"throttle":0.0,"steer":0.6480000019073486,"brake":1.0,"hand_brake":false,"reverse":false,"manual_gear_shift":false,"gear":0},"transform":{"location":{"x":-64.64484405517578,"y":24.471010208129883,"z":0.0016878509195521474},"rotation":{"pitch":0.0,"yaw":0.15919795632362366,"roll":0.0}},"velocity":{"x":-2.1679815276343106e-08,"y":6.49224674020843e-08,"z":0.0009802245767787099},"angular_velocity":{"x":-4.9722166295396164e-05,"y":-1.8583805285743438e-05,"z":3.2657609949637845e-08},"acceleration":{"x":-9.189275118615114e-08,"y":2.775371967800311e-07,"z":0.000814247177913785},"speed_mps":0.0009802245791684383,"speed_kph":0.003528808485006378,"speed_limit_kph":30.0,"collisions_this_frame":[],"waypoint":{"x":-64.64469146728516,"y":24.504404067993164,"z":0.0},"lane_deviation_m":0.03343683481216431,"lane_width":3.5,"goal":{"x":65.23527526855469,"y":13.414804458618164,"z":0.5999999642372131},"fault":{"name":"traction_control_loss","severity":1.0},"capture_flags":{"save_rgb":true,"save_depth":false,"video_rgb":true,"video_depth":false}}
{"frame":12669,"timestamp":{"delta_seconds":0.05000000074505806,"elapsed_seconds":125.93622629903257},"control":{"throttle":0.0,"steer":0.5910000205039978,"brake":1.0,"hand_brake":false,"reverse":false,"manual_gear_shift":false,"gear":0},"transform":{"location":{"x":-64.64484405517578,"y":24.471010208129883,"z":0.0017336654709652066},"rotation":{"pitch":0.0,"yaw":0.15919795632362366,"roll":0.0}},"velocity":{"x":1.8279010305377597e-08,"y":-5.480664810875169e-08,"z":0.0008603858877904713},"angular_velocity":{"x":7.076330075506121e-05,"y":2.4945584300439805e-05,"z":2.0131340150442156e-08},"acceleration":{"x":7.991765187398414e-07,"y":-2.3945824523252668e-06,"z":-0.0023967737797647715},"speed_mps":0.0008603858897302352,"speed_kph":0.0030973892030288466,"speed_limit_kph":30.0,"collisions_this_frame":[],"waypoint":{"x":-64.64469146728516,"y":24.504404067993164,"z":0.0},"lane_deviation_m":0.03343917801976204,"lane_width":3.5,"goal":{"x":65.23527526855469,"y":13.414804458618164,"z":0.5999999642372131},"fault":{"name":"traction_control_loss","severity":1.0},"capture_flags":{"save_rgb":true,"save_depth":false,"video_rgb":true,"video_depth":false}}
{"frame":12670,"timestamp":{"delta_seconds":0.05000000074505806,"elapsed_seconds":125.98622629977763},"control":{"throttle":0.0,"steer":0.5529999732971191,"brake":1.0,"hand_brake":false,"reverse":false,"manual_gear_shift":false,"gear":0},"transform":{"location":{"x":-64.64484405517578,"y":24.471010208129883,"z":0.0017717742593958974},"rotation":{"pitch":0.0,"yaw":0.15919795632362366,"roll":0.0}},"velocity":{"x":7.012433966835374e-10,"y":6.446905231882738e-09,"z":0.0006939888116903603},"angular_velocity":{"x":1.1176298357895575e-05,"y":6.096089691709494e-06,"z":-1.143693406646662e-08},"acceleration":{"x":-3.515553430588625e-07,"y":1.2250710597072612e-06,"z":-0.00332794152200222},"speed_mps":0.0006939888117206593,"speed_kph":0.0024983597221943737,"speed_limit_kph":30.0,"collisions_this_frame":[],"waypoint":{"x":-64.64469146728516,"y":24.504404067993164,"z":0.0},"lane_deviation_m":0.033441174775362015,"lane_width":3.5,"goal":{"x":65.23527526855469,"y":13.414804458618164,"z":0.5999999642372131},"fault":{"name":"traction_control_loss","severity":1.0},"capture_flags":{"save_rgb":true,"save_depth":false,"video_rgb":true,"video_depth":false}}
{"frame":12671,"timestamp":{"delta_seconds":0.05000000074505806,"elapsed_seconds":126.03622630052269},"control":{"throttle":0.0,"steer":0.5519999861717224,"brake":1.0,"hand_brake":false,"reverse":false,"manual_gear_shift":false,"gear":0},"transform":{"location":{"x":-64.64484405517578,"y":24.471010208129883,"z":0.0018015288515016437},"rotation":{"pitch":0.0,"yaw":0.15919795632362366,"roll":0.0}},"velocity":{"x":-8.964962994184589e-09,"y":3.308368690113639e-08,"z":0.0005328464321792126},"angular_velocity":{"x":-5.3061656217323616e-05,"y":-1.4235345588531345e-05,"z":6.044642475444562e-08},"acceleration":{"x":-1.933241264850949e-07,"y":5.327356120687909e-07,"z":-0.0032228475902229548},"speed_mps":0.0005328464332816886,"speed_kph":0.0019182471598140792,"speed_limit_kph":30.0,"collisions_this_frame":[],"waypoint":{"x":-64.64469146728516,"y":24.504404067993164,"z":0.0},"lane_deviation_m":0.03344276547431946,"lane_width":3.5,"goal":{"x":65.23527526855469,"y":13.414804458618164,"z":0.5999999642372131},"fault":{"name":"traction_control_loss","severity":1.0},"capture_flags":{"save_rgb":true,"save_depth":false,"video_rgb":true,"video_depth":false}}
{"frame":12672,"timestamp":{"delta_seconds":0.05000000074505806,"elapsed_seconds":126.08622630126774},"control":{"throttle":0.0,"steer":0.531000018119812,"brake":1.0,"hand_brake":false,"reverse":false,"manual_gear_shift":false,"gear":0},"transform":{"location":{"x":-64.64484405517578,"y":24.471010208129883,"z":0.0018238830380141735},"rotation":{"pitch":0.0,"yaw":0.15919795632362366,"roll":0.0}},"velocity":{"x":2.579242153188943e-09,"y":2.0036749148744093e-08,"z":0.0003939247108064592},"angular_velocity":{"x":-8.924937901610974e-06,"y":7.83244104241021e-06,"z":1.2744471256098677e-08},"acceleration":{"x":2.3088411182925483e-07,"y":-2.6093874794241856e-07,"z":-0.0027784344274550676},"speed_mps":0.00039392471132448177,"speed_kph":0.0014181289607681344,"speed_limit_kph":30.0,"collisions_this_frame":[],"waypoint":{"x":-64.64469146728516,"y":24.504404067993164,"z":0.0},"lane_deviation_m":0.03344397991895676,"lane_width":3.5,"goal":{"x":65.23527526855469,"y":13.414804458618164,"z":0.5999999642372131},"fault":{"name":"traction_control_loss","severity":1.0},"capture_flags":{"save_rgb":true,"save_depth":false,"video_rgb":true,"video_depth":false}}
{"frame":12673,"timestamp":{"delta_seconds":0.05000000074505806,"elapsed_seconds":126.1362263020128},"control":{"throttle":0.0,"steer":0.5680000185966492,"brake":1.0,"hand_brake":false,"reverse":false,"manual_gear_shift":false,"gear":0},"transform":{"location":{"x":-64.64484405517578,"y":24.471010208129883,"z":0.0018402481218799949},"rotation":{"pitch":0.0,"yaw":0.15919795632362366,"roll":0.0}},"velocity":{"x":-9.420611846167048e-09,"y":4.221744376309289e-08,"z":0.00028560636565089226},"angular_velocity":{"x":-5.636865898850374e-05,"y":-1.2701871128228959e-05,"z":5.544927716982784e-08},"acceleration":{"x":-2.399970639999083e-07,"y":4.4361388518154854e-07,"z":-0.0021663669031113386},"speed_mps":0.0002856063689264853,"speed_kph":0.001028182928135347,"speed_limit_kph":30.0,"collisions_this_frame":[],"waypoint":{"x":-64.64469146728516,"y":24.504404067993164,"z":0.0},"lane_deviation_m":0.03344487398862839,"lane_width":3.5,"goal":{"x":65.23527526855469,"y":13.414804458618164,"z":0.5999999642372131},"fault":{"name":"traction_control_loss","severity":1.0},"capture_flags":{"save_rgb":true,"save_depth":false,"video_rgb":true,"video_depth":false}}
{"frame":12674,"timestamp":{"delta_seconds":0.05000000074505806,"elapsed_seconds":126.18622630275786},"control":{"throttle":0.0,"steer":0.5059999823570251,"brake":1.0,"hand_brake":false,"reverse":false,"manual_gear_shift":false,"gear":0},"transform":{"location":{"x":-64.64484405517578,"y":24.471010208129883,"z":0.0018519210861995816},"rotation":{"pitch":0.0,"yaw":0.15919795632362366,"roll":0.0}},"velocity":{"x":2.1844853037578105e-08,"y":-5.4570925556163274e-08,"z":0.0002031898475252092},"angular_velocity":{"x":6.142412894405425e-05,"y":2.7918222258449532e-05,"z":4.440181911036234e-08},"acceleration":{"x":6.253093260966125e-07,"y":-1.9357673863851232e-06,"z":-0.0016483303625136614},"speed_mps":0.00020318985602756176,"speed_kph":0.0007314834816992224,"speed_limit_kph":30.0,"collisions_this_frame":[],"waypoint":{"x":-64.64469146728516,"y":24.504404067993164,"z":0.0},"lane_deviation_m":0.03344551846385002,"lane_width":3.5,"goal":{"x":65.23527526855469,"y":13.414804458618164,"z":0.5999999642372131},"fault":{"name":"traction_control_loss","severity":1.0},"capture_flags":{"save_rgb":true,"save_depth":false,"video_rgb":true,"video_depth":false}}
{"frame":12675,"timestamp":{"delta_seconds":0.05000000074505806,"elapsed_seconds":126.23622630350292},"control":{"throttle":0.0,"steer":0.5540000200271606,"brake":1.0,"hand_brake":false,"reverse":false,"manual_gear_shift":false,"gear":0},"transform":{"location":{"x":-64.64484405517578,"y":24.471010208129883,"z":0.001854324247688055},"rotation":{"pitch":0.0,"yaw":0.15919795632362366,"roll":0.0}},"velocity":{"x":-2.162805712302429e-09,"y":7.732182949471422e-11,"z":7.431983976857737e-05},"angular_velocity":{"x":1.0290811587765347e-05,"y":-4.874182764069701e-07,"z":-3.0199853284784695e-08},"acceleration":{"x":-4.801531758857891e-07,"y":1.0929649079116643e-06,"z":-0.0025774003006517887},"speed_mps":7.431983980008785e-05,"speed_kph":0.0002675514232803163,"speed_limit_kph":30.0,"collisions_this_frame":[],"waypoint":{"x":-64.64469146728516,"y":24.504404067993164,"z":0.0},"lane_deviation_m":0.033445652574300766,"lane_width":3.5,"goal":{"x":65.23527526855469,"y":13.414804458618164,"z":0.5999999642372131},"fault":{"name":"traction_control_loss","severity":1.0},"capture_flags":{"save_rgb":true,"save_depth":false,"video_rgb":true,"video_depth":false}}
{"frame":12676,"timestamp":{"delta_seconds":0.05000000074505806,"elapsed_seconds":126.28622630424798},"control":{"throttle":0.0,"steer":0.5609999895095825,"brake":1.0,"hand_brake":false,"reverse":false,"manual_gear_shift":false,"gear":0},"transform":{"location":{"x":-64.64484405517578,"y":24.471010208129883,"z":0.0018587112426757812},"rotation":{"pitch":0.0,"yaw":0.15919795632362366,"roll":0.0}},"velocity":{"x":-4.91310714334503e-10,"y":-2.093104800593437e-09,"z":9.137153392657638e-05},"angular_velocity":{"x":8.126730790536385e-06,"y":5.047342597208626e-07,"z":-1.2484248301802836e-08},"acceleration":{"x":3.34298988491355e-08,"y":-4.34085336564749e-08,"z":0.0003410338831599802},"speed_mps":9.137153395187131e-05,"speed_kph":0.00032893752222673675,"speed_limit_kph":30.0,"collisions_this_frame":[],"waypoint":{"x":-64.64469146728516,"y":24.504404067993164,"z":0.0},"lane_deviation_m":0.033445894718170166,"lane_width":3.5,"goal":{"x":65.23527526855469,"y":13.414804458618164,"z":0.5999999642372131},"fault":{"name":"traction_control_loss","severity":1.0},"capture_flags":{"save_rgb":true,"save_depth":false,"video_rgb":true,"video_depth":false}}
{"frame":12677,"timestamp":{"delta_seconds":0.05000000074505806,"elapsed_seconds":126.33622630499303},"control":{"throttle":0.0,"steer":0.4749999940395355,"brake":1.0,"hand_brake":false,"reverse":false,"manual_gear_shift":false,"gear":0},"transform":{"location":{"x":-64.64484405517578,"y":24.471010208129883,"z":0.0018631363054737449},"rotation":{"pitch":0.0,"yaw":0.15919795632362366,"roll":0.0}},"velocity":{"x":-1.6963525695246062e-08,"y":5.294086236062867e-08,"z":8.42285153339617e-05},"angular_velocity":{"x":-5.491118645295501e-05,"y":-1.9731880456674844e-05,"z":-1.995350373817928e-08},"acceleration":{"x":-3.294443047252571e-07,"y":1.10067935565894e-06,"z":-0.0001428603718522936},"speed_mps":8.422853367986132e-05,"speed_kph":0.00030322272124750076,"speed_limit_kph":30.0,"collisions_this_frame":[],"waypoint":{"x":-64.64469146728516,"y":24.504404067993164,"z":0.0},"lane_deviation_m":0.033446140587329865,"lane_width":3.5,"goal":{"x":65.23527526855469,"y":13.414804458618164,"z":0.5999999642372131},"fault":{"name":"traction_control_loss","severity":1.0},"capture_flags":{"save_rgb":true,"save_depth":false,"video_rgb":true,"video_depth":false}}
{"frame":12678,"timestamp":{"delta_seconds":0.05000000074505806,"elapsed_seconds":126.38622630573809},"control":{"throttle":0.0,"steer":0.5519999861717224,"brake":1.0,"hand_brake":false,"reverse":false,"manual_gear_shift":false,"gear":0},"transform":{"location":{"x":-64.64484405517578,"y":24.471010208129883,"z":0.0018669128185138106},"rotation":{"pitch":0.0,"yaw":0.15919795632362366,"roll":0.0}},"velocity":{"x":8.033133047646857e-10,"y":-1.107789859844388e-08,"z":6.976127770030871e-05},"angular_velocity":{"x":1.769152186170686e-05,"y":2.0362490431580227e-06,"z":8.712259247367626e-10},"acceleration":{"x":3.5533676623344945e-07,"y":-1.2803752724721562e-06,"z":-0.0002893447526730597},"speed_mps":6.976127858450373e-05,"speed_kph":0.00025114060290421344,"speed_limit_kph":30.0,"collisions_this_frame":[],"waypoint":{"x":-64.64469146728516,"y":24.504404067993164,"z":0.0},"lane_deviation_m":0.03344635292887688,"lane_width":3.5,"goal":{"x":65.23527526855469,"y":13.414804458618164,"z":0.5999999642372131},"fault":{"name":"traction_control_loss","severity":1.0},"capture_flags":{"save_rgb":true,"save_depth":false,"video_rgb":true,"video_depth":false}}
{"frame":12679,"timestamp":{"delta_seconds":0.05000000074505806,"elapsed_seconds":126.43622630648315},"control":{"throttle":0.0,"steer":0.4869999885559082,"brake":1.0,"hand_brake":false,"reverse":false,"manual_gear_shift":false,"gear":0},"transform":{"location":{"x":-64.64484405517578,"y":24.471010208129883,"z":0.001869964529760182},"rotation":{"pitch":0.0,"yaw":0.15919795632362366,"roll":0.0}},"velocity":{"x":3.52049189800141e-09,"y":-1.976089158972627e-08,"z":5.548477201955393e-05},"angular_velocity":{"x":1.4860809642414097e-05,"y":2.8901533823955106e-06,"z":3.084057098590165e-08},"acceleration":{"x":5.4343569644288436e-08,"y":-1.7365985627293412e-07,"z":-0.0002855301136150956},"speed_mps":5.548477565015988e-05,"speed_kph":0.00019974519234057557,"speed_limit_kph":30.0,"collisions_this_frame":[],"waypoint":{"x":-64.64469146728516,"y":24.504404067993164,"z":0.0},"lane_deviation_m":0.033446524292230606,"lane_width":3.5,"goal":{"x":65.23527526855469,"y":13.414804458618164,"z":0.5999999642372131},"fault":{"name":"traction_control_loss","severity":1.0},"capture_flags":{"save_rgb":true,"save_depth":false,"video_rgb":true,"video_depth":false}}
{"frame":12680,"timestamp":{"delta_seconds":0.05000000074505806,"elapsed_seconds":126.48622630722821},"control":{"throttle":0.0,"steer":0.4959999918937683,"brake":1.0,"hand_brake":false,"reverse":false,"manual_gear_shift":false,"gear":0},"transform":{"location":{"x":-64.64484405517578,"y":24.471010208129883,"z":0.0018722915556281805},"rotation":{"pitch":0.0,"yaw":0.15919795632362366,"roll":0.0}},"velocity":{"x":8.234434245579791e-10,"y":2.1239245029391896e-08,"z":4.198074384476058e-05},"angular_velocity":{"x":-1.9045470253331587e-05,"y":2.956094476758153e-06,"z":4.391848662521625e-09},"acceleration":{"x":-5.394096547206573e-08,"y":8.200026968552265e-07,"z":-0.0002700805780477822},"speed_mps":4.19807492256033e-05,"speed_kph":0.0001511306972121719,"speed_limit_kph":30.0,"collisions_this_frame":[],"waypoint":{"x":-64.64469146728516,"y":24.504404067993164,"z":0.0},"lane_deviation_m":0.03344665467739105,"lane_width":3.5,"goal":{"x":65.23527526855469,"y":13.414804458618164,"z":0.5999999642372131},"fault":{"name":"traction_control_loss","severity":1.0},"capture_flags":{"save_rgb":true,"save_depth":false,"video_rgb":true,"video_depth":false}}
{"frame":12681,"timestamp":{"delta_seconds":0.05000000074505806,"elapsed_seconds":126.53622630797327},"control":{"throttle":0.0,"steer":0.47999998927116394,"brake":1.0,"hand_brake":false,"reverse":false,"manual_gear_shift":false,"gear":0},"transform":{"location":{"x":-64.64484405517578,"y":24.471010208129883,"z":0.001874046283774078},"rotation":{"pitch":0.0,"yaw":0.15919795632362366,"roll":0.0}},"velocity":{"x":3.0254965199816297e-09,"y":-9.39199384930589e-09,"z":3.088951052632183e-05},"angular_velocity":{"x":8.967696885520127e-06,"y":3.7967217849654844e-06,"z":2.3995889719685692e-08},"acceleration":{"x":4.40410659052759e-08,"y":-6.12624774021242e-07,"z":-0.00022182466636877507},"speed_mps":3.088951210231273e-05,"speed_kph":0.00011120224356832584,"speed_limit_kph":30.0,"collisions_this_frame":[],"waypoint":{"x":-64.64469146728516,"y":24.504404067993164,"z":0.0},"lane_deviation_m":0.03344675153493881,"lane_width":3.5,"goal":{"x":65.23527526855469,"y":13.414804458618164,"z":0.5999999642372131},"fault":{"name":"traction_control_loss","severity":1.0},"capture_flags":{"save_rgb":true,"save_depth":false,"video_rgb":true,"video_depth":false}}
{"frame":12682,"timestamp":{"delta_seconds":0.05000000074505806,"elapsed_seconds":126.58622630871832},"control":{"throttle":0.0,"steer":0.5640000104904175,"brake":1.0,"hand_brake":false,"reverse":false,"manual_gear_shift":false,"gear":0},"transform":{"location":{"x":-64.64484405517578,"y":24.471010208129883,"z":0.0018752670148387551},"rotation":{"pitch":0.0,"yaw":0.15919795632362366,"roll":0.0}},"velocity":{"x":1.066647437042434e-09,"y":3.277583360272729e-08,"z":2.175331064790953e-05},"angular_velocity":{"x":-2.1780964743811637e-05,"y":4.354591510491446e-06,"z":-1.33179199224287e-07},"acceleration":{"x":-3.9176981658783916e-08,"y":8.433565312770952e-07,"z":-0.0001827240048442036},"speed_mps":2.175333536581136e-05,"speed_kph":7.83120073169209e-05,"speed_limit_kph":30.0,"collisions_this_frame":[],"waypoint":{"x":-64.64469146728516,"y":24.504404067993164,"z":0.0},"lane_deviation_m":0.033446818590164185,"lane_width":3.5,"goal":{"x":65.23527526855469,"y":13.414804458618164,"z":0.5999999642372131},"fault":{"name":"traction_control_loss","severity":1.0},"capture_flags":{"save_rgb":true,"save_depth":false,"video_rgb":true,"video_depth":false}}
{"frame":12683,"timestamp":{"delta_seconds":0.05000000074505806,"elapsed_seconds":126.63622630946338},"control":{"throttle":0.0,"steer":0.503000020980835,"brake":1.0,"hand_brake":false,"reverse":false,"manual_gear_shift":false,"gear":0},"transform":{"location":{"x":-64.64484405517578,"y":24.471010208129883,"z":0.0018752670148387551},"rotation":{"pitch":0.0,"yaw":0.15919795632362366,"roll":0.0}},"velocity":{"x":3.602888820619654e-10,"y":-1.0648162351856172e-08,"z":5.0544736041047145e-06},"angular_velocity":{"x":1.404330487275729e-05,"y":5.972137273602129e-07,"z":-4.853962370932052e-11},"acceleration":{"x":-1.4127170544497858e-08,"y":-8.684799013281008e-07,"z":-0.00033397675724700093},"speed_mps":5.054484833072591e-06,"speed_kph":1.8196145399061328e-05,"speed_limit_kph":30.0,"collisions_this_frame":[],"waypoint":{"x":-64.64469146728516,"y":24.504404067993164,"z":0.0},"lane_deviation_m":0.033446818590164185,"lane_width":3.5,"goal":{"x":65.23527526855469,"y":13.414804458618164,"z":0.5999999642372131},"fault":{"name":"traction_control_loss","severity":1.0},"capture_flags":{"save_rgb":true,"save_depth":false,"video_rgb":true,"video_depth":false}}
{"frame":12684,"timestamp":{"delta_seconds":0.05000000074505806,"elapsed_seconds":126.68622631020844},"control":{"throttle":0.0,"steer":0.5419999957084656,"brake":1.0,"hand_brake":false,"reverse":false,"manual_gear_shift":false,"gear":0},"transform":{"location":{"x":-64.64484405517578,"y":24.471010208129883,"z":0.0018752670148387551},"rotation":{"pitch":0.0,"yaw":0.15919795632362366,"roll":0.0}},"velocity":{"x":-5.178708128994458e-09,"y":2.634862994455034e-08,"z":8.39233416627394e-06},"angular_velocity":{"x":-9.537944833937217e-07,"y":2.0326235699030804e-06,"z":5.323615326346953e-08},"acceleration":{"x":-1.1077993633534788e-07,"y":7.399358423754165e-07,"z":6.675720942439511e-05},"speed_mps":8.392377126161976e-06,"speed_kph":3.0212557654183113e-05,"speed_limit_kph":30.0,"collisions_this_frame":[],"waypoint":{"x":-64.64469146728516,"y":24.504404067993164,"z":0.0},"lane_deviation_m":0.033446818590164185,"lane_width":3.5,"goal":{"x":65.23527526855469,"y":13.414804458618164,"z":0.5999999642372131},"fault":{"name":"traction_control_loss","severity":1.0},"capture_flags":{"save_rgb":true,"save_depth":false,"video_rgb":true,"video_depth":false}}
{"frame":12685,"timestamp":{"delta_seconds":0.05000000074505806,"elapsed_seconds":126.7362263109535},"control":{"throttle":0.0,"steer":0.5139999985694885,"brake":1.0,"hand_brake":false,"reverse":false,"manual_gear_shift":false,"gear":0},"transform":{"location":{"x":-64.64484405517578,"y":24.471010208129883,"z":0.0018765258137136698},"rotation":{"pitch":0.0,"yaw":0.15919795632362366,"roll":0.0}},"velocity":{"x":1.9474500234650804e-08,"y":-5.617008369540599e-08,"z":8.80241350387223e-06},"angular_velocity":{"x":5.9298763517290354e-05,"y":2.3249356672749855e-05,"z":2.6493061966448295e-08},"acceleration":{"x":4.930641352984821e-07,"y":-1.650374201744853e-06,"z":8.201586751965806e-06},"speed_mps":8.80261426098031e-06,"speed_kph":3.168941133952912e-05,"speed_limit_kph":30.0,"collisions_this_frame":[],"waypoint":{"x":-64.64469146728516,"y":24.504404067993164,"z":0.0},"lane_deviation_m":0.033446889370679855,"lane_width":3.5,"goal":{"x":65.23527526855469,"y":13.414804458618164,"z":0.5999999642372131},"fault":{"name":"traction_control_loss","severity":1.0},"capture_flags":{"save_rgb":true,"save_depth":false,"video_rgb":true,"video_depth":false}}
{"frame":12686,"timestamp":{"delta_seconds":0.05000000074505806,"elapsed_seconds":126.78622631169856},"control":{"throttle":0.0,"steer":0.5759999752044678,"brake":1.0,"hand_brake":false,"reverse":false,"manual_gear_shift":false,"gear":0},"transform":{"location":{"x":-64.64484405517578,"y":24.471010208129883,"z":0.0018765258137136698},"rotation":{"pitch":0.0,"yaw":0.15919795632362366,"roll":0.0}},"velocity":{"x":1.1712577574485294e-09,"y":1.927692672154535e-08,"z":7.486343292839592e-06},"angular_velocity":{"x":-1.6091698853415437e-05,"y":3.907491645804839e-06,"z":5.570677696908888e-09},"acceleration":{"x":-3.660648530967592e-07,"y":1.508940272287873e-06,"z":-2.6321404220652767e-05},"speed_mps":7.4863682029401215e-06,"speed_kph":2.6950925530584438e-05,"speed_limit_kph":30.0,"collisions_this_frame":[],"waypoint":{"x":-64.64469146728516,"y":24.504404067993164,"z":0.0},"lane_deviation_m":0.033446889370679855,"lane_width":3.5,"goal":{"x":65.23527526855469,"y":13.414804458618164,"z":0.5999999642372131},"fault":{"name":"traction_control_loss","severity":1.0},"capture_flags":{"save_rgb":true,"save_depth":false,"video_rgb":true,"video_depth":false}}
{"frame":12687,"timestamp":{"delta_seconds":0.05000000074505806,"elapsed_seconds":126.83622631244361},"control":{"throttle":0.0,"steer":0.503000020980835,"brake":1.0,"hand_brake":false,"reverse":false,"manual_gear_shift":false,"gear":0},"transform":{"location":{"x":-64.64484405517578,"y":24.471010208129883,"z":0.0018765258137136698},"rotation":{"pitch":0.0,"yaw":0.15919795632362366,"roll":0.0}},"velocity":{"x":-1.1567607316465e-08,"y":4.112002827127981e-08,"z":5.9413910094008315e-06},"angular_velocity":{"x":-6.360491533996537e-05,"y":-1.7166077668662183e-05,"z":2.3731796972015218e-08},"acceleration":{"x":-2.5477729082012956e-07,"y":4.3686202388926176e-07,"z":-3.0899045668775216e-05},"speed_mps":5.941544562893817e-06,"speed_kph":2.1389560426417744e-05,"speed_limit_kph":30.0,"collisions_this_frame":[],"waypoint":{"x":-64.64469146728516,"y":24.504404067993164,"z":0.0},"lane_deviation_m":0.033446889370679855,"lane_width":3.5,"goal":{"x":65.23527526855469,"y":13.414804458618164,"z":0.5999999642372131},"fault":{"name":"traction_control_loss","severity":1.0},"capture_flags":{"save_rgb":true,"save_depth":false,"video_rgb":true,"video_depth":false}}
{"frame":12688,"timestamp":{"delta_seconds":0.05000000074505806,"elapsed_seconds":126.88622631318867},"control":{"throttle":0.0,"steer":0.5659999847412109,"brake":1.0,"hand_brake":false,"reverse":false,"manual_gear_shift":false,"gear":0},"transform":{"location":{"x":-64.64484405517578,"y":24.471010208129883,"z":0.0018765258137136698},"rotation":{"pitch":0.0,"yaw":0.15919795632362366,"roll":0.0}},"velocity":{"x":-3.0116653615408495e-09,"y":3.2241974423641295e-08,"z":4.4918060666532256e-06},"angular_velocity":{"x":-3.672064394777408e-06,"y":3.2118746275955345e-06,"z":-1.7659276352333109e-07},"acceleration":{"x":1.7111884176301828e-07,"y":-1.7756107695277024e-07,"z":-2.899169885495212e-05},"speed_mps":4.4919227904613086e-06,"speed_kph":1.6170922045660712e-05,"speed_limit_kph":30.0,"collisions_this_frame":[],"waypoint":{"x":-64.64469146728516,"y":24.504404067993164,"z":0.0},"lane_deviation_m":0.033446889370679855,"lane_width":3.5,"goal":{"x":65.23527526855469,"y":13.414804458618164,"z":0.5999999642372131},"fault":{"name":"traction_control_loss","severity":1.0},"capture_flags":{"save_rgb":true,"save_depth":false,"video_rgb":true,"video_depth":false}}
{"frame":12689,"timestamp":{"delta_seconds":0.05000000074505806,"elapsed_seconds":126.93622631393373},"control":{"throttle":0.0,"steer":0.5419999957084656,"brake":1.0,"hand_brake":false,"reverse":false,"manual_gear_shift":false,"gear":0},"transform":{"location":{"x":-64.64484405517578,"y":24.471010208129883,"z":0.0018776321085169911},"rotation":{"pitch":0.0,"yaw":0.15919795632362366,"roll":0.0}},"velocity":{"x":7.437426785550372e-10,"y":3.301555295820435e-08,"z":3.299713171145413e-06},"angular_velocity":{"x":-1.980751403607428e-05,"y":4.251338395988569e-06,"z":-1.3324320491392427e-07},"acceleration":{"x":7.510816146805155e-08,"y":1.547157069126115e-08,"z":-2.384185791015625e-05},"speed_mps":3.2998784207483807e-06,"speed_kph":1.1879562314694171e-05,"speed_limit_kph":30.0,"collisions_this_frame":[],"waypoint":{"x":-64.64469146728516,"y":24.504404067993164,"z":0.0},"lane_deviation_m":0.03344695270061493,"lane_width":3.5,"goal":{"x":65.23527526855469,"y":13.414804458618164,"z":0.5999999642372131},"fault":{"name":"traction_control_loss","severity":1.0},"capture_flags":{"save_rgb":true,"save_depth":false,"video_rgb":true,"video_depth":false}}
{"frame":12690,"timestamp":{"delta_seconds":0.05000000074505806,"elapsed_seconds":126.98622631467879},"control":{"throttle":0.0,"steer":0.5170000195503235,"brake":1.0,"hand_brake":false,"reverse":false,"manual_gear_shift":false,"gear":0},"transform":{"location":{"x":-64.64484405517578,"y":24.471010208129883,"z":0.0018776321085169911},"rotation":{"pitch":0.0,"yaw":0.15919795632362366,"roll":0.0}},"velocity":{"x":4.812654719188458e-09,"y":5.535973457426735e-09,"z":2.0503996438492322e-06},"angular_velocity":{"x":-2.266914270876441e-05,"y":3.7521615467994707e-06,"z":5.681000203594522e-08},"acceleration":{"x":8.137823925835619e-08,"y":-5.495916184372618e-07,"z":-2.498627145541832e-05},"speed_mps":2.050412765309616e-06,"speed_kph":7.3814859551146175e-06,"speed_limit_kph":30.0,"collisions_this_frame":[],"waypoint":{"x":-64.64469146728516,"y":24.504404067993164,"z":0.0},"lane_deviation_m":0.03344695270061493,"lane_width":3.5,"goal":{"x":65.23527526855469,"y":13.414804458618164,"z":0.5999999642372131},"fault":{"name":"traction_control_loss","severity":1.0},"capture_flags":{"save_rgb":true,"save_depth":false,"video_rgb":true,"video_depth":false}}
{"frame":12691,"timestamp":{"delta_seconds":0.05000000074505806,"elapsed_seconds":127.03622631542385},"control":{"throttle":0.0,"steer":0.40799999237060547,"brake":1.0,"hand_brake":false,"reverse":false,"manual_gear_shift":false,"gear":0},"transform":{"location":{"x":-64.64484405517578,"y":24.471010208129883,"z":0.0018776321085169911},"rotation":{"pitch":0.0,"yaw":0.15919795632362366,"roll":0.0}},"velocity":{"x":0.0,"y":0.0,"z":0.0},"angular_velocity":{"x":0.0,"y":0.0,"z":0.0},"acceleration":{"x":-9.6253096160126e-08,"y":-1.107194691485347e-07,"z":-4.100799196748994e-05},"speed_mps":0.0,"speed_kph":0.0,"speed_limit_kph":30.0,"collisions_this_frame":[],"waypoint":{"x":-64.64469146728516,"y":24.504404067993164,"z":0.0},"lane_deviation_m":0.03344695270061493,"lane_width":3.5,"goal":{"x":65.23527526855469,"y":13.414804458618164,"z":0.5999999642372131},"fault":{"name":"traction_control_loss","severity":1.0},"capture_flags":{"save_rgb":true,"save_depth":false,"video_rgb":true,"video_depth":false}}
{"frame":12692,"timestamp":{"delta_seconds":0.05000000074505806,"elapsed_seconds":127.0862263161689},"control":{"throttle":0.0,"steer":0.5149999856948853,"brake":1.0,"hand_brake":false,"reverse":false,"manual_gear_shift":false,"gear":0},"transform":{"location":{"x":-64.64484405517578,"y":24.471010208129883,"z":0.0018776321085169911},"rotation":{"pitch":0.0,"yaw":0.15919795632362366,"roll":0.0}},"velocity":{"x":-1.4027902395241654e-08,"y":-3.250861979608999e-08,"z":7.534026735811494e-07},"angular_velocity":{"x":4.3158001062693074e-05,"y":-1.8470298527972773e-05,"z":3.0730518130184237e-10},"acceleration":{"x":-2.8055805501026043e-07,"y":-6.501724101326545e-07,"z":1.5068053471622989e-05},"speed_mps":7.54234168521873e-07,"speed_kph":2.7152430066787425e-06,"speed_limit_kph":30.0,"collisions_this_frame":[],"waypoint":{"x":-64.64469146728516,"y":24.504404067993164,"z":0.0},"lane_deviation_m":0.03344695270061493,"lane_width":3.5,"goal":{"x":65.23527526855469,"y":13.414804458618164,"z":0.5999999642372131},"fault":{"name":"traction_control_loss","severity":1.0},"capture_flags":{"save_rgb":true,"save_depth":false,"video_rgb":true,"video_depth":false}}
{"frame":12693,"timestamp":{"delta_seconds":0.05000000074505806,"elapsed_seconds":127.13622631691396},"control":{"throttle":0.0,"steer":0.5120000243186951,"brake":1.0,"hand_brake":false,"reverse":false,"manual_gear_shift":false,"gear":0},"transform":{"location":{"x":-64.64484405517578,"y":24.471010208129883,"z":0.0018776321085169911},"rotation":{"pitch":0.0,"yaw":0.15919795632362366,"roll":0.0}},"velocity":{"x":1.724370979339085e-09,"y":1.8651697963889546e-09,"z":2.136230477844947e-06},"angular_velocity":{"x":-3.847414063784527e-06,"y":2.2581536995858187e-06,"z":1.68780509568478e-08},"acceleration":{"x":3.1504549724559183e-07,"y":6.87475790073222e-07,"z":2.765655517578125e-05},"speed_mps":2.136231988054503e-06,"speed_kph":7.69043515699621e-06,"speed_limit_kph":30.0,"collisions_this_frame":[],"waypoint":{"x":-64.64469146728516,"y":24.504404067993164,"z":0.0},"lane_deviation_m":0.03344695270061493,"lane_width":3.5,"goal":{"x":65.23527526855469,"y":13.414804458618164,"z":0.5999999642372131},"fault":{"name":"traction_control_loss","severity":1.0},"capture_flags":{"save_rgb":true,"save_depth":false,"video_rgb":true,"video_depth":false}}
{"frame":12694,"timestamp":{"delta_seconds":0.05000000074505806,"elapsed_seconds":127.18622631765902},"control":{"throttle":0.0,"steer":0.503000020980835,"brake":1.0,"hand_brake":false,"reverse":false,"manual_gear_shift":false,"gear":0},"transform":{"location":{"x":-64.64484405517578,"y":24.471010208129883,"z":0.0018776321085169911},"rotation":{"pitch":0.0,"yaw":0.15919795632362366,"roll":0.0}},"velocity":{"x":5.829845939331335e-09,"y":6.119281525940323e-09,"z":1.5258788153005298e-06},"angular_velocity":{"x":-3.4078784665325657e-05,"y":2.8071863198420033e-06,"z":6.327097423763917e-08},"acceleration":{"x":8.210950142029105e-08,"y":8.508223459102737e-08,"z":-1.2207033250888344e-05},"speed_mps":1.5259022221928305e-06,"speed_kph":5.49324799989419e-06,"speed_limit_kph":30.0,"collisions_this_frame":[],"waypoint":{"x":-64.64469146728516,"y":24.504404067993164,"z":0.0},"lane_deviation_m":0.03344695270061493,"lane_width":3.5,"goal":{"x":65.23527526855469,"y":13.414804458618164,"z":0.5999999642372131},"fault":{"name":"traction_control_loss","severity":1.0},"capture_flags":{"save_rgb":true,"save_depth":false,"video_rgb":true,"video_depth":false}}
