{"frame":19152,"timestamp":{"delta_seconds":0.05000000074505806,"elapsed_seconds":181.76640835311264},"control":{"throttle":0.0,"steer":0.0,"brake":1.0,"hand_brake":false,"reverse":false,"manual_gear_shift":false,"gear":0},"transform":{"location":{"x":-87.6230239868164,"y":12.967159271240234,"z":0.48239994049072266},"rotation":{"pitch":0.0,"yaw":-179.84078979492188,"roll":0.0}},"velocity":{"x":0.0,"y":0.0,"z":-1.470000147819519},"angular_velocity":{"x":0.0,"y":0.0,"z":0.0},"acceleration":{"x":0.0,"y":0.0,"z":-9.80000114440918},"speed_mps":1.470000147819519,"speed_kph":5.2920005321502686,"speed_limit_kph":30.0,"collisions_this_frame":[],"waypoint":{"x":-87.62295532226562,"y":12.94051742553711,"z":0.0},"lane_deviation_m":0.48313507437705994,"lane_width":3.5,"goal":{"x":-18.782678604125977,"y":-64.70809173583984,"z":0.9000048637390137},"fault":{"name":"traction_control_loss","severity":1.0},"capture_flags":{"save_rgb":true,"save_depth":false,"video_rgb":true,"video_depth":false}}
{"frame":19153,"timestamp":{"delta_seconds":0.05000000074505806,"elapsed_seconds":181.8164083538577},"control":{"throttle":0.0,"steer":0.0,"brake":1.0,"hand_brake":false,"reverse":false,"manual_gear_shift":false,"gear":0},"transform":{"location":{"x":-87.6230239868164,"y":12.967159271240234,"z":0.394199937582016},"rotation":{"pitch":0.0,"yaw":-179.84078979492188,"roll":0.0}},"velocity":{"x":0.0,"y":0.0,"z":-1.9600002765655518},"angular_velocity":{"x":0.0,"y":0.0,"z":0.0},"acceleration":{"x":0.0,"y":0.0,"z":-9.800003051757812},"speed_mps":1.9600002765655518,"speed_kph":7.056000995635986,"speed_limit_kph":30.0,"collisions_this_frame":[],"waypoint":{"x":-87.62295532226562,"y":12.94051742553711,"z":0.0},"lane_deviation_m":0.3950991928577423,"lane_width":3.5,"goal":{"x":-18.782678604125977,"y":-64.70809173583984,"z":0.9000048637390137},"fault":{"name":"traction_control_loss","severity":1.0},"capture_flags":{"save_rgb":true,"save_depth":false,"video_rgb":true,"video_depth":false}}
{"frame":19154,"timestamp":{"delta_seconds":0.05000000074505806,"elapsed_seconds":181.86640835460275},"control":{"throttle":0.0,"steer":0.0,"brake":1.0,"hand_brake":false,"reverse":false,"manual_gear_shift":false,"gear":0},"transform":{"location":{"x":-87.6230239868164,"y":12.967159271240234,"z":0.281499981880188},"rotation":{"pitch":0.0,"yaw":-179.84078979492188,"roll":0.0}},"velocity":{"x":0.0,"y":0.0,"z":-2.450000286102295},"angular_velocity":{"x":0.0,"y":0.0,"z":0.0},"acceleration":{"x":0.0,"y":0.0,"z":-9.800000190734863},"speed_mps":2.450000286102295,"speed_kph":8.820001029968262,"speed_limit_kph":30.0,"collisions_this_frame":[],"waypoint":{"x":-87.62295532226562,"y":12.94051742553711,"z":0.0},"lane_deviation_m":0.2827579081058502,"lane_width":3.5,"goal":{"x":-18.782678604125977,"y":-64.70809173583984,"z":0.9000048637390137},"fault":{"name":"traction_control_loss","severity":1.0},"capture_flags":{"save_rgb":true,"save_depth":false,"video_rgb":true,"video_depth":false}}
{"frame":19155,"timestamp":{"delta_seconds":0.05000000074505806,"elapsed_seconds":181.9164083553478},"control":{"throttle":0.75,"steer":0.0,"brake":0.0,"hand_brake":false,"reverse":false,"manual_gear_shift":false,"gear":0},"transform":{"location":{"x":-87.6230239868164,"y":12.967159271240234,"z":0.14429987967014313},"rotation":{"pitch":0.0,"yaw":-179.84078979492188,"roll":0.0}},"velocity":{"x":0.0,"y":0.0,"z":-2.93999981880188},"angular_velocity":{"x":0.0,"y":0.0,"z":0.0},"acceleration":{"x":0.0,"y":0.0,"z":-9.7999906539917},"speed_mps":2.93999981880188,"speed_kph":10.583999347686769,"speed_limit_kph":30.0,"collisions_this_frame":[],"waypoint":{"x":-87.62295532226562,"y":12.94051742553711,"z":0.0},"lane_deviation_m":0.1467387080192566,"lane_width":3.5,"goal":{"x":-18.782678604125977,"y":-64.70809173583984,"z":0.9000048637390137},"fault":{"name":"traction_control_loss","severity":1.0},"capture_flags":{"save_rgb":true,"save_depth":false,"video_rgb":true,"video_depth":false}}
{"frame":19156,"timestamp":{"delta_seconds":0.05000000074505806,"elapsed_seconds":181.96640835609287},"control":{"throttle":0.0,"steer":0.0,"brake":1.0,"hand_brake":false,"reverse":false,"manual_gear_shift":false,"gear":0},"transform":{"location":{"x":-87.6231460571289,"y":12.964921951293945,"z":0.009860610589385033},"rotation":{"pitch":0.10385984927415848,"yaw":-179.7747039794922,"roll":-0.27181997895240784}},"velocity":{"x":0.025087803602218628,"y":-0.0073287286795675755,"z":-1.967410683631897},"angular_velocity":{"x":-9.892762184143066,"y":4.063372611999512,"z":1.6973363161087036},"acceleration":{"x":0.5017560720443726,"y":-0.14657457172870636,"z":19.4517822265625},"speed_mps":1.9675842818600098,"speed_kph":7.083303414696036,"speed_limit_kph":30.0,"collisions_this_frame":[],"waypoint":{"x":-87.62308502197266,"y":12.940515518188477,"z":0.0},"lane_deviation_m":0.026323171332478523,"lane_width":3.5,"goal":{"x":-18.782678604125977,"y":-64.70809173583984,"z":0.9000048637390137},"fault":{"name":"traction_control_loss","severity":1.0},"capture_flags":{"save_rgb":true,"save_depth":false,"video_rgb":true,"video_depth":false}}
{"frame":19157,"timestamp":{"delta_seconds":0.05000000074505806,"elapsed_seconds":182.01640835683793},"control":{"throttle":0.0,"steer":0.0,"brake":1.0,"hand_brake":false,"reverse":false,"manual_gear_shift":false,"gear":0},"transform":{"location":{"x":-87.62371063232422,"y":12.963232040405273,"z":-0.04620387777686119},"rotation":{"pitch":0.2766294777393341,"yaw":-179.73243713378906,"roll":-0.6037901639938354}},"velocity":{"x":0.00880208145827055,"y":0.009608513675630093,"z":-0.6603050827980042},"angular_velocity":{"x":-4.220658779144287,"y":2.627147912979126,"z":0.4981393814086914},"acceleration":{"x":-0.3257144093513489,"y":0.3387448489665985,"z":26.14211082458496},"speed_mps":0.6604336473423593,"speed_kph":2.3775611304324937,"speed_limit_kph":30.0,"collisions_this_frame":[],"waypoint":{"x":-87.62364959716797,"y":12.940515518188477,"z":0.0},"lane_deviation_m":0.05148633196949959,"lane_width":3.5,"goal":{"x":-18.782678604125977,"y":-64.70809173583984,"z":0.9000048637390137},"fault":{"name":"traction_control_loss","severity":1.0},"capture_flags":{"save_rgb":true,"save_depth":false,"video_rgb":true,"video_depth":false}}
{"frame":19158,"timestamp":{"delta_seconds":0.05000000074505806,"elapsed_seconds":182.066408357583},"control":{"throttle":0.0,"steer":0.0,"brake":1.0,"hand_brake":false,"reverse":false,"manual_gear_shift":false,"gear":0},"transform":{"location":{"x":-87.62348175048828,"y":12.964058876037598,"z":-0.058820076286792755},"rotation":{"pitch":0.26825565099716187,"yaw":-179.71920776367188,"roll":-0.5242918729782104}},"velocity":{"x":0.0006645662942901254,"y":-0.01268939021974802,"z":-0.053729347884655},"angular_velocity":{"x":1.847066879272461,"y":-1.0167386531829834,"z":0.0978432297706604},"acceleration":{"x":-0.16275030374526978,"y":-0.44595807790756226,"z":12.131514549255371},"speed_mps":0.055211458019317185,"speed_kph":0.19876124886954186,"speed_limit_kph":30.0,"collisions_this_frame":[],"waypoint":{"x":-87.62342071533203,"y":12.940515518188477,"z":0.0},"lane_deviation_m":0.06335688382387161,"lane_width":3.5,"goal":{"x":-18.782678604125977,"y":-64.70809173583984,"z":0.9000048637390137},"fault":{"name":"traction_control_loss","severity":1.0},"capture_flags":{"save_rgb":true,"save_depth":false,"video_rgb":true,"video_depth":false}}
{"frame":19159,"timestamp":{"delta_seconds":0.05000000074505806,"elapsed_seconds":182.11640835832804},"control":{"throttle":0.0,"steer":0.0,"brake":1.0,"hand_brake":false,"reverse":false,"manual_gear_shift":false,"gear":0},"transform":{"location":{"x":-87.6231918334961,"y":12.964444160461426,"z":-0.05442088842391968},"rotation":{"pitch":0.21887339651584625,"yaw":-179.7208251953125,"roll":-0.43167105317115784}},"velocity":{"x":-0.001999730011448264,"y":-0.0028643771074712276,"z":0.14493133127689362},"angular_velocity":{"x":1.9544248580932617,"y":-1.0102105140686035,"z":-0.10114498436450958},"acceleration":{"x":-0.05328592658042908,"y":0.1965002715587616,"z":3.9732134342193604},"speed_mps":0.14497342639954805,"speed_kph":0.521904335038373,"speed_limit_kph":30.0,"collisions_this_frame":[],"waypoint":{"x":-87.62313079833984,"y":12.940515518188477,"z":0.0},"lane_deviation_m":0.05944927781820297,"lane_width":3.5,"goal":{"x":-18.782678604125977,"y":-64.70809173583984,"z":0.9000048637390137},"fault":{"name":"traction_control_loss","severity":1.0},"capture_flags":{"save_rgb":true,"save_depth":false,"video_rgb":true,"video_depth":false}}
{"frame":19160,"timestamp":{"delta_seconds":0.05000000074505806,"elapsed_seconds":182.1664083590731},"control":{"throttle":0.0,"steer":0.0,"brake":1.0,"hand_brake":false,"reverse":false,"manual_gear_shift":false,"gear":0},"transform":{"location":{"x":-87.62294006347656,"y":12.965046882629395,"z":-0.04489299654960632},"rotation":{"pitch":0.1668137013912201,"yaw":-179.7273406982422,"roll":-0.3327941596508026}},"velocity":{"x":-0.0026892453897744417,"y":-0.000720391923096031,"z":0.19865672290325165},"angular_velocity":{"x":1.968743920326233,"y":-1.0299131870269775,"z":-0.15573857724666595},"acceleration":{"x":-0.013790307566523552,"y":0.042879700660705566,"z":1.0745078325271606},"speed_mps":0.19867623048555302,"speed_kph":0.7152344297479909,"speed_limit_kph":30.0,"collisions_this_frame":[],"waypoint":{"x":-87.62287139892578,"y":12.94051742553711,"z":0.0},"lane_deviation_m":0.05115740746259689,"lane_width":3.5,"goal":{"x":-18.782678604125977,"y":-64.70809173583984,"z":0.9000048637390137},"fault":{"name":"traction_control_loss","severity":1.0},"capture_flags":{"save_rgb":true,"save_depth":false,"video_rgb":true,"video_depth":false}}
{"frame":19161,"timestamp":{"delta_seconds":0.05000000074505806,"elapsed_seconds":182.21640835981816},"control":{"throttle":0.0,"steer":0.0,"brake":1.0,"hand_brake":false,"reverse":false,"manual_gear_shift":false,"gear":0},"transform":{"location":{"x":-87.62273406982422,"y":12.965655326843262,"z":-0.03474674001336098},"rotation":{"pitch":0.11898872256278992,"yaw":-179.7350311279297,"roll":-0.2437438815832138}},"velocity":{"x":-0.0025845172349363565,"y":0.0008760271011851728,"z":0.19161874055862427},"angular_velocity":{"x":1.6601660251617432,"y":-0.8853875994682312,"z":-0.15850718319416046},"acceleration":{"x":0.0020945630967617035,"y":0.03192837908864021,"z":-0.1407596468925476},"speed_mps":0.19163817178759834,"speed_kph":0.689897418435354,"speed_limit_kph":30.0,"collisions_this_frame":[],"waypoint":{"x":-87.62266540527344,"y":12.94051742553711,"z":0.0},"lane_deviation_m":0.042886532843112946,"lane_width":3.5,"goal":{"x":-18.782678604125977,"y":-64.70809173583984,"z":0.9000048637390137},"fault":{"name":"traction_control_loss","severity":1.0},"capture_flags":{"save_rgb":true,"save_depth":false,"video_rgb":true,"video_depth":false}}
{"frame":19162,"timestamp":{"delta_seconds":0.05000000074505806,"elapsed_seconds":182.26640836056322},"control":{"throttle":0.0,"steer":0.0,"brake":1.0,"hand_brake":false,"reverse":false,"manual_gear_shift":false,"gear":0},"transform":{"location":{"x":-87.62256622314453,"y":12.966208457946777,"z":-0.025760535150766373},"rotation":{"pitch":0.08114264160394669,"yaw":-179.7422332763672,"roll":-0.1741638034582138}},"velocity":{"x":-0.0021961291786283255,"y":0.002539262641221285,"z":0.16293922066688538},"angular_velocity":{"x":1.2391836643218994,"y":-0.6647558212280273,"z":-0.14248798787593842},"acceleration":{"x":0.007767761126160622,"y":0.03326471149921417,"z":-0.5735903978347778},"speed_mps":0.16297380301650413,"speed_kph":0.5867056908594149,"speed_limit_kph":30.0,"collisions_this_frame":[],"waypoint":{"x":-87.62249755859375,"y":12.94051742553711,"z":0.0},"lane_deviation_m":0.03638184815645218,"lane_width":3.5,"goal":{"x":-18.782678604125977,"y":-64.70809173583984,"z":0.9000048637390137},"fault":{"name":"traction_control_loss","severity":1.0},"capture_flags":{"save_rgb":true,"save_depth":false,"video_rgb":true,"video_depth":false}}
{"frame":19163,"timestamp":{"delta_seconds":0.05000000074505806,"elapsed_seconds":182.31640836130828},"control":{"throttle":0.0,"steer":0.0,"brake":1.0,"hand_brake":false,"reverse":false,"manual_gear_shift":false,"gear":0},"transform":{"location":{"x":-87.62246704101562,"y":12.966697692871094,"z":-0.018442992120981216},"rotation":{"pitch":0.05450490489602089,"yaw":-179.74859619140625,"roll":-0.1250305324792862}},"velocity":{"x":-0.0017559307161718607,"y":0.004012775607407093,"z":0.13007588684558868},"angular_velocity":{"x":0.8438125848770142,"y":-0.4474639296531677,"z":-0.12112925946712494},"acceleration":{"x":0.008803969249129295,"y":0.029470259323716164,"z":-0.6572666764259338},"speed_mps":0.13014961390423632,"speed_kph":0.46853861005525077,"speed_limit_kph":30.0,"collisions_this_frame":[],"waypoint":{"x":-87.62239837646484,"y":12.94051742553711,"z":0.0},"lane_deviation_m":0.03202429041266441,"lane_width":3.5,"goal":{"x":-18.782678604125977,"y":-64.70809173583984,"z":0.9000048637390137},"fault":{"name":"traction_control_loss","severity":1.0},"capture_flags":{"save_rgb":true,"save_depth":false,"video_rgb":true,"video_depth":false}}
{"frame":19164,"timestamp":{"delta_seconds":0.05000000074505806,"elapsed_seconds":182.36640836205333},"control":{"throttle":0.0,"steer":0.0,"brake":1.0,"hand_brake":false,"reverse":false,"manual_gear_shift":false,"gear":0},"transform":{"location":{"x":-87.62242126464844,"y":12.967130661010742,"z":-0.012753943912684917},"rotation":{"pitch":0.037702642381191254,"yaw":-179.75390625,"roll":-0.0933532565832138}},"velocity":{"x":-0.0013581897364929318,"y":0.005151613615453243,"z":0.10014905780553818},"angular_velocity":{"x":0.5235954523086548,"y":-0.2686513066291809,"z":-0.10025640577077866},"acceleration":{"x":0.00795481912791729,"y":0.022776760160923004,"z":-0.5985366106033325},"speed_mps":0.10029066547560778,"speed_kph":0.361046395712188,"speed_limit_kph":30.0,"collisions_this_frame":[],"waypoint":{"x":-87.62235260009766,"y":12.94051742553711,"z":0.0},"lane_deviation_m":0.02951155975461006,"lane_width":3.5,"goal":{"x":-18.782678604125977,"y":-64.70809173583984,"z":0.9000048637390137},"fault":{"name":"traction_control_loss","severity":1.0},"capture_flags":{"save_rgb":true,"save_depth":false,"video_rgb":true,"video_depth":false}}
{"frame":19165,"timestamp":{"delta_seconds":0.05000000074505806,"elapsed_seconds":182.4164083627984},"control":{"throttle":0.0,"steer":0.0,"brake":1.0,"hand_brake":false,"reverse":false,"manual_gear_shift":false,"gear":0},"transform":{"location":{"x":-87.62239837646484,"y":12.967520713806152,"z":-0.00845340732485056},"rotation":{"pitch":0.02850237861275673,"yaw":-179.75827026367188,"roll":-0.0751342624425888}},"velocity":{"x":-0.001031902153044939,"y":0.005937986075878143,"z":0.07542520016431808},"angular_velocity":{"x":0.28408291935920715,"y":-0.13559968769550323,"z":-0.08213251084089279},"acceleration":{"x":0.006525751668959856,"y":0.015727449208498,"z":-0.49447715282440186},"speed_mps":0.07566561517967213,"speed_kph":0.2723962146468197,"speed_limit_kph":30.0,"collisions_this_frame":[],"waypoint":{"x":-87.62232971191406,"y":12.94051742553711,"z":0.0},"lane_deviation_m":0.028295625001192093,"lane_width":3.5,"goal":{"x":-18.782678604125977,"y":-64.70809173583984,"z":0.9000048637390137},"fault":{"name":"traction_control_loss","severity":1.0},"capture_flags":{"save_rgb":true,"save_depth":false,"video_rgb":true,"video_depth":false}}
{"frame":19166,"timestamp":{"delta_seconds":0.05000000074505806,"elapsed_seconds":182.46640836354345},"control":{"throttle":0.75,"steer":0.0,"brake":0.0,"hand_brake":false,"reverse":false,"manual_gear_shift":false,"gear":0},"transform":{"location":{"x":-87.62242126464844,"y":12.967873573303223,"z":-0.005260162055492401},"rotation":{"pitch":0.024663811549544334,"yaw":-179.76190185546875,"roll":-0.066497802734375}},"velocity":{"x":-0.0007770645315758884,"y":0.006389473099261522,"z":0.05600255727767944},"angular_velocity":{"x":0.1187283992767334,"y":-0.04503943771123886,"z":-0.0671682134270668},"acceleration":{"x":0.005096752196550369,"y":0.00902974046766758,"z":-0.3884528577327728},"speed_mps":0.05637123040534229,"speed_kph":0.20293642945923224,"speed_limit_kph":30.0,"collisions_this_frame":[],"waypoint":{"x":-87.62234497070312,"y":12.94051742553711,"z":0.0},"lane_deviation_m":0.027857385575771332,"lane_width":3.5,"goal":{"x":-18.782678604125977,"y":-64.70809173583984,"z":0.9000048637390137},"fault":{"name":"traction_control_loss","severity":1.0},"capture_flags":{"save_rgb":true,"save_depth":false,"video_rgb":true,"video_depth":false}}
{"frame":19167,"timestamp":{"delta_seconds":0.05000000074505806,"elapsed_seconds":182.5164083642885},"control":{"throttle":0.75,"steer":0.0,"brake":0.0,"hand_brake":false,"reverse":false,"manual_gear_shift":false,"gear":0},"transform":{"location":{"x":-87.62246704101562,"y":12.968198776245117,"z":-0.0029164121951907873},"rotation":{"pitch":0.024322303012013435,"yaw":-179.76483154296875,"roll":-0.0643005296587944}},"velocity":{"x":-0.0005841834936290979,"y":0.006597381085157394,"z":0.041218351572752},"angular_velocity":{"x":0.010306565091013908,"y":0.0125717893242836,"z":-0.05523857846856117},"acceleration":{"x":0.003857620758935809,"y":0.004158159717917442,"z":-0.2956840991973877},"speed_mps":0.04174708629248284,"speed_kph":0.15028951065293822,"speed_limit_kph":30.0,"collisions_this_frame":[],"waypoint":{"x":-87.62239074707031,"y":12.94051742553711,"z":0.0},"lane_deviation_m":0.027834663167595863,"lane_width":3.5,"goal":{"x":-18.782678604125977,"y":-64.70809173583984,"z":0.9000048637390137},"fault":{"name":"traction_control_loss","severity":1.0},"capture_flags":{"save_rgb":true,"save_depth":false,"video_rgb":true,"video_depth":false}}
{"frame":19168,"timestamp":{"delta_seconds":0.05000000074505806,"elapsed_seconds":182.56640836503357},"control":{"throttle":0.75,"steer":0.0,"brake":0.0,"hand_brake":false,"reverse":false,"manual_gear_shift":false,"gear":0},"transform":{"location":{"x":-87.62248992919922,"y":12.968501091003418,"z":-0.0012093352852389216},"rotation":{"pitch":0.02610498107969761,"yaw":-179.76724243164062,"roll":-0.0661010816693306}},"velocity":{"x":-0.0004407772212289274,"y":0.00662406487390399,"z":0.03016728162765503},"angular_velocity":{"x":-0.05603358894586563,"y":0.04599746689200401,"z":-0.045881178230047226},"acceleration":{"x":0.0028681254480034113,"y":0.0005336757749319077,"z":-0.2210213989019394},"speed_mps":0.030889114600692193,"speed_kph":0.1112008125624919,"speed_limit_kph":30.0,"collisions_this_frame":[],"waypoint":{"x":-87.6224136352539,"y":12.94051742553711,"z":0.0},"lane_deviation_m":0.028009887784719467,"lane_width":3.5,"goal":{"x":-18.782678604125977,"y":-64.70809173583984,"z":0.9000048637390137},"fault":{"name":"traction_control_loss","severity":1.0},"capture_flags":{"save_rgb":true,"save_depth":false,"video_rgb":true,"video_depth":false}}
{"frame":19169,"timestamp":{"delta_seconds":0.05000000074505806,"elapsed_seconds":182.61640836577863},"control":{"throttle":0.75,"steer":0.0,"brake":0.0,"hand_brake":false,"reverse":false,"manual_gear_shift":false,"gear":0},"transform":{"location":{"x":-87.62250518798828,"y":12.968789100646973,"z":2.8190612283651717e-05},"rotation":{"pitch":0.029028302058577538,"yaw":-179.7693328857422,"roll":-0.0702209398150444}},"velocity":{"x":-0.00033532141242176294,"y":0.0065360525622963905,"z":0.022007256746292114},"angular_velocity":{"x":-0.09178242832422256,"y":0.06266327947378159,"z":-0.03859182074666023},"acceleration":{"x":0.0021091161761432886,"y":-0.0017602462321519852,"z":-0.1632004976272583},"speed_mps":0.022959785997346525,"speed_kph":0.0826552295904475,"speed_limit_kph":30.0,"collisions_this_frame":[],"waypoint":{"x":-87.62242889404297,"y":12.94051742553711,"z":0.0},"lane_deviation_m":0.028271792456507683,"lane_width":3.5,"goal":{"x":-18.782678604125977,"y":-64.70809173583984,"z":0.9000048637390137},"fault":{"name":"traction_control_loss","severity":1.0},"capture_flags":{"save_rgb":true,"save_depth":false,"video_rgb":true,"video_depth":false}}
{"frame":19170,"timestamp":{"delta_seconds":0.05000000074505806,"elapsed_seconds":182.66640836652368},"control":{"throttle":0.75,"steer":0.0,"brake":0.0,"hand_brake":false,"reverse":false,"manual_gear_shift":false,"gear":0},"transform":{"location":{"x":-87.6225357055664,"y":12.969063758850098,"z":0.0009226989350281656},"rotation":{"pitch":0.032416075468063354,"yaw":-179.77102661132812,"roll":-0.07543942332267761}},"velocity":{"x":-0.00025840013404376805,"y":0.006380850449204445,"z":0.01602376624941826},"angular_velocity":{"x":-0.10743287950754166,"y":0.06828252226114273,"z":-0.032939426600933075},"acceleration":{"x":0.001538425567559898,"y":-0.003104042261838913,"z":-0.11966980993747711},"speed_mps":0.01724943790099788,"speed_kph":0.06209797644359237,"speed_limit_kph":30.0,"collisions_this_frame":[],"waypoint":{"x":-87.6224594116211,"y":12.94051742553711,"z":0.0},"lane_deviation_m":0.028561342507600784,"lane_width":3.5,"goal":{"x":-18.782678604125977,"y":-64.70809173583984,"z":0.9000048637390137},"fault":{"name":"traction_control_loss","severity":1.0},"capture_flags":{"save_rgb":true,"save_depth":false,"video_rgb":true,"video_depth":false}}
{"frame":19171,"timestamp":{"delta_seconds":0.05000000074505806,"elapsed_seconds":182.71640836726874},"control":{"throttle":0.75,"steer":0.0,"brake":0.0,"hand_brake":false,"reverse":false,"manual_gear_shift":false,"gear":0},"transform":{"location":{"x":-87.62255859375,"y":12.969327926635742,"z":0.0015680694486945868},"rotation":{"pitch":0.0358789823949337,"yaw":-179.7725372314453,"roll":-0.0810241550207138}},"velocity":{"x":-0.0002024856221396476,"y":0.00618786970153451,"z":0.011660680174827576},"angular_velocity":{"x":-0.1098676323890686,"y":0.0671532154083252,"z":-0.028565116226673126},"acceleration":{"x":0.001118290238082409,"y":-0.0038596149533987045,"z":-0.08726172149181366},"speed_mps":0.013202355623522604,"speed_kph":0.04752848024468138,"speed_limit_kph":30.0,"collisions_this_frame":[],"waypoint":{"x":-87.62248229980469,"y":12.94051742553711,"z":0.0},"lane_deviation_m":0.028853243216872215,"lane_width":3.5,"goal":{"x":-18.782678604125977,"y":-64.70809173583984,"z":0.9000048637390137},"fault":{"name":"traction_control_loss","severity":1.0},"capture_flags":{"save_rgb":true,"save_depth":false,"video_rgb":true,"video_depth":false}}
{"frame":19172,"timestamp":{"delta_seconds":0.05000000074505806,"elapsed_seconds":182.7664083680138},"control":{"throttle":0.75,"steer":0.0,"brake":0.0,"hand_brake":false,"reverse":false,"manual_gear_shift":false,"gear":0},"transform":{"location":{"x":-87.62258911132812,"y":12.969583511352539,"z":0.0020333861466497183},"rotation":{"pitch":0.03914381191134453,"yaw":-179.7738800048828,"roll":-0.08645627647638321}},"velocity":{"x":-0.00016189961752388626,"y":0.00598595617339015,"z":0.008481387048959732},"angular_velocity":{"x":-0.10424886643886566,"y":0.062047503888607025,"z":-0.02516731061041355},"acceleration":{"x":0.0008117200923152268,"y":-0.004038270562887192,"z":-0.06358586251735687},"speed_mps":0.01038228342274299,"speed_kph":0.037376220321874765,"speed_limit_kph":30.0,"collisions_this_frame":[],"waypoint":{"x":-87.62251281738281,"y":12.94051742553711,"z":0.0},"lane_deviation_m":0.029137223958969116,"lane_width":3.5,"goal":{"x":-18.782678604125977,"y":-64.70809173583984,"z":0.9000048637390137},"fault":{"name":"traction_control_loss","severity":1.0},"capture_flags":{"save_rgb":true,"save_depth":false,"video_rgb":true,"video_depth":false}}
{"frame":19173,"timestamp":{"delta_seconds":0.05000000074505806,"elapsed_seconds":182.81640836875886},"control":{"throttle":0.75,"steer":0.0,"brake":0.0,"hand_brake":false,"reverse":false,"manual_gear_shift":false,"gear":0},"transform":{"location":{"x":-87.62260437011719,"y":12.969833374023438,"z":0.0023685453925281763},"rotation":{"pitch":0.042094454169273376,"yaw":-179.77505493164062,"roll":-0.09149166941642761}},"velocity":{"x":-0.0001325835328316316,"y":0.005787453148514032,"z":0.006173986010253429},"angular_velocity":{"x":-0.09532569348812103,"y":0.05534748733043671,"z":-0.022561820223927498},"acceleration":{"x":0.0005863216938450933,"y":-0.003970060497522354,"z":-0.04614802077412605},"speed_mps":0.008463468295812784,"speed_kph":0.030468485864926023,"speed_limit_kph":30.0,"collisions_this_frame":[],"waypoint":{"x":-87.62252807617188,"y":12.94051742553711,"z":0.0},"lane_deviation_m":0.029411572962999344,"lane_width":3.5,"goal":{"x":-18.782678604125977,"y":-64.70809173583984,"z":0.9000048637390137},"fault":{"name":"traction_control_loss","severity":1.0},"capture_flags":{"save_rgb":true,"save_depth":false,"video_rgb":true,"video_depth":false}}
{"frame":19174,"timestamp":{"delta_seconds":0.05000000074505806,"elapsed_seconds":182.86640836950392},"control":{"throttle":0.75,"steer":0.0,"brake":0.0,"hand_brake":false,"reverse":false,"manual_gear_shift":false,"gear":0},"transform":{"location":{"x":-87.62262725830078,"y":12.970077514648438,"z":0.0026098249945789576},"rotation":{"pitch":0.044676266610622406,"yaw":-179.77610778808594,"roll":-0.0959777683019638}},"velocity":{"x":-0.00011117473331978545,"y":0.005598902702331543,"z":0.004487170372158289},"angular_velocity":{"x":-0.08338543027639389,"y":0.04760745167732239,"z":-0.02050781436264515},"acceleration":{"x":0.0004281759902369231,"y":-0.003771008923649788,"z":-0.03373631089925766},"speed_mps":0.0071759855936504875,"speed_kph":0.025833548137141754,"speed_limit_kph":30.0,"collisions_this_frame":[],"waypoint":{"x":-87.62255096435547,"y":12.94051742553711,"z":0.0},"lane_deviation_m":0.02967517264187336,"lane_width":3.5,"goal":{"x":-18.782678604125977,"y":-64.70809173583984,"z":0.9000048637390137},"fault":{"name":"traction_control_loss","severity":1.0},"capture_flags":{"save_rgb":true,"save_depth":false,"video_rgb":true,"video_depth":false}}
{"frame":19175,"timestamp":{"delta_seconds":0.05000000074505806,"elapsed_seconds":182.91640837024897},"control":{"throttle":0.75,"steer":0.0,"brake":0.0,"hand_brake":false,"reverse":false,"manual_gear_shift":false,"gear":0},"transform":{"location":{"x":-87.62263488769531,"y":12.970319747924805,"z":0.0027835846412926912},"rotation":{"pitch":0.04686875641345978,"yaw":-179.7770538330078,"roll":-0.0998535081744194}},"velocity":{"x":-9.558320016367361e-05,"y":0.005425881128758192,"z":0.0032597507815808058},"angular_velocity":{"x":-0.07120345532894135,"y":0.040047790855169296,"z":-0.01891588792204857},"acceleration":{"x":0.00031183066312223673,"y":-0.003460431471467018,"z":-0.024548392742872238},"speed_mps":0.006330505298124667,"speed_kph":0.0227898190732488,"speed_limit_kph":30.0,"collisions_this_frame":[],"waypoint":{"x":-87.62255859375,"y":12.94051742553711,"z":0.0},"lane_deviation_m":0.029932133853435516,"lane_width":3.5,"goal":{"x":-18.782678604125977,"y":-64.70809173583984,"z":0.9000048637390137},"fault":{"name":"traction_control_loss","severity":1.0},"capture_flags":{"save_rgb":true,"save_depth":false,"video_rgb":true,"video_depth":false}}
{"frame":19176,"timestamp":{"delta_seconds":0.05000000074505806,"elapsed_seconds":182.96640837099403},"control":{"throttle":0.75,"steer":0.0,"brake":0.0,"hand_brake":false,"reverse":false,"manual_gear_shift":false,"gear":0},"transform":{"location":{"x":-87.64363861083984,"y":12.970476150512695,"z":0.0027350997552275658},"rotation":{"pitch":0.06927177309989929,"yaw":-179.78094482421875,"roll":-0.0992431640625}},"velocity":{"x":-0.7680693864822388,"y":0.0020070387981832027,"z":0.0035389421973377466},"angular_velocity":{"x":-0.2898516058921814,"y":0.7972958087921143,"z":-0.04708489403128624},"acceleration":{"x":-15.359476089477539,"y":-0.06837684661149979,"z":0.005583828315138817},"speed_mps":0.7680801616809383,"speed_kph":2.7650885820513778,"speed_limit_kph":30.0,"collisions_this_frame":[],"waypoint":{"x":-87.6435546875,"y":12.940460205078125,"z":0.0},"lane_deviation_m":0.03014041855931282,"lane_width":3.5,"goal":{"x":-18.782678604125977,"y":-64.70809173583984,"z":0.9000048637390137},"fault":{"name":"traction_control_loss","severity":1.0},"capture_flags":{"save_rgb":true,"save_depth":false,"video_rgb":true,"video_depth":false}}
{"frame":19177,"timestamp":{"delta_seconds":0.05000000074505806,"elapsed_seconds":183.0164083717391},"control":{"throttle":0.75,"steer":0.0,"brake":0.0,"hand_brake":false,"reverse":false,"manual_gear_shift":false,"gear":0},"transform":{"location":{"x":-87.70281219482422,"y":12.970053672790527,"z":0.003138122381642461},"rotation":{"pitch":0.1317543387413025,"yaw":-179.77984619140625,"roll":-0.1729125678539276}},"velocity":{"x":-1.3905186653137207,"y":0.006806234363466501,"z":0.02427470125257969},"angular_velocity":{"x":-2.187875747680664,"y":1.488527536392212,"z":0.1113237515091896},"acceleration":{"x":-12.448986053466797,"y":0.09598390758037567,"z":0.4147151708602905},"speed_mps":1.3907471892953671,"speed_kph":5.006689881463322,"speed_limit_kph":30.0,"collisions_this_frame":[],"waypoint":{"x":-87.7027359008789,"y":12.94029426574707,"z":0.0},"lane_deviation_m":0.029924502596259117,"lane_width":3.5,"goal":{"x":-18.782678604125977,"y":-64.70809173583984,"z":0.9000048637390137},"fault":{"name":"traction_control_loss","severity":1.0},"capture_flags":{"save_rgb":true,"save_depth":false,"video_rgb":true,"video_depth":false}}
{"frame":19178,"timestamp":{"delta_seconds":0.05000000074505806,"elapsed_seconds":183.06640837248415},"control":{"throttle":0.75,"steer":0.044397223740816116,"brake":0.0,"hand_brake":false,"reverse":false,"manual_gear_shift":false,"gear":0},"transform":{"location":{"x":-87.78932189941406,"y":12.969030380249023,"z":0.0035263823810964823},"rotation":{"pitch":0.17266033589839935,"yaw":-179.73178100585938,"roll":-0.2042236179113388}},"velocity":{"x":-1.9393876791000366,"y":-0.041165273636579514,"z":0.006475839298218489},"angular_velocity":{"x":-0.12712684273719788,"y":0.49972692131996155,"z":1.2973929643630981},"acceleration":{"x":-10.977380752563477,"y":-0.9594302177429199,"z":-0.35597723722457886},"speed_mps":1.9398353244781419,"speed_kph":6.983407168121311,"speed_limit_kph":30.0,"collisions_this_frame":[],"waypoint":{"x":-87.78924560546875,"y":12.940053939819336,"z":0.0},"lane_deviation_m":0.02919032797217369,"lane_width":3.5,"goal":{"x":-18.782678604125977,"y":-64.70809173583984,"z":0.9000048637390137},"fault":{"name":"traction_control_loss","severity":1.0},"capture_flags":{"save_rgb":true,"save_depth":false,"video_rgb":true,"video_depth":false}}
{"frame":19179,"timestamp":{"delta_seconds":0.05000000074505806,"elapsed_seconds":183.1164083732292},"control":{"throttle":0.75,"steer":0.044397223740816116,"brake":0.0,"hand_brake":false,"reverse":false,"manual_gear_shift":false,"gear":0},"transform":{"location":{"x":-87.89691925048828,"y":12.966410636901855,"z":0.0037927627563476562},"rotation":{"pitch":0.194271057844162,"yaw":-179.64324951171875,"roll":-0.2309875190258026}},"velocity":{"x":-2.2931482791900635,"y":-0.06690355390310287,"z":0.011199378408491611},"angular_velocity":{"x":-0.8693021535873413,"y":0.5052267909049988,"z":1.9666179418563843},"acceleration":{"x":-7.075212001800537,"y":-0.5147656202316284,"z":0.0944707840681076},"speed_mps":2.29415137729705,"speed_kph":8.25894495826938,"speed_limit_kph":30.0,"collisions_this_frame":[],"waypoint":{"x":-87.8968505859375,"y":12.939756393432617,"z":0.0},"lane_deviation_m":0.02692282386124134,"lane_width":3.5,"goal":{"x":-18.782678604125977,"y":-64.70809173583984,"z":0.9000048637390137},"fault":{"name":"traction_control_loss","severity":1.0},"capture_flags":{"save_rgb":true,"save_depth":false,"video_rgb":true,"video_depth":false}}
{"frame":19180,"timestamp":{"delta_seconds":0.05000000074505806,"elapsed_seconds":183.16640837397426},"control":{"throttle":0.75,"steer":0.02094179578125477,"brake":0.0,"hand_brake":false,"reverse":false,"manual_gear_shift":false,"gear":0},"transform":{"location":{"x":-88.02177429199219,"y":12.963781356811523,"z":0.004252471961081028},"rotation":{"pitch":0.21644185483455658,"yaw":-179.5677947998047,"roll":-0.26910400390625}},"velocity":{"x":-2.624999523162842,"y":-0.05350552499294281,"z":0.011619129218161106},"angular_velocity":{"x":-0.759522020816803,"y":0.3928579092025757,"z":1.4573934078216553},"acceleration":{"x":-6.637024879455566,"y":0.2679605782032013,"z":0.008395016193389893},"speed_mps":2.625570479338482,"speed_kph":9.452053725618535,"speed_limit_kph":30.0,"collisions_this_frame":[],"waypoint":{"x":-88.02171325683594,"y":12.939409255981445,"z":0.0},"lane_deviation_m":0.02474038116633892,"lane_width":3.5,"goal":{"x":-18.782678604125977,"y":-64.70809173583984,"z":0.9000048637390137},"fault":{"name":"traction_control_loss","severity":1.0},"capture_flags":{"save_rgb":true,"save_depth":false,"video_rgb":true,"video_depth":false}}
{"frame":19181,"timestamp":{"delta_seconds":0.05000000074505806,"elapsed_seconds":183.21640837471932},"control":{"throttle":0.75,"steer":0.02094179578125477,"brake":0.0,"hand_brake":false,"reverse":false,"manual_gear_shift":false,"gear":0},"transform":{"location":{"x":-88.16141510009766,"y":12.961898803710938,"z":0.0031665037386119366},"rotation":{"pitch":0.14674660563468933,"yaw":-179.49978637695312,"roll":-0.091552734375}},"velocity":{"x":-2.9168388843536377,"y":-0.09206514805555344,"z":-0.046620357781648636},"angular_velocity":{"x":4.183885097503662,"y":-1.8982738256454468,"z":1.312835454940796},"acceleration":{"x":-5.836787223815918,"y":-0.7711924314498901,"z":-1.1647896766662598},"speed_mps":2.9186638255413304,"speed_kph":10.50718977194879,"speed_limit_kph":30.0,"collisions_this_frame":[],"waypoint":{"x":-88.1613540649414,"y":12.939020156860352,"z":0.0},"lane_deviation_m":0.02309681661427021,"lane_width":3.5,"goal":{"x":-18.782678604125977,"y":-64.70809173583984,"z":0.9000048637390137},"fault":{"name":"traction_control_loss","severity":1.0},"capture_flags":{"save_rgb":true,"save_depth":false,"video_rgb":true,"video_depth":false}}
{"frame":19182,"timestamp":{"delta_seconds":0.05000000074505806,"elapsed_seconds":183.26640837546438},"control":{"throttle":0.75,"steer":0.028785716742277145,"brake":0.0,"hand_brake":false,"reverse":false,"manual_gear_shift":false,"gear":0},"transform":{"location":{"x":-88.31561279296875,"y":12.957964897155762,"z":0.0019449233077466488},"rotation":{"pitch":0.09328671544790268,"yaw":-179.4102020263672,"roll":-0.004943848121911287}},"velocity":{"x":-3.205717086791992,"y":-0.1032082810997963,"z":-0.022125372663140297},"angular_velocity":{"x":0.8098294734954834,"y":-0.6556617021560669,"z":1.973814845085144},"acceleration":{"x":-5.77756404876709,"y":-0.22286266088485718,"z":0.4898996949195862},"speed_mps":3.207454367867639,"speed_kph":11.5468357243235,"speed_limit_kph":30.0,"collisions_this_frame":[],"waypoint":{"x":-88.31555938720703,"y":12.938592910766602,"z":0.0},"lane_deviation_m":0.019469449296593666,"lane_width":3.5,"goal":{"x":-18.782678604125977,"y":-64.70809173583984,"z":0.9000048637390137},"fault":{"name":"traction_control_loss","severity":1.0},"capture_flags":{"save_rgb":true,"save_depth":false,"video_rgb":true,"video_depth":false}}
{"frame":19183,"timestamp":{"delta_seconds":0.05000000074505806,"elapsed_seconds":183.31640837620944},"control":{"throttle":0.75,"steer":0.028785716742277145,"brake":0.0,"hand_brake":false,"reverse":false,"manual_gear_shift":false,"gear":0},"transform":{"location":{"x":-88.48393249511719,"y":12.95344352722168,"z":0.0013607024447992444},"rotation":{"pitch":0.07515256851911545,"yaw":-179.30555725097656,"roll":0.01016281172633171}},"velocity":{"x":-3.4783902168273926,"y":-0.1071709617972374,"z":-0.009395494125783443},"angular_velocity":{"x":0.10636796802282333,"y":-0.22132985293865204,"z":2.167428731918335},"acceleration":{"x":-5.453462600708008,"y":-0.07925361394882202,"z":0.25459757447242737},"speed_mps":3.4800535040258973,"speed_kph":12.52819261449323,"speed_limit_kph":30.0,"collisions_this_frame":[],"waypoint":{"x":-88.48389434814453,"y":12.93812370300293,"z":0.0},"lane_deviation_m":0.01538018137216568,"lane_width":3.5,"goal":{"x":-18.782678604125977,"y":-64.70809173583984,"z":0.9000048637390137},"fault":{"name":"traction_control_loss","severity":1.0},"capture_flags":{"save_rgb":true,"save_depth":false,"video_rgb":true,"video_depth":false}}
{"frame":19184,"timestamp":{"delta_seconds":0.05000000074505806,"elapsed_seconds":183.3664083769545},"control":{"throttle":0.75,"steer":0.019629083573818207,"brake":0.0,"hand_brake":false,"reverse":false,"manual_gear_shift":false,"gear":0},"transform":{"location":{"x":-88.66598510742188,"y":12.948948860168457,"z":0.0011330413399264216},"rotation":{"pitch":0.06929226219654083,"yaw":-179.21719360351562,"roll":0.012073595076799393}},"velocity":{"x":-3.7471892833709717,"y":-0.10002783685922623,"z":-0.0030705356039106846},"angular_velocity":{"x":-0.007527338340878487,"y":-0.07237669080495834,"z":1.6560375690460205},"acceleration":{"x":-5.375981330871582,"y":0.1428624987602234,"z":0.12649917602539062},"speed_mps":3.748525379632088,"speed_kph":13.494691366675516,"speed_limit_kph":30.0,"collisions_this_frame":[],"waypoint":{"x":-88.6658935546875,"y":12.937617301940918,"z":0.0},"lane_deviation_m":0.011388431303203106,"lane_width":3.5,"goal":{"x":-18.782678604125977,"y":-64.70809173583984,"z":0.9000048637390137},"fault":{"name":"traction_control_loss","severity":1.0},"capture_flags":{"save_rgb":true,"save_depth":false,"video_rgb":true,"video_depth":false}}
{"frame":19185,"timestamp":{"delta_seconds":0.05000000074505806,"elapsed_seconds":183.41640837769955},"control":{"throttle":0.75,"steer":0.019629083573818207,"brake":0.0,"hand_brake":false,"reverse":false,"manual_gear_shift":false,"gear":0},"transform":{"location":{"x":-88.86083984375,"y":12.944214820861816,"z":0.0010903930524364114},"rotation":{"pitch":0.06699049472808838,"yaw":-179.13320922851562,"roll":0.009818552061915398}},"velocity":{"x":-3.99611496925354,"y":-0.10776860266923904,"z":-0.00015243529924191535},"angular_velocity":{"x":-0.05958137288689613,"y":-0.035996947437524796,"z":1.706600308418274},"acceleration":{"x":-4.978513717651367,"y":-0.15481531620025635,"z":0.05836200341582298},"speed_mps":3.997567878404321,"speed_kph":14.391244362255556,"speed_limit_kph":30.0,"collisions_this_frame":[],"waypoint":{"x":-88.86077880859375,"y":12.9370756149292,"z":0.0},"lane_deviation_m":0.007222253363579512,"lane_width":3.5,"goal":{"x":-18.782678604125977,"y":-64.70809173583984,"z":0.9000048637390137},"fault":{"name":"traction_control_loss","severity":1.0},"capture_flags":{"save_rgb":true,"save_depth":false,"video_rgb":true,"video_depth":false}}
{"frame":19186,"timestamp":{"delta_seconds":0.05000000074505806,"elapsed_seconds":183.4664083784446},"control":{"throttle":0.75,"steer":0.01755480095744133,"brake":0.0,"hand_brake":false,"reverse":false,"manual_gear_shift":false,"gear":0},"transform":{"location":{"x":-89.06785583496094,"y":12.939106941223145,"z":0.0011314010480418801},"rotation":{"pitch":0.06552883237600327,"yaw":-179.05166625976562,"roll":0.007106130942702293}},"velocity":{"x":-4.2356648445129395,"y":-0.11463796347379684,"z":0.0010235690278932452},"angular_velocity":{"x":-0.054812852293252945,"y":-0.027941003441810608,"z":1.6237523555755615},"acceleration":{"x":-4.790997505187988,"y":-0.137387216091156,"z":0.023520085960626602},"speed_mps":4.237216018260788,"speed_kph":15.253977665738836,"speed_limit_kph":30.0,"collisions_this_frame":[],"waypoint":{"x":-89.06783294677734,"y":12.936500549316406,"z":0.0},"lane_deviation_m":0.002841455861926079,"lane_width":3.5,"goal":{"x":-18.782678604125977,"y":-64.70809173583984,"z":0.9000048637390137},"fault":{"name":"traction_control_loss","severity":1.0},"capture_flags":{"save_rgb":true,"save_depth":false,"video_rgb":true,"video_depth":false}}
{"frame":19187,"timestamp":{"delta_seconds":0.05000000074505806,"elapsed_seconds":183.51640837918967},"control":{"throttle":0.75,"steer":0.01755480095744133,"brake":0.0,"hand_brake":false,"reverse":false,"manual_gear_shift":false,"gear":0},"transform":{"location":{"x":-89.28663635253906,"y":12.933515548706055,"z":0.0012020873837172985},"rotation":{"pitch":0.06422426551580429,"yaw":-178.9688720703125,"roll":0.0043443297035992146}},"velocity":{"x":-4.4683051109313965,"y":-0.12576861679553986,"z":0.0013456440065056086},"angular_velocity":{"x":-0.053584955632686615,"y":-0.026817986741662025,"z":1.6822428703308105},"acceleration":{"x":-4.652805328369141,"y":-0.22261306643486023,"z":0.006441499572247267},"speed_mps":4.470074956877579,"speed_kph":16.092269844759286,"speed_limit_kph":30.0,"collisions_this_frame":[],"waypoint":{"x":-89.28665161132812,"y":12.935893058776855,"z":0.0},"lane_deviation_m":0.0026641699951142073,"lane_width":3.5,"goal":{"x":-18.782678604125977,"y":-64.70809173583984,"z":0.9000048637390137},"fault":{"name":"traction_control_loss","severity":1.0},"capture_flags":{"save_rgb":true,"save_depth":false,"video_rgb":true,"video_depth":false}}
{"frame":19188,"timestamp":{"delta_seconds":0.05000000074505806,"elapsed_seconds":183.56640837993473},"control":{"throttle":0.75,"steer":0.05298212170600891,"brake":0.0,"hand_brake":false,"reverse":false,"manual_gear_shift":false,"gear":0},"transform":{"location":{"x":-89.5167236328125,"y":12.92528247833252,"z":0.0012769699096679688},"rotation":{"pitch":0.06283091008663177,"yaw":-178.7828826904297,"roll":-0.007568355184048414}},"velocity":{"x":-4.690764904022217,"y":-0.21618245542049408,"z":0.0012886904878541827},"angular_velocity":{"x":-0.24086271226406097,"y":-0.03246219456195831,"z":4.614882946014404},"acceleration":{"x":-4.449195861816406,"y":-1.8082767724990845,"z":-0.0011390703730285168},"speed_mps":4.6957440198078695,"speed_kph":16.90467847130833,"speed_limit_kph":30.0,"collisions_this_frame":[],"waypoint":{"x":-89.51680755615234,"y":12.935253143310547,"z":0.0},"lane_deviation_m":0.01005245465785265,"lane_width":3.5,"goal":{"x":-18.782678604125977,"y":-64.70809173583984,"z":0.9000048637390137},"fault":{"name":"traction_control_loss","severity":1.0},"capture_flags":{"save_rgb":true,"save_depth":false,"video_rgb":true,"video_depth":false}}
{"frame":19189,"timestamp":{"delta_seconds":0.05000000074505806,"elapsed_seconds":183.6164083806798},"control":{"throttle":0.75,"steer":0.05298212170600891,"brake":0.0,"hand_brake":false,"reverse":false,"manual_gear_shift":false,"gear":0},"transform":{"location":{"x":-89.75796508789062,"y":12.914384841918945,"z":0.0013428878737613559},"rotation":{"pitch":0.06155366078019142,"yaw":-178.5264434814453,"roll":-0.015777587890625}},"velocity":{"x":-4.913257122039795,"y":-0.2648025155067444,"z":0.0010856628650799394},"angular_velocity":{"x":-0.11651561409235,"y":-0.0270908884704113,"z":5.357676029205322},"acceleration":{"x":-4.4498443603515625,"y":-0.9724012017250061,"z":-0.004060552455484867},"speed_mps":4.920387901188008,"speed_kph":17.713396444276828,"speed_limit_kph":30.0,"collisions_this_frame":[],"waypoint":{"x":-89.7581558227539,"y":12.934581756591797,"z":0.0},"lane_deviation_m":0.02024240791797638,"lane_width":3.5,"goal":{"x":-18.782678604125977,"y":-64.70809173583984,"z":0.9000048637390137},"fault":{"name":"traction_control_loss","severity":1.0},"capture_flags":{"save_rgb":true,"save_depth":false,"video_rgb":true,"video_depth":false}}
{"frame":19190,"timestamp":{"delta_seconds":0.05000000074505806,"elapsed_seconds":183.66640838142484},"control":{"throttle":0.2940157353878021,"steer":0.04199230298399925,"brake":0.0,"hand_brake":false,"reverse":false,"manual_gear_shift":false,"gear":0},"transform":{"location":{"x":-90.00994110107422,"y":12.902278900146484,"z":0.0015797424130141735},"rotation":{"pitch":0.05983245372772217,"yaw":-178.28414916992188,"roll":-0.01617431640625}},"velocity":{"x":-5.114863872528076,"y":-0.27706828713417053,"z":0.00567673658952117},"angular_velocity":{"x":0.01704973168671131,"y":-0.04769454896450043,"z":4.664212226867676},"acceleration":{"x":-4.032135009765625,"y":-0.24531543254852295,"z":0.09182147681713104},"speed_mps":5.1223658104011545,"speed_kph":18.440516917444157,"speed_limit_kph":30.0,"collisions_this_frame":[],"waypoint":{"x":-90.01026153564453,"y":12.933881759643555,"z":0.0},"lane_deviation_m":0.03164394199848175,"lane_width":3.5,"goal":{"x":-18.782678604125977,"y":-64.70809173583984,"z":0.9000048637390137},"fault":{"name":"traction_control_loss","severity":1.0},"capture_flags":{"save_rgb":true,"save_depth":false,"video_rgb":true,"video_depth":false}}
{"frame":19191,"timestamp":{"delta_seconds":0.05000000074505806,"elapsed_seconds":183.7164083821699},"control":{"throttle":0.2940157353878021,"steer":0.04199230298399925,"brake":0.0,"hand_brake":false,"reverse":false,"manual_gear_shift":false,"gear":0},"transform":{"location":{"x":-90.2690200805664,"y":12.889232635498047,"z":0.0017746734665706754},"rotation":{"pitch":0.05444343388080597,"yaw":-178.03868103027344,"roll":-0.01577758975327015}},"velocity":{"x":-5.196826457977295,"y":-0.29812106490135193,"z":0.00204435340128839},"angular_velocity":{"x":-0.004383205436170101,"y":-0.17902304232120514,"z":7.065488815307617},"acceleration":{"x":-1.639251708984375,"y":-0.42105555534362793,"z":-0.07264766097068787},"speed_mps":5.205370840108472,"speed_kph":18.7393350243905,"speed_limit_kph":30.0,"collisions_this_frame":[],"waypoint":{"x":-90.26947784423828,"y":12.933161735534668,"z":0.0},"lane_deviation_m":0.043967314064502716,"lane_width":3.5,"goal":{"x":-18.782678604125977,"y":-64.70809173583984,"z":0.9000048637390137},"fault":{"name":"traction_control_loss","severity":1.0},"capture_flags":{"save_rgb":true,"save_depth":false,"video_rgb":true,"video_depth":false}}
{"frame":19192,"timestamp":{"delta_seconds":0.05000000074505806,"elapsed_seconds":183.76640838291496},"control":{"throttle":0.11035970598459244,"steer":0.08125538378953934,"brake":0.0,"hand_brake":false,"reverse":false,"manual_gear_shift":false,"gear":0},"transform":{"location":{"x":-90.52713775634766,"y":12.873767852783203,"z":0.0018981932662427425},"rotation":{"pitch":0.04178709536790848,"yaw":-177.74444580078125,"roll":-0.02316283993422985}},"velocity":{"x":-5.130585193634033,"y":-0.3710958659648895,"z":0.0004654311924241483},"angular_velocity":{"x":-0.1448315531015396,"y":-0.2931206226348877,"z":3.683790683746338},"acceleration":{"x":1.3248252868652344,"y":-1.459496021270752,"z":-0.03157844394445419},"speed_mps":5.14398841245771,"speed_kph":18.518358284847757,"speed_limit_kph":30.0,"collisions_this_frame":[],"waypoint":{"x":-90.52775573730469,"y":12.932443618774414,"z":0.0},"lane_deviation_m":0.05870971456170082,"lane_width":3.5,"goal":{"x":-18.782678604125977,"y":-64.70809173583984,"z":0.9000048637390137},"fault":{"name":"traction_control_loss","severity":1.0},"capture_flags":{"save_rgb":true,"save_depth":false,"video_rgb":true,"video_depth":false}}
{"frame":19193,"timestamp":{"delta_seconds":0.05000000074505806,"elapsed_seconds":183.81640838366002},"control":{"throttle":0.11035970598459244,"steer":0.08125538378953934,"brake":0.0,"hand_brake":false,"reverse":false,"manual_gear_shift":false,"gear":0},"transform":{"location":{"x":-90.78067016601562,"y":12.856040000915527,"z":0.0023027039133012295},"rotation":{"pitch":0.012376301921904087,"yaw":-177.2938690185547,"roll":-0.0614929161965847}},"velocity":{"x":-4.9963765144348145,"y":-0.4172336757183075,"z":0.022807396948337555},"angular_velocity":{"x":-3.254413604736328,"y":-1.9790819883346558,"z":13.585166931152344},"acceleration":{"x":2.684173583984375,"y":-0.9227561950683594,"z":0.4468393325805664},"speed_mps":5.013819142281137,"speed_kph":18.04974891221209,"speed_limit_kph":30.0,"collisions_this_frame":[],"waypoint":{"x":-90.76170349121094,"y":12.912306785583496,"z":0.0},"lane_deviation_m":0.059422120451927185,"lane_width":3.5,"goal":{"x":-18.782678604125977,"y":-64.70809173583984,"z":0.9000048637390137},"fault":{"name":"traction_control_loss","severity":1.0},"capture_flags":{"save_rgb":true,"save_depth":false,"video_rgb":true,"video_depth":false}}
{"frame":19194,"timestamp":{"delta_seconds":0.05000000074505806,"elapsed_seconds":183.86640838440508},"control":{"throttle":0.11035970598459244,"steer":0.09926716983318329,"brake":0.0,"hand_brake":false,"reverse":false,"manual_gear_shift":false,"gear":0},"transform":{"location":{"x":-91.0296859741211,"y":12.83532428741455,"z":0.0032627105247229338},"rotation":{"pitch":-0.034854453057050705,"yaw":-176.85470581054688,"roll":-0.12210079282522202}},"velocity":{"x":-5.003505229949951,"y":-0.49476131796836853,"z":0.00976516678929329},"angular_velocity":{"x":-0.22244729101657867,"y":-0.41509607434272766,"z":9.537230491638184},"acceleration":{"x":-0.14257431030273438,"y":-1.5505528450012207,"z":-0.2608445882797241},"speed_mps":5.027916935111073,"speed_kph":18.100500966399864,"speed_limit_kph":30.0,"collisions_this_frame":[],"waypoint":{"x":-90.98373413085938,"y":12.898306846618652,"z":0.0},"lane_deviation_m":0.07803217321634293,"lane_width":3.5,"goal":{"x":-18.782678604125977,"y":-64.70809173583984,"z":0.9000048637390137},"fault":{"name":"traction_control_loss","severity":1.0},"capture_flags":{"save_rgb":true,"save_depth":false,"video_rgb":true,"video_depth":false}}
{"frame":19195,"timestamp":{"delta_seconds":0.05000000074505806,"elapsed_seconds":183.91640838515013},"control":{"throttle":0.11035970598459244,"steer":0.09926716983318329,"brake":0.0,"hand_brake":false,"reverse":false,"manual_gear_shift":false,"gear":0},"transform":{"location":{"x":-91.27964782714844,"y":12.811851501464844,"z":0.0018051910446956754},"rotation":{"pitch":0.029923057183623314,"yaw":-176.3579864501953,"roll":0.016751572489738464}},"velocity":{"x":-4.9851837158203125,"y":-0.5842658281326294,"z":-0.03476116061210632},"angular_velocity":{"x":3.2164852619171143,"y":2.168487787246704,"z":10.370064735412598},"acceleration":{"x":0.36643028259277344,"y":-1.7900902032852173,"z":-0.890526533126831},"speed_mps":5.019425422963332,"speed_kph":18.069931522667996,"speed_limit_kph":30.0,"collisions_this_frame":[],"waypoint":{"x":-91.20655059814453,"y":12.880746841430664,"z":0.0},"lane_deviation_m":0.10046408325433731,"lane_width":3.5,"goal":{"x":-18.782678604125977,"y":-64.70809173583984,"z":0.9000048637390137},"fault":{"name":"traction_control_loss","severity":1.0},"capture_flags":{"save_rgb":true,"save_depth":false,"video_rgb":true,"video_depth":false}}
{"frame":19196,"timestamp":{"delta_seconds":0.05000000074505806,"elapsed_seconds":183.9664083858952},"control":{"throttle":0.10598470270633698,"steer":0.0922141745686531,"brake":0.0,"hand_brake":false,"reverse":false,"manual_gear_shift":false,"gear":0},"transform":{"location":{"x":-91.52825164794922,"y":12.784770011901855,"z":0.0005797576741315424},"rotation":{"pitch":0.06236645206809044,"yaw":-175.86021423339844,"roll":0.05186799168586731}},"velocity":{"x":-4.964727401733398,"y":-0.6186302900314331,"z":-0.01387692429125309},"angular_velocity":{"x":-0.02666180580854416,"y":0.17745909094810486,"z":9.752727508544922},"acceleration":{"x":0.40912628173828125,"y":-0.6872892379760742,"z":0.41768473386764526},"speed_mps":5.0031404315984,"speed_kph":18.01130555375424,"speed_limit_kph":30.0,"collisions_this_frame":[],"waypoint":{"x":-91.52881622314453,"y":12.84909439086914,"z":0.0},"lane_deviation_m":0.06432946771383286,"lane_width":3.5,"goal":{"x":-18.782678604125977,"y":-64.70809173583984,"z":0.9000048637390137},"fault":{"name":"traction_control_loss","severity":1.0},"capture_flags":{"save_rgb":true,"save_depth":false,"video_rgb":true,"video_depth":false}}
{"frame":19197,"timestamp":{"delta_seconds":0.05000000074505806,"elapsed_seconds":184.01640838664025},"control":{"throttle":0.10598470270633698,"steer":0.0922141745686531,"brake":0.0,"hand_brake":false,"reverse":false,"manual_gear_shift":false,"gear":0},"transform":{"location":{"x":-91.77633666992188,"y":12.755501747131348,"z":0.0002890777541324496},"rotation":{"pitch":0.05903332307934761,"yaw":-175.37991333007812,"roll":0.04047054797410965}},"velocity":{"x":-4.949849605560303,"y":-0.6539738178253174,"z":-0.002304239198565483},"angular_velocity":{"x":-0.2818266749382019,"y":-0.19713424146175385,"z":9.542362213134766},"acceleration":{"x":0.29755592346191406,"y":-0.7068705558776855,"z":0.23145370185375214},"speed_mps":4.9928647269463236,"speed_kph":17.974313017006764,"speed_limit_kph":30.0,"collisions_this_frame":[],"waypoint":{"x":-91.74967193603516,"y":12.823108673095703,"z":0.0},"lane_deviation_m":0.0726759061217308,"lane_width":3.5,"goal":{"x":-18.782678604125977,"y":-64.70809173583984,"z":0.9000048637390137},"fault":{"name":"traction_control_loss","severity":1.0},"capture_flags":{"save_rgb":true,"save_depth":false,"video_rgb":true,"video_depth":false}}
{"frame":19198,"timestamp":{"delta_seconds":0.05000000074505806,"elapsed_seconds":184.0664083873853},"control":{"throttle":0.1834801882505417,"steer":0.08167799562215805,"brake":0.0,"hand_brake":false,"reverse":false,"manual_gear_shift":false,"gear":0},"transform":{"location":{"x":-92.02320098876953,"y":12.725050926208496,"z":0.0004068374400958419},"rotation":{"pitch":0.047442492097616196,"yaw":-174.9374542236328,"roll":0.028231948614120483}},"velocity":{"x":-4.923420429229736,"y":-0.6662778258323669,"z":0.002584753092378378},"angular_velocity":{"x":-0.2153860181570053,"y":-0.26906105875968933,"z":8.590466499328613},"acceleration":{"x":0.5285835266113281,"y":-0.2460801601409912,"z":0.09777984768152237},"speed_mps":4.96829966337591,"speed_kph":17.885878788153274,"speed_limit_kph":30.0,"collisions_this_frame":[],"waypoint":{"x":-91.96918487548828,"y":12.793803215026855,"z":0.0},"lane_deviation_m":0.08743444830179214,"lane_width":3.5,"goal":{"x":-18.782678604125977,"y":-64.70809173583984,"z":0.9000048637390137},"fault":{"name":"traction_control_loss","severity":1.0},"capture_flags":{"save_rgb":true,"save_depth":false,"video_rgb":true,"video_depth":false}}
{"frame":19199,"timestamp":{"delta_seconds":0.05000000074505806,"elapsed_seconds":184.11640838813037},"control":{"throttle":0.1834801882505417,"steer":0.08167799562215805,"brake":0.0,"hand_brake":false,"reverse":false,"manual_gear_shift":false,"gear":0},"transform":{"location":{"x":-92.26859283447266,"y":12.693326950073242,"z":0.0006626892136409879},"rotation":{"pitch":0.03537354618310928,"yaw":-174.51492309570312,"roll":0.01670036092400551}},"velocity":{"x":-4.892696380615234,"y":-0.6938233971595764,"z":0.004157543182373047},"angular_velocity":{"x":-0.19933189451694489,"y":-0.2503731846809387,"z":8.393211364746094},"acceleration":{"x":0.6144809722900391,"y":-0.5509114265441895,"z":0.03145579993724823},"speed_mps":4.941648112168326,"speed_kph":17.789933203805973,"speed_limit_kph":30.0,"collisions_this_frame":[],"waypoint":{"x":-92.18707275390625,"y":12.761260986328125,"z":0.0},"lane_deviation_m":0.106117844581604,"lane_width":3.5,"goal":{"x":-18.782678604125977,"y":-64.70809173583984,"z":0.9000048637390137},"fault":{"name":"traction_control_loss","severity":1.0},"capture_flags":{"save_rgb":true,"save_depth":false,"video_rgb":true,"video_depth":false}}
{"frame":19200,"timestamp":{"delta_seconds":0.05000000074505806,"elapsed_seconds":184.16640838887542},"control":{"throttle":0.4502529799938202,"steer":0.0758306160569191,"brake":0.0,"hand_brake":false,"reverse":false,"manual_gear_shift":false,"gear":0},"transform":{"location":{"x":-92.51277160644531,"y":12.660409927368164,"z":0.0009339904645457864},"rotation":{"pitch":0.02543562278151512,"yaw":-174.1148223876953,"roll":0.008206261321902275}},"velocity":{"x":-4.876255512237549,"y":-0.7134777903556824,"z":0.004202289506793022},"angular_velocity":{"x":-0.13925373554229736,"y":-0.18724794685840607,"z":7.862208843231201},"acceleration":{"x":0.32881736755371094,"y":-0.39308786392211914,"z":0.0008949264883995056},"speed_mps":4.928177760308064,"speed_kph":17.741439937109032,"speed_limit_kph":30.0,"collisions_this_frame":[],"waypoint":{"x":-92.50228118896484,"y":12.70804500579834,"z":0.0},"lane_deviation_m":0.04878546670079231,"lane_width":3.5,"goal":{"x":-18.782678604125977,"y":-64.70809173583984,"z":0.9000048637390137},"fault":{"name":"traction_control_loss","severity":1.0},"capture_flags":{"save_rgb":true,"save_depth":false,"video_rgb":true,"video_depth":false}}
{"frame":19201,"timestamp":{"delta_seconds":0.05000000074505806,"elapsed_seconds":184.21640838962048},"control":{"throttle":0.4502529799938202,"steer":0.0758306160569191,"brake":0.0,"hand_brake":false,"reverse":false,"manual_gear_shift":false,"gear":0},"transform":{"location":{"x":-92.75727081298828,"y":12.625983238220215,"z":0.0011651611421257257},"rotation":{"pitch":0.019165510311722755,"yaw":-173.72389221191406,"roll":0.0007291788351722062}},"velocity":{"x":-4.896716117858887,"y":-0.7474804520606995,"z":0.003637342480942607},"angular_velocity":{"x":-0.1322084367275238,"y":-0.11092939972877502,"z":7.814784526824951},"acceleration":{"x":-0.4092121124267578,"y":-0.6800532341003418,"z":-0.011298940517008305},"speed_mps":4.9534401172692295,"speed_kph":17.832384422169227,"speed_limit_kph":30.0,"collisions_this_frame":[],"waypoint":{"x":-92.71795654296875,"y":12.667411804199219,"z":0.0},"lane_deviation_m":0.057125259190797806,"lane_width":3.5,"goal":{"x":-18.782678604125977,"y":-64.70809173583984,"z":0.9000048637390137},"fault":{"name":"traction_control_loss","severity":1.0},"capture_flags":{"save_rgb":true,"save_depth":false,"video_rgb":true,"video_depth":false}}
{"frame":19202,"timestamp":{"delta_seconds":0.05000000074505806,"elapsed_seconds":184.26640839036554},"control":{"throttle":0.3377355635166168,"steer":0.11396071314811707,"brake":0.0,"hand_brake":false,"reverse":false,"manual_gear_shift":false,"gear":0},"transform":{"location":{"x":-93.0028076171875,"y":12.58761215209961,"z":0.0013461303897202015},"rotation":{"pitch":0.015600151382386684,"yaw":-173.2282257080078,"roll":-0.01565551571547985}},"velocity":{"x":-4.9122443199157715,"y":-0.8663313984870911,"z":0.0029075811617076397},"angular_velocity":{"x":-0.3220544457435608,"y":-0.09549945592880249,"z":10.876331329345703},"acceleration":{"x":-0.3105640411376953,"y":-2.377018928527832,"z":-0.014595226384699345},"speed_mps":4.988054009789546,"speed_kph":17.956994435242365,"speed_limit_kph":30.0,"collisions_this_frame":[],"waypoint":{"x":-92.93453216552734,"y":12.623123168945312,"z":0.0},"lane_deviation_m":0.07697000354528427,"lane_width":3.5,"goal":{"x":-18.782678604125977,"y":-64.70809173583984,"z":0.9000048637390137},"fault":{"name":"traction_control_loss","severity":1.0},"capture_flags":{"save_rgb":true,"save_depth":false,"video_rgb":true,"video_depth":false}}
{"frame":19203,"timestamp":{"delta_seconds":0.05000000074505806,"elapsed_seconds":184.3164083911106},"control":{"throttle":0.3377355635166168,"steer":0.11396071314811707,"brake":0.0,"hand_brake":false,"reverse":false,"manual_gear_shift":false,"gear":0},"transform":{"location":{"x":-93.2494888305664,"y":12.545153617858887,"z":0.001618194510228932},"rotation":{"pitch":0.013346188701689243,"yaw":-172.6581573486328,"roll":-0.0285644493997097}},"velocity":{"x":-4.93552303314209,"y":-0.9424388408660889,"z":0.008282775990664959},"angular_velocity":{"x":-0.20523470640182495,"y":-0.06619203835725784,"z":11.618046760559082},"acceleration":{"x":-0.4655742645263672,"y":-1.522148847579956,"z":0.10750389844179153},"speed_mps":5.024703691147093,"speed_kph":18.088933288129535,"speed_limit_kph":30.0,"collisions_this_frame":[],"waypoint":{"x":-93.24764251708984,"y":12.552852630615234,"z":0.0},"lane_deviation_m":0.008080978877842426,"lane_width":3.5,"goal":{"x":-18.782678604125977,"y":-64.70809173583984,"z":0.9000048637390137},"fault":{"name":"traction_control_loss","severity":1.0},"capture_flags":{"save_rgb":true,"save_depth":false,"video_rgb":true,"video_depth":false}}
