{"frame":3433,"timestamp":{"delta_seconds":0.05000000074505806,"elapsed_seconds":37.543279089964926},"control":{"throttle":0.75,"steer":0.0,"brake":0.0,"hand_brake":false,"reverse":false,"manual_gear_shift":false,"gear":0},"transform":{"location":{"x":-64.64484405517578,"y":24.471010208129883,"z":0.48239994049072266},"rotation":{"pitch":0.0,"yaw":0.15919795632362366,"roll":0.0}},"velocity":{"x":0.0,"y":0.0,"z":-1.470000147819519},"angular_velocity":{"x":0.0,"y":0.0,"z":0.0},"acceleration":{"x":0.0,"y":0.0,"z":-9.80000114440918},"speed_mps":1.470000147819519,"speed_kph":5.2920005321502686,"speed_limit_kph":30.0,"collisions_this_frame":[],"waypoint":{"x":-64.64469146728516,"y":24.504404067993164,"z":0.0},"lane_deviation_m":0.4835544228553772,"lane_width":3.5,"goal":{"x":7.4111151695251465,"y":-60.89999771118164,"z":0.5999999642372131},"fault":{"name":"traction_control_loss","severity":1.0},"capture_flags":{"save_rgb":true,"save_depth":false,"video_rgb":true,"video_depth":false}}
{"frame":3434,"timestamp":{"delta_seconds":0.05000000074505806,"elapsed_seconds":37.593279090709984},"control":{"throttle":0.75,"steer":0.0,"brake":0.0,"hand_brake":false,"reverse":false,"manual_gear_shift":false,"gear":0},"transform":{"location":{"x":-64.64484405517578,"y":24.471010208129883,"z":0.394199937582016},"rotation":{"pitch":0.0,"yaw":0.15919795632362366,"roll":0.0}},"velocity":{"x":0.0,"y":0.0,"z":-1.9600002765655518},"angular_velocity":{"x":0.0,"y":0.0,"z":0.0},"acceleration":{"x":0.0,"y":0.0,"z":-9.800003051757812},"speed_mps":1.9600002765655518,"speed_kph":7.056000995635986,"speed_limit_kph":30.0,"collisions_this_frame":[],"waypoint":{"x":-64.64469146728516,"y":24.504404067993164,"z":0.0},"lane_deviation_m":0.39561188220977783,"lane_width":3.5,"goal":{"x":7.4111151695251465,"y":-60.89999771118164,"z":0.5999999642372131},"fault":{"name":"traction_control_loss","severity":1.0},"capture_flags":{"save_rgb":true,"save_depth":false,"video_rgb":true,"video_depth":false}}
{"frame":3435,"timestamp":{"delta_seconds":0.05000000074505806,"elapsed_seconds":37.64327909145504},"control":{"throttle":0.75,"steer":0.0,"brake":0.0,"hand_brake":false,"reverse":false,"manual_gear_shift":false,"gear":0},"transform":{"location":{"x":-64.64484405517578,"y":24.471010208129883,"z":0.28150004148483276},"rotation":{"pitch":0.0,"yaw":0.15919795632362366,"roll":0.0}},"velocity":{"x":0.0,"y":0.0,"z":-2.450000286102295},"angular_velocity":{"x":0.0,"y":0.0,"z":0.0},"acceleration":{"x":0.0,"y":0.0,"z":-9.800000190734863},"speed_mps":2.450000286102295,"speed_kph":8.820001029968262,"speed_limit_kph":30.0,"collisions_this_frame":[],"waypoint":{"x":-64.64469146728516,"y":24.504404067993164,"z":0.0},"lane_deviation_m":0.2834738790988922,"lane_width":3.5,"goal":{"x":7.4111151695251465,"y":-60.89999771118164,"z":0.5999999642372131},"fault":{"name":"traction_control_loss","severity":1.0},"capture_flags":{"save_rgb":true,"save_depth":false,"video_rgb":true,"video_depth":false}}
{"frame":3436,"timestamp":{"delta_seconds":0.05000000074505806,"elapsed_seconds":37.6932790922001},"control":{"throttle":0.75,"steer":0.0,"brake":0.0,"hand_brake":false,"reverse":false,"manual_gear_shift":false,"gear":0},"transform":{"location":{"x":-64.64484405517578,"y":24.471010208129883,"z":0.1442999690771103},"rotation":{"pitch":0.0,"yaw":0.15919795632362366,"roll":0.0}},"velocity":{"x":0.0,"y":0.0,"z":-2.93999981880188},"angular_velocity":{"x":0.0,"y":0.0,"z":0.0},"acceleration":{"x":0.0,"y":0.0,"z":-9.7999906539917},"speed_mps":2.93999981880188,"speed_kph":10.583999347686769,"speed_limit_kph":30.0,"collisions_this_frame":[],"waypoint":{"x":-64.64469146728516,"y":24.504404067993164,"z":0.0},"lane_deviation_m":0.1481136530637741,"lane_width":3.5,"goal":{"x":7.4111151695251465,"y":-60.89999771118164,"z":0.5999999642372131},"fault":{"name":"traction_control_loss","severity":1.0},"capture_flags":{"save_rgb":true,"save_depth":false,"video_rgb":true,"video_depth":false}}
{"frame":3437,"timestamp":{"delta_seconds":0.05000000074505806,"elapsed_seconds":37.74327909294516},"control":{"throttle":0.75,"steer":0.0,"brake":0.0,"hand_brake":false,"reverse":false,"manual_gear_shift":false,"gear":0},"transform":{"location":{"x":-64.64484405517578,"y":24.471010208129883,"z":0.008085555396974087},"rotation":{"pitch":0.0,"yaw":0.15919795632362366,"roll":0.0}},"velocity":{"x":-5.419469744083472e-07,"y":-8.412019269599114e-06,"z":-2.06459641456604},"angular_velocity":{"x":0.0008732697460800409,"y":-0.0008259261958301067,"z":-2.5191848607164502e-08},"acceleration":{"x":-1.0838939488166943e-05,"y":-0.00016824038175400347,"z":17.508068084716797},"speed_mps":2.064596414583248,"speed_kph":7.432547092499693,"speed_limit_kph":30.0,"collisions_this_frame":[],"waypoint":{"x":-64.64469146728516,"y":24.504404067993164,"z":0.0},"lane_deviation_m":0.034359123557806015,"lane_width":3.5,"goal":{"x":7.4111151695251465,"y":-60.89999771118164,"z":0.5999999642372131},"fault":{"name":"traction_control_loss","severity":1.0},"capture_flags":{"save_rgb":true,"save_depth":false,"video_rgb":true,"video_depth":false}}
{"frame":3438,"timestamp":{"delta_seconds":0.05000000074505806,"elapsed_seconds":37.79327909369022},"control":{"throttle":0.75,"steer":0.0,"brake":0.0,"hand_brake":false,"reverse":false,"manual_gear_shift":false,"gear":0},"transform":{"location":{"x":-64.64484405517578,"y":24.471010208129883,"z":-0.05158817023038864},"rotation":{"pitch":0.0,"yaw":0.15919795632362366,"roll":0.0}},"velocity":{"x":-1.7941823671208113e-07,"y":-1.4597358131140936e-06,"z":-0.7380887269973755},"angular_velocity":{"x":0.00017217978893313557,"y":-0.0002615972189232707,"z":2.631870721359064e-09},"acceleration":{"x":7.250574526551645e-06,"y":0.0001390456745866686,"z":26.530153274536133},"speed_mps":0.7380887269988408,"speed_kph":2.657119417195827,"speed_limit_kph":30.0,"collisions_this_frame":[],"waypoint":{"x":-64.64469146728516,"y":24.504404067993164,"z":0.0},"lane_deviation_m":0.061453334987163544,"lane_width":3.5,"goal":{"x":7.4111151695251465,"y":-60.89999771118164,"z":0.5999999642372131},"fault":{"name":"traction_control_loss","severity":1.0},"capture_flags":{"save_rgb":true,"save_depth":false,"video_rgb":true,"video_depth":false}}
{"frame":3439,"timestamp":{"delta_seconds":0.05000000074505806,"elapsed_seconds":37.843279094435275},"control":{"throttle":0.75,"steer":0.0,"brake":0.0,"hand_brake":false,"reverse":false,"manual_gear_shift":false,"gear":0},"transform":{"location":{"x":-64.64484405517578,"y":24.471010208129883,"z":-0.06773189455270767},"rotation":{"pitch":0.0,"yaw":0.15919795632362366,"roll":0.0}},"velocity":{"x":-3.280591798215937e-08,"y":1.2364070300918684e-07,"z":-0.1120968759059906},"angular_velocity":{"x":4.701039506471716e-05,"y":-4.777070353156887e-05,"z":-3.4607359200578003e-09},"acceleration":{"x":2.9322463888092898e-06,"y":3.166752867400646e-05,"z":12.51983642578125},"speed_mps":0.11209687590606358,"speed_kph":0.40354875326182893,"speed_limit_kph":30.0,"collisions_this_frame":[],"waypoint":{"x":-64.64469146728516,"y":24.504404067993164,"z":0.0},"lane_deviation_m":0.07551676779985428,"lane_width":3.5,"goal":{"x":7.4111151695251465,"y":-60.89999771118164,"z":0.5999999642372131},"fault":{"name":"traction_control_loss","severity":1.0},"capture_flags":{"save_rgb":true,"save_depth":false,"video_rgb":true,"video_depth":false}}
{"frame":3440,"timestamp":{"delta_seconds":0.05000000074505806,"elapsed_seconds":37.89327909518033},"control":{"throttle":0.75,"steer":0.0,"brake":0.0,"hand_brake":false,"reverse":false,"manual_gear_shift":false,"gear":0},"transform":{"location":{"x":-64.64484405517578,"y":24.471010208129883,"z":-0.06445319950580597},"rotation":{"pitch":0.0,"yaw":0.15919795632362366,"roll":0.0}},"velocity":{"x":5.457875928982503e-09,"y":8.52586623523166e-08,"z":0.15056157112121582},"angular_velocity":{"x":-4.805379285244271e-05,"y":7.451097189914435e-06,"z":3.2838367580723116e-09},"acceleration":{"x":7.652758426957007e-07,"y":-7.676408131374046e-07,"z":5.253169059753418},"speed_mps":0.15056157112124005,"speed_kph":0.5420216560364642,"speed_limit_kph":30.0,"collisions_this_frame":[],"waypoint":{"x":-64.64469146728516,"y":24.504404067993164,"z":0.0},"lane_deviation_m":0.07259055227041245,"lane_width":3.5,"goal":{"x":7.4111151695251465,"y":-60.89999771118164,"z":0.5999999642372131},"fault":{"name":"traction_control_loss","severity":1.0},"capture_flags":{"save_rgb":true,"save_depth":false,"video_rgb":true,"video_depth":false}}
{"frame":3441,"timestamp":{"delta_seconds":0.05000000074505806,"elapsed_seconds":37.94327909592539},"control":{"throttle":0.75,"steer":0.0,"brake":0.0,"hand_brake":false,"reverse":false,"manual_gear_shift":false,"gear":0},"transform":{"location":{"x":-64.64484405517578,"y":24.471010208129883,"z":-0.05396205931901932},"rotation":{"pitch":0.0,"yaw":0.15919795632362366,"roll":0.0}},"velocity":{"x":1.620716538752731e-08,"y":1.847302257829142e-07,"z":0.23337243497371674},"angular_velocity":{"x":-4.269638520781882e-05,"y":2.1952277165837586e-05,"z":5.017054549583122e-10},"acceleration":{"x":2.1498578917089617e-07,"y":1.989431211768533e-06,"z":1.656217336654663},"speed_mps":0.23337243497379043,"speed_kph":0.8401407659056456,"speed_limit_kph":30.0,"collisions_this_frame":[],"waypoint":{"x":-64.64469146728516,"y":24.504404067993164,"z":0.0},"lane_deviation_m":0.06345925480127335,"lane_width":3.5,"goal":{"x":7.4111151695251465,"y":-60.89999771118164,"z":0.5999999642372131},"fault":{"name":"traction_control_loss","severity":1.0},"capture_flags":{"save_rgb":true,"save_depth":false,"video_rgb":true,"video_depth":false}}
{"frame":3442,"timestamp":{"delta_seconds":0.05000000074505806,"elapsed_seconds":37.99327909667045},"control":{"throttle":0.75,"steer":0.0,"brake":0.0,"hand_brake":false,"reverse":false,"manual_gear_shift":false,"gear":0},"transform":{"location":{"x":-64.64484405517578,"y":24.471010208129883,"z":-0.04207824543118477},"rotation":{"pitch":0.0,"yaw":0.15919795632362366,"roll":0.0}},"velocity":{"x":2.3526395054318527e-08,"y":1.8543867552622828e-09,"z":0.23370592296123505},"angular_velocity":{"x":-1.3488269360095728e-05,"y":3.167600152664818e-05,"z":2.7403021518601633e-10},"acceleration":{"x":1.4638459333582432e-07,"y":-3.6575167996488744e-06,"z":0.006669759750366211},"speed_mps":0.23370592296123624,"speed_kph":0.8413413226604505,"speed_limit_kph":30.0,"collisions_this_frame":[],"waypoint":{"x":-64.64469146728516,"y":24.504404067993164,"z":0.0},"lane_deviation_m":0.05371919646859169,"lane_width":3.5,"goal":{"x":7.4111151695251465,"y":-60.89999771118164,"z":0.5999999642372131},"fault":{"name":"traction_control_loss","severity":1.0},"capture_flags":{"save_rgb":true,"save_depth":false,"video_rgb":true,"video_depth":false}}
{"frame":3443,"timestamp":{"delta_seconds":0.05000000074505806,"elapsed_seconds":38.04327909741551},"control":{"throttle":0.75,"steer":0.0,"brake":0.0,"hand_brake":false,"reverse":false,"manual_gear_shift":false,"gear":0},"transform":{"location":{"x":-64.63247680664062,"y":24.471046447753906,"z":-0.031377408653497696},"rotation":{"pitch":0.014541472308337688,"yaw":0.15892018377780914,"roll":-6.103515261202119e-05}},"velocity":{"x":0.6032189130783081,"y":0.0016932974103838205,"z":0.2014356553554535},"angular_velocity":{"x":0.0018380200490355492,"y":-0.6498922109603882,"z":0.0004675326053984463},"acceleration":{"x":12.06437873840332,"y":0.03386591002345085,"z":-0.6454053521156311},"speed_mps":0.6359656025289233,"speed_kph":2.289476169104124,"speed_limit_kph":30.0,"collisions_this_frame":[],"waypoint":{"x":-64.63232421875,"y":24.504438400268555,"z":0.0},"lane_deviation_m":0.045821256935596466,"lane_width":3.5,"goal":{"x":7.4111151695251465,"y":-60.89999771118164,"z":0.5999999642372131},"fault":{"name":"traction_control_loss","severity":1.0},"capture_flags":{"save_rgb":true,"save_depth":false,"video_rgb":true,"video_depth":false}}
{"frame":3444,"timestamp":{"delta_seconds":0.05000000074505806,"elapsed_seconds":38.093279098160565},"control":{"throttle":0.75,"steer":0.0,"brake":0.0,"hand_brake":false,"reverse":false,"manual_gear_shift":false,"gear":0},"transform":{"location":{"x":-64.58267974853516,"y":24.47118377685547,"z":-0.022708091884851456},"rotation":{"pitch":0.04654773697257042,"yaw":0.15889814496040344,"roll":-6.103514533606358e-05}},"velocity":{"x":1.2323728799819946,"y":0.0034191813319921494,"z":0.16076454520225525},"angular_velocity":{"x":0.0015348426532000303,"y":-0.5740026831626892,"z":0.0001668730255914852},"acceleration":{"x":12.58307933807373,"y":0.03451767936348915,"z":-0.8134222030639648},"speed_mps":1.242819313138553,"speed_kph":4.474149527298791,"speed_limit_kph":30.0,"collisions_this_frame":[],"waypoint":{"x":-64.58252716064453,"y":24.504575729370117,"z":0.0},"lane_deviation_m":0.04038196802139282,"lane_width":3.5,"goal":{"x":7.4111151695251465,"y":-60.89999771118164,"z":0.5999999642372131},"fault":{"name":"traction_control_loss","severity":1.0},"capture_flags":{"save_rgb":true,"save_depth":false,"video_rgb":true,"video_depth":false}}
{"frame":3445,"timestamp":{"delta_seconds":0.05000000074505806,"elapsed_seconds":38.14327909890562},"control":{"throttle":0.75,"steer":-0.004900086205452681,"brake":0.0,"hand_brake":false,"reverse":false,"manual_gear_shift":false,"gear":0},"transform":{"location":{"x":-64.50173950195312,"y":24.47124481201172,"z":-0.01599578745663166},"rotation":{"pitch":0.07300788909196854,"yaw":0.15123912692070007,"roll":0.0006382236606441438}},"velocity":{"x":1.7994524240493774,"y":-0.0005675661377608776,"z":0.12241841852664948},"angular_velocity":{"x":-0.010722344741225243,"y":-0.38303589820861816,"z":-0.198215514421463},"acceleration":{"x":11.341590881347656,"y":-0.07973495125770569,"z":-0.7669225335121155},"speed_mps":1.8036118256828622,"speed_kph":6.493002572458304,"speed_limit_kph":30.0,"collisions_this_frame":[],"waypoint":{"x":-64.50159454345703,"y":24.50480079650879,"z":0.0},"lane_deviation_m":0.037173785269260406,"lane_width":3.5,"goal":{"x":7.4111151695251465,"y":-60.89999771118164,"z":0.5999999642372131},"fault":{"name":"traction_control_loss","severity":1.0},"capture_flags":{"save_rgb":true,"save_depth":false,"video_rgb":true,"video_depth":false}}
{"frame":3446,"timestamp":{"delta_seconds":0.05000000074505806,"elapsed_seconds":38.19327909965068},"control":{"throttle":0.75,"steer":-0.004900086205452681,"brake":0.0,"hand_brake":false,"reverse":false,"manual_gear_shift":false,"gear":0},"transform":{"location":{"x":-64.39679718017578,"y":24.471256256103516,"z":-0.010952605865895748},"rotation":{"pitch":0.08780207484960556,"yaw":0.13971194624900818,"roll":0.0009818304097279906}},"velocity":{"x":2.2458324432373047,"y":-0.0014002269599586725,"z":0.09030754119157791},"angular_velocity":{"x":-0.0031862310133874416,"y":-0.1834755688905716,"z":-0.24492822587490082},"acceleration":{"x":8.927600860595703,"y":-0.016653217375278473,"z":-0.6422175168991089},"speed_mps":2.2476478317852306,"speed_kph":8.091532194426831,"speed_limit_kph":30.0,"collisions_this_frame":[],"waypoint":{"x":-64.39665985107422,"y":24.50509262084961,"z":0.0},"lane_deviation_m":0.035565122961997986,"lane_width":3.5,"goal":{"x":7.4111151695251465,"y":-60.89999771118164,"z":0.5999999642372131},"fault":{"name":"traction_control_loss","severity":1.0},"capture_flags":{"save_rgb":true,"save_depth":false,"video_rgb":true,"video_depth":false}}
{"frame":3447,"timestamp":{"delta_seconds":0.05000000074505806,"elapsed_seconds":38.24327910039574},"control":{"throttle":0.75,"steer":-0.00466381199657917,"brake":0.0,"hand_brake":false,"reverse":false,"manual_gear_shift":false,"gear":0},"transform":{"location":{"x":-64.27452087402344,"y":24.471248626708984,"z":-0.007242698688060045},"rotation":{"pitch":0.09168845415115356,"yaw":0.12680502235889435,"roll":0.001049434649758041}},"velocity":{"x":2.5757997035980225,"y":-0.001988006057217717,"z":0.06511157751083374},"angular_velocity":{"x":-0.0010106792906299233,"y":-0.027401603758335114,"z":-0.26400551199913025},"acceleration":{"x":6.5993452072143555,"y":-0.011755581945180893,"z":-0.503919243812561},"speed_mps":2.576623290810997,"speed_kph":9.27584384691959,"speed_limit_kph":30.0,"collisions_this_frame":[],"waypoint":{"x":-64.27438354492188,"y":24.50543212890625,"z":0.0},"lane_deviation_m":0.0349426306784153,"lane_width":3.5,"goal":{"x":7.4111151695251465,"y":-60.89999771118164,"z":0.5999999642372131},"fault":{"name":"traction_control_loss","severity":1.0},"capture_flags":{"save_rgb":true,"save_depth":false,"video_rgb":true,"video_depth":false}}
{"frame":3448,"timestamp":{"delta_seconds":0.05000000074505806,"elapsed_seconds":38.2932791011408},"control":{"throttle":0.75,"steer":-0.00466381199657917,"brake":0.0,"hand_brake":false,"reverse":false,"manual_gear_shift":false,"gear":0},"transform":{"location":{"x":-64.13687133789062,"y":24.47121238708496,"z":-0.0045722960494458675},"rotation":{"pitch":0.09051366150379181,"yaw":0.11247653514146805,"roll":0.0010604026028886437}},"velocity":{"x":2.869091749191284,"y":-0.002685612766072154,"z":0.04613582417368889},"angular_velocity":{"x":0.0002059066027868539,"y":0.048784300684928894,"z":-0.2954380512237549},"acceleration":{"x":5.865840911865234,"y":-0.013952134177088737,"z":-0.37951505184173584},"speed_mps":2.8694639206767554,"speed_kph":10.33007011443632,"speed_limit_kph":30.0,"collisions_this_frame":[],"waypoint":{"x":-64.1367416381836,"y":24.505815505981445,"z":0.0},"lane_deviation_m":0.03490413352847099,"lane_width":3.5,"goal":{"x":7.4111151695251465,"y":-60.89999771118164,"z":0.5999999642372131},"fault":{"name":"traction_control_loss","severity":1.0},"capture_flags":{"save_rgb":true,"save_depth":false,"video_rgb":true,"video_depth":false}}
{"frame":3449,"timestamp":{"delta_seconds":0.05000000074505806,"elapsed_seconds":38.343279101885855},"control":{"throttle":0.75,"steer":0.004181419964879751,"brake":0.0,"hand_brake":false,"reverse":false,"manual_gear_shift":false,"gear":0},"transform":{"location":{"x":-63.98469924926758,"y":24.47157096862793,"z":-0.0026823042426258326},"rotation":{"pitch":0.0874810591340065,"yaw":0.11738081276416779,"roll":-0.000823974609375}},"velocity":{"x":3.1587727069854736,"y":0.011599602177739143,"z":0.032250192016363144},"angular_velocity":{"x":0.03437177091836929,"y":0.06443525105714798,"z":0.22734291851520538},"acceleration":{"x":5.793619155883789,"y":0.2857043147087097,"z":-0.2777126431465149},"speed_mps":3.15895863221602,"speed_kph":11.372251075977672,"speed_limit_kph":30.0,"collisions_this_frame":[],"waypoint":{"x":-63.97380065917969,"y":24.505924224853516,"z":0.0},"lane_deviation_m":0.036140285432338715,"lane_width":3.5,"goal":{"x":7.4111151695251465,"y":-60.89999771118164,"z":0.5999999642372131},"fault":{"name":"traction_control_loss","severity":1.0},"capture_flags":{"save_rgb":true,"save_depth":false,"video_rgb":true,"video_depth":false}}
{"frame":3450,"timestamp":{"delta_seconds":0.05000000074505806,"elapsed_seconds":38.39327910263091},"control":{"throttle":0.75,"steer":0.004181419964879751,"brake":0.0,"hand_brake":false,"reverse":false,"manual_gear_shift":false,"gear":0},"transform":{"location":{"x":-63.81857681274414,"y":24.472219467163086,"z":-0.0013616943033412099},"rotation":{"pitch":0.08401815593242645,"yaw":0.13154670596122742,"roll":-0.0017700191820040345}},"velocity":{"x":3.432621955871582,"y":0.01598482020199299,"z":0.02229650504887104},"angular_velocity":{"x":0.010339162312448025,"y":0.0704319030046463,"z":0.3064482808113098},"acceleration":{"x":5.476984977722168,"y":0.0877043604850769,"z":-0.19907373189926147},"speed_mps":3.432731585857818,"speed_kph":12.357833709088144,"speed_limit_kph":30.0,"collisions_this_frame":[],"waypoint":{"x":-63.790061950683594,"y":24.504375457763672,"z":0.0},"lane_deviation_m":0.04299952834844589,"lane_width":3.5,"goal":{"x":7.4111151695251465,"y":-60.89999771118164,"z":0.5999999642372131},"fault":{"name":"traction_control_loss","severity":1.0},"capture_flags":{"save_rgb":true,"save_depth":false,"video_rgb":true,"video_depth":false}}
{"frame":3451,"timestamp":{"delta_seconds":0.05000000074505806,"elapsed_seconds":38.44327910337597},"control":{"throttle":0.75,"steer":0.00604682182893157,"brake":0.0,"hand_brake":false,"reverse":false,"manual_gear_shift":false,"gear":0},"transform":{"location":{"x":-63.63878631591797,"y":24.473114013671875,"z":-0.00044807433732785285},"rotation":{"pitch":0.08070550858974457,"yaw":0.15285976231098175,"roll":-0.002410888671875}},"velocity":{"x":3.7020678520202637,"y":0.022529732435941696,"z":0.015276269987225533},"angular_velocity":{"x":0.009202506393194199,"y":0.06612253934144974,"z":0.46823105216026306},"acceleration":{"x":5.388917922973633,"y":0.13089823722839355,"z":-0.14040470123291016},"speed_mps":3.7021679235591525,"speed_kph":13.327804524812949,"speed_limit_kph":30.0,"collisions_this_frame":[],"waypoint":{"x":-63.59123229980469,"y":24.500612258911133,"z":0.0},"lane_deviation_m":0.05493394657969475,"lane_width":3.5,"goal":{"x":7.4111151695251465,"y":-60.89999771118164,"z":0.5999999642372131},"fault":{"name":"traction_control_loss","severity":1.0},"capture_flags":{"save_rgb":true,"save_depth":false,"video_rgb":true,"video_depth":false}}
{"frame":3452,"timestamp":{"delta_seconds":0.05000000074505806,"elapsed_seconds":38.49327910412103},"control":{"throttle":0.75,"steer":0.00604682182893157,"brake":0.0,"hand_brake":false,"reverse":false,"manual_gear_shift":false,"gear":0},"transform":{"location":{"x":-63.44618606567383,"y":24.474212646484375,"z":0.00018203734362032264},"rotation":{"pitch":0.0772494375705719,"yaw":0.17787304520606995,"roll":-0.0026245114859193563}},"velocity":{"x":3.951835870742798,"y":0.026350460946559906,"z":0.01038562785834074},"angular_velocity":{"x":0.0010607705917209387,"y":0.06965245306491852,"z":0.5170425176620483},"acceleration":{"x":4.995360374450684,"y":0.0764145702123642,"z":-0.09781284630298615},"speed_mps":3.951937367589167,"speed_kph":14.226974523321003,"speed_limit_kph":30.0,"collisions_this_frame":[],"waypoint":{"x":-63.44612121582031,"y":24.507734298706055,"z":0.0},"lane_deviation_m":0.03352221101522446,"lane_width":3.5,"goal":{"x":7.4111151695251465,"y":-60.89999771118164,"z":0.5999999642372131},"fault":{"name":"traction_control_loss","severity":1.0},"capture_flags":{"save_rgb":true,"save_depth":false,"video_rgb":true,"video_depth":false}}
{"frame":3453,"timestamp":{"delta_seconds":0.05000000074505806,"elapsed_seconds":38.54327910486609},"control":{"throttle":0.75,"steer":-0.012777484022080898,"brake":0.0,"hand_brake":false,"reverse":false,"manual_gear_shift":false,"gear":0},"transform":{"location":{"x":-63.24138641357422,"y":24.47433853149414,"z":0.000615348806604743},"rotation":{"pitch":0.07381384819746017,"yaw":0.14995160698890686,"roll":0.002448650309816003}},"velocity":{"x":4.19182825088501,"y":-0.010920964181423187,"z":0.007015342358499765},"angular_velocity":{"x":-0.09528878331184387,"y":0.06701193004846573,"z":-0.9280269145965576},"acceleration":{"x":4.799847602844238,"y":-0.7454285025596619,"z":-0.06740570813417435},"speed_mps":4.1918483473766965,"speed_kph":15.090654050556108,"speed_limit_kph":30.0,"collisions_this_frame":[],"waypoint":{"x":-63.241329193115234,"y":24.508302688598633,"z":0.0},"lane_deviation_m":0.033969778567552567,"lane_width":3.5,"goal":{"x":7.4111151695251465,"y":-60.89999771118164,"z":0.5999999642372131},"fault":{"name":"traction_control_loss","severity":1.0},"capture_flags":{"save_rgb":true,"save_depth":false,"video_rgb":true,"video_depth":false}}
{"frame":3454,"timestamp":{"delta_seconds":0.05000000074505806,"elapsed_seconds":38.593279105611145},"control":{"throttle":0.75,"steer":-0.012777484022080898,"brake":0.0,"hand_brake":false,"reverse":false,"manual_gear_shift":false,"gear":0},"transform":{"location":{"x":-63.02479934692383,"y":24.473697662353516,"z":0.0009122848277911544},"rotation":{"pitch":0.0706309825181961,"yaw":0.09465022385120392,"roll":0.0052550602704286575}},"velocity":{"x":4.42518424987793,"y":-0.023056626319885254,"z":0.0047145746648311615},"angular_velocity":{"x":-0.03402085229754448,"y":0.06079757958650589,"z":-1.1782865524291992},"acceleration":{"x":4.667119979858398,"y":-0.24271324276924133,"z":-0.04601535201072693},"speed_mps":4.42524682708199,"speed_kph":15.930888577495164,"speed_limit_kph":30.0,"collisions_this_frame":[],"waypoint":{"x":-63.024742126464844,"y":24.5089054107666,"z":0.0},"lane_deviation_m":0.03521961346268654,"lane_width":3.5,"goal":{"x":7.4111151695251465,"y":-60.89999771118164,"z":0.5999999642372131},"fault":{"name":"traction_control_loss","severity":1.0},"capture_flags":{"save_rgb":true,"save_depth":false,"video_rgb":true,"video_depth":false}}
{"frame":3455,"timestamp":{"delta_seconds":0.05000000074505806,"elapsed_seconds":38.643279106356204},"control":{"throttle":0.75,"steer":-0.001845738384872675,"brake":0.0,"hand_brake":false,"reverse":false,"manual_gear_shift":false,"gear":0},"transform":{"location":{"x":-62.79668426513672,"y":24.473356246948242,"z":0.001115074148401618},"rotation":{"pitch":0.06782377511262894,"yaw":0.06641291081905365,"roll":0.0029355117585510015}},"velocity":{"x":4.65402364730835,"y":-0.005593773443251848,"z":0.003148784628137946},"angular_velocity":{"x":0.05206433683633804,"y":0.05281239375472069,"z":-0.35010555386543274},"acceleration":{"x":4.576787948608398,"y":0.34925705194473267,"z":-0.03131579980254173},"speed_mps":4.654028074136563,"speed_kph":16.754501066891628,"speed_limit_kph":30.0,"collisions_this_frame":[],"waypoint":{"x":-62.776607513427734,"y":24.508275985717773,"z":0.0},"lane_deviation_m":0.040295254439115524,"lane_width":3.5,"goal":{"x":7.4111151695251465,"y":-60.89999771118164,"z":0.5999999642372131},"fault":{"name":"traction_control_loss","severity":1.0},"capture_flags":{"save_rgb":true,"save_depth":false,"video_rgb":true,"video_depth":false}}
{"frame":3456,"timestamp":{"delta_seconds":0.05000000074505806,"elapsed_seconds":38.69327910710126},"control":{"throttle":0.75,"steer":-0.001845738384872675,"brake":0.0,"hand_brake":false,"reverse":false,"manual_gear_shift":false,"gear":0},"transform":{"location":{"x":-62.55683135986328,"y":24.47354507446289,"z":0.0024359130766242743},"rotation":{"pitch":0.12681610882282257,"yaw":0.050037484616041183,"roll":-0.139068603515625}},"velocity":{"x":4.878660202026367,"y":-0.024709055200219154,"z":0.02137606590986252},"angular_velocity":{"x":0.883148193359375,"y":-0.5434133410453796,"z":-0.4409509003162384},"acceleration":{"x":4.492731094360352,"y":-0.38230565190315247,"z":0.364545613527298},"speed_mps":4.87876960313137,"speed_kph":17.563570571272933,"speed_limit_kph":30.0,"collisions_this_frame":[],"waypoint":{"x":-62.514041900634766,"y":24.50429344177246,"z":0.0},"lane_deviation_m":0.052747830748558044,"lane_width":3.5,"goal":{"x":7.4111151695251465,"y":-60.89999771118164,"z":0.5999999642372131},"fault":{"name":"traction_control_loss","severity":1.0},"capture_flags":{"save_rgb":true,"save_depth":false,"video_rgb":true,"video_depth":false}}
{"frame":3457,"timestamp":{"delta_seconds":0.05000000074505806,"elapsed_seconds":38.74327910784632},"control":{"throttle":0.4884481728076935,"steer":-0.002668108558282256,"brake":0.0,"hand_brake":false,"reverse":false,"manual_gear_shift":false,"gear":0},"transform":{"location":{"x":-62.30651092529297,"y":24.47268295288086,"z":0.0031473541166633368},"rotation":{"pitch":0.13650815188884735,"yaw":0.0208109300583601,"roll":-0.1497802734375}},"velocity":{"x":5.081261157989502,"y":-0.019668027758598328,"z":0.01472625695168972},"angular_velocity":{"x":0.027027670294046402,"y":-0.045251455157995224,"z":-0.6110270619392395},"acceleration":{"x":4.052019119262695,"y":0.10082054883241653,"z":-0.13299617171287537},"speed_mps":5.081320561591498,"speed_kph":18.29275402172939,"speed_limit_kph":30.0,"collisions_this_frame":[],"waypoint":{"x":-62.240089416503906,"y":24.49650001525879,"z":0.0},"lane_deviation_m":0.07063267379999161,"lane_width":3.5,"goal":{"x":7.4111151695251465,"y":-60.89999771118164,"z":0.5999999642372131},"fault":{"name":"traction_control_loss","severity":1.0},"capture_flags":{"save_rgb":true,"save_depth":false,"video_rgb":true,"video_depth":false}}
{"frame":3458,"timestamp":{"delta_seconds":0.05000000074505806,"elapsed_seconds":38.79327910859138},"control":{"throttle":0.4884481728076935,"steer":-0.002668108558282256,"brake":0.0,"hand_brake":false,"reverse":false,"manual_gear_shift":false,"gear":0},"transform":{"location":{"x":-62.04804611206055,"y":24.471647262573242,"z":0.0033530807122588158},"rotation":{"pitch":0.115143321454525,"yaw":-0.0036926267202943563,"roll":-0.0874023362994194}},"velocity":{"x":5.2246856689453125,"y":-0.004183153621852398,"z":-0.03681385889649391},"angular_velocity":{"x":-5.3588056564331055,"y":2.078202486038208,"z":-1.8258569240570068},"acceleration":{"x":2.868490219116211,"y":0.3096974790096283,"z":-1.0308022499084473},"speed_mps":5.22481703969274,"speed_kph":18.809341342893863,"speed_limit_kph":30.0,"collisions_this_frame":[],"waypoint":{"x":-61.95735549926758,"y":24.48455047607422,"z":0.0},"lane_deviation_m":0.09166527539491653,"lane_width":3.5,"goal":{"x":7.4111151695251465,"y":-60.89999771118164,"z":0.5999999642372131},"fault":{"name":"traction_control_loss","severity":1.0},"capture_flags":{"save_rgb":true,"save_depth":false,"video_rgb":true,"video_depth":false}}
{"frame":3459,"timestamp":{"delta_seconds":0.05000000074505806,"elapsed_seconds":38.843279109336436},"control":{"throttle":0.10646641999483109,"steer":-0.0006786665180698037,"brake":0.0,"hand_brake":false,"reverse":false,"manual_gear_shift":false,"gear":0},"transform":{"location":{"x":-61.78839111328125,"y":24.471342086791992,"z":0.0025030134711414576},"rotation":{"pitch":0.05759898200631142,"yaw":0.002327615860849619,"roll":-0.005767821334302425}},"velocity":{"x":5.232572555541992,"y":0.007088444195687771,"z":-0.01693560555577278},"angular_velocity":{"x":-0.5320681929588318,"y":0.6580831408500671,"z":1.2767878770828247},"acceleration":{"x":0.15773773193359375,"y":0.22543194890022278,"z":0.3975650668144226},"speed_mps":5.232604763383903,"speed_kph":18.83737714818205,"speed_limit_kph":30.0,"collisions_this_frame":[],"waypoint":{"x":-61.714866638183594,"y":24.471139907836914,"z":0.0},"lane_deviation_m":0.07356734573841095,"lane_width":3.5,"goal":{"x":7.4111151695251465,"y":-60.89999771118164,"z":0.5999999642372131},"fault":{"name":"traction_control_loss","severity":1.0},"capture_flags":{"save_rgb":true,"save_depth":false,"video_rgb":true,"video_depth":false}}
{"frame":3460,"timestamp":{"delta_seconds":0.05000000074505806,"elapsed_seconds":38.893279110081494},"control":{"throttle":0.10646641999483109,"steer":-0.0006786665180698037,"brake":0.0,"hand_brake":false,"reverse":false,"manual_gear_shift":false,"gear":0},"transform":{"location":{"x":-61.5308837890625,"y":24.471832275390625,"z":0.0021142195910215378},"rotation":{"pitch":0.03276441618800163,"yaw":-0.0635986253619194,"roll":0.003185851965099573}},"velocity":{"x":5.097954273223877,"y":0.0008381728548556566,"z":-0.00745750404894352},"angular_velocity":{"x":-0.06996145099401474,"y":0.450985312461853,"z":-2.990994453430176},"acceleration":{"x":-2.6923656463623047,"y":-0.12500542402267456,"z":0.18956202268600464},"speed_mps":5.097959796701222,"speed_kph":18.352655268124398,"speed_limit_kph":30.0,"collisions_this_frame":[],"waypoint":{"x":-61.51472473144531,"y":24.45786476135254,"z":0.0},"lane_deviation_m":0.02146337553858757,"lane_width":3.5,"goal":{"x":7.4111151695251465,"y":-60.89999771118164,"z":0.5999999642372131},"fault":{"name":"traction_control_loss","severity":1.0},"capture_flags":{"save_rgb":true,"save_depth":false,"video_rgb":true,"video_depth":false}}
{"frame":3461,"timestamp":{"delta_seconds":0.05000000074505806,"elapsed_seconds":38.94327911082655},"control":{"throttle":0.10646641999483109,"steer":0.0048976801335811615,"brake":0.0,"hand_brake":false,"reverse":false,"manual_gear_shift":false,"gear":0},"transform":{"location":{"x":-61.27459716796875,"y":24.472124099731445,"z":0.001960105961188674},"rotation":{"pitch":0.02050422690808773,"yaw":-0.08050537109375,"roll":0.0029655764810740948}},"velocity":{"x":5.1455841064453125,"y":0.004608603194355965,"z":-0.003018398303538561},"angular_velocity":{"x":0.019251016899943352,"y":0.12508247792720795,"z":1.3528821468353271},"acceleration":{"x":0.9525966644287109,"y":0.07540860772132874,"z":0.08878211677074432},"speed_mps":5.145587055570465,"speed_kph":18.524113400053672,"speed_limit_kph":30.0,"collisions_this_frame":[],"waypoint":{"x":-61.23610305786133,"y":24.43605613708496,"z":0.0},"lane_deviation_m":0.0527876541018486,"lane_width":3.5,"goal":{"x":7.4111151695251465,"y":-60.89999771118164,"z":0.5999999642372131},"fault":{"name":"traction_control_loss","severity":1.0},"capture_flags":{"save_rgb":true,"save_depth":false,"video_rgb":true,"video_depth":false}}
{"frame":3462,"timestamp":{"delta_seconds":0.05000000074505806,"elapsed_seconds":38.99327911157161},"control":{"throttle":0.10646641999483109,"steer":0.0048976801335811615,"brake":0.0,"hand_brake":false,"reverse":false,"manual_gear_shift":false,"gear":0},"transform":{"location":{"x":-61.02214813232422,"y":24.47263526916504,"z":0.0019347381312400103},"rotation":{"pitch":0.01047750934958458,"yaw":-0.125946044921875,"roll":0.0023297201842069626}},"velocity":{"x":4.988237380981445,"y":0.004845976829528809,"z":-0.0010129641741514206},"angular_velocity":{"x":0.010150127112865448,"y":0.25137239694595337,"z":-2.4927754402160645},"acceleration":{"x":-3.1469345092773438,"y":0.004747472703456879,"z":0.040108680725097656},"speed_mps":4.988239837719161,"speed_kph":17.95766341578898,"speed_limit_kph":30.0,"collisions_this_frame":[],"waypoint":{"x":-61.02226257324219,"y":24.51447105407715,"z":0.0},"lane_deviation_m":0.04188065230846405,"lane_width":3.5,"goal":{"x":7.4111151695251465,"y":-60.89999771118164,"z":0.5999999642372131},"fault":{"name":"traction_control_loss","severity":1.0},"capture_flags":{"save_rgb":true,"save_depth":false,"video_rgb":true,"video_depth":false}}
{"frame":3463,"timestamp":{"delta_seconds":0.05000000074505806,"elapsed_seconds":39.04327911231667},"control":{"throttle":0.17732729017734528,"steer":-7.089088467182592e-05,"brake":0.0,"hand_brake":false,"reverse":false,"manual_gear_shift":false,"gear":0},"transform":{"location":{"x":-60.76960372924805,"y":24.47247314453125,"z":0.0019068527035415173},"rotation":{"pitch":0.006946302019059658,"yaw":-0.1337280124425888,"roll":0.003617972834035754}},"velocity":{"x":5.047975540161133,"y":-0.009730669669806957,"z":0.000505313859321177},"angular_velocity":{"x":-0.03902050107717514,"y":0.06188902258872986,"z":1.7685490846633911},"acceleration":{"x":1.19476318359375,"y":-0.2915329337120056,"z":0.030365560203790665},"speed_mps":5.047984944048407,"speed_kph":18.172745798574265,"speed_limit_kph":30.0,"collisions_this_frame":[],"waypoint":{"x":-60.76972198486328,"y":24.515172958374023,"z":0.0},"lane_deviation_m":0.0427425317466259,"lane_width":3.5,"goal":{"x":7.4111151695251465,"y":-60.89999771118164,"z":0.5999999642372131},"fault":{"name":"traction_control_loss","severity":1.0},"capture_flags":{"save_rgb":true,"save_depth":false,"video_rgb":true,"video_depth":false}}
{"frame":3464,"timestamp":{"delta_seconds":0.05000000074505806,"elapsed_seconds":39.093279113061726},"control":{"throttle":0.17732729017734528,"steer":-7.089088467182592e-05,"brake":0.0,"hand_brake":false,"reverse":false,"manual_gear_shift":false,"gear":0},"transform":{"location":{"x":-60.51887512207031,"y":24.472196578979492,"z":0.0019164656987413764},"rotation":{"pitch":0.003531207563355565,"yaw":-0.1787719577550888,"roll":0.003838139120489359}},"velocity":{"x":5.0090227127075195,"y":-0.011810746043920517,"z":0.0012456988915801048},"angular_velocity":{"x":0.004125924780964851,"y":0.06557125598192215,"z":-4.315420627593994},"acceleration":{"x":-0.7790565490722656,"y":-0.041601527482271194,"z":0.014807701110839844},"speed_mps":5.0090367918301055,"speed_kph":18.03253245058838,"speed_limit_kph":30.0,"collisions_this_frame":[],"waypoint":{"x":-60.51899719238281,"y":24.515869140625,"z":0.0},"lane_deviation_m":0.04371476173400879,"lane_width":3.5,"goal":{"x":7.4111151695251465,"y":-60.89999771118164,"z":0.5999999642372131},"fault":{"name":"traction_control_loss","severity":1.0},"capture_flags":{"save_rgb":true,"save_depth":false,"video_rgb":true,"video_depth":false}}
{"frame":3465,"timestamp":{"delta_seconds":0.05000000074505806,"elapsed_seconds":39.143279113806784},"control":{"throttle":0.10661374032497406,"steer":0.010769232176244259,"brake":0.0,"hand_brake":false,"reverse":false,"manual_gear_shift":false,"gear":0},"transform":{"location":{"x":-60.26880645751953,"y":24.47205352783203,"z":0.0018849944462999701},"rotation":{"pitch":0.0016460755141451955,"yaw":-0.1278076171875,"roll":0.00017226625641342252}},"velocity":{"x":5.008124351501465,"y":0.011304112151265144,"z":0.0026478576473891735},"angular_velocity":{"x":0.09282071888446808,"y":0.017468661069869995,"z":0.4891827702522278},"acceleration":{"x":-0.01796722412109375,"y":0.4622971713542938,"z":0.028043175116181374},"speed_mps":5.008137809026786,"speed_kph":18.02929611249643,"speed_limit_kph":30.0,"collisions_this_frame":[],"waypoint":{"x":-60.26892852783203,"y":24.516563415527344,"z":0.0},"lane_deviation_m":0.04454995319247246,"lane_width":3.5,"goal":{"x":7.4111151695251465,"y":-60.89999771118164,"z":0.5999999642372131},"fault":{"name":"traction_control_loss","severity":1.0},"capture_flags":{"save_rgb":true,"save_depth":false,"video_rgb":true,"video_depth":false}}
{"frame":3466,"timestamp":{"delta_seconds":0.05000000074505806,"elapsed_seconds":39.19327911455184},"control":{"throttle":0.10661374032497406,"steer":0.010769232176244259,"brake":0.0,"hand_brake":false,"reverse":false,"manual_gear_shift":false,"gear":0},"transform":{"location":{"x":-60.02021789550781,"y":24.47270965576172,"z":0.001821441575884819},"rotation":{"pitch":-0.0005532453069463372,"yaw":-0.0900878831744194,"roll":-0.0021057126577943563}},"velocity":{"x":4.97078800201416,"y":0.020529907196760178,"z":-0.003240251448005438},"angular_velocity":{"x":0.02887570671737194,"y":0.01818513683974743,"z":0.9033578634262085},"acceleration":{"x":-0.7467269897460938,"y":0.18451589345932007,"z":-0.11776217818260193},"speed_mps":4.970831453317129,"speed_kph":17.894993231941665,"speed_limit_kph":30.0,"collisions_this_frame":[],"waypoint":{"x":-60.02033996582031,"y":24.517253875732422,"z":0.0},"lane_deviation_m":0.04458161070942879,"lane_width":3.5,"goal":{"x":7.4111151695251465,"y":-60.89999771118164,"z":0.5999999642372131},"fault":{"name":"traction_control_loss","severity":1.0},"capture_flags":{"save_rgb":true,"save_depth":false,"video_rgb":true,"video_depth":false}}
{"frame":3467,"timestamp":{"delta_seconds":0.05000000074505806,"elapsed_seconds":39.2432791152969},"control":{"throttle":0.28248170018196106,"steer":0.017040422186255455,"brake":0.0,"hand_brake":false,"reverse":false,"manual_gear_shift":false,"gear":0},"transform":{"location":{"x":-59.77204132080078,"y":24.473617553710938,"z":0.0017385863466188312},"rotation":{"pitch":-0.00131139624863863,"yaw":-0.0372619666159153,"roll":-0.0030212397687137127}},"velocity":{"x":4.955150127410889,"y":0.026436520740389824,"z":-0.0009715270716696978},"angular_velocity":{"x":0.01216641254723072,"y":0.017717905342578888,"z":1.1030341386795044},"acceleration":{"x":-0.3127574920654297,"y":0.11813227087259293,"z":0.04537448659539223},"speed_mps":4.955220743687798,"speed_kph":17.838794677276073,"speed_limit_kph":30.0,"collisions_this_frame":[],"waypoint":{"x":-59.77216339111328,"y":24.5179443359375,"z":0.0},"lane_deviation_m":0.04436103254556656,"lane_width":3.5,"goal":{"x":7.4111151695251465,"y":-60.89999771118164,"z":0.5999999642372131},"fault":{"name":"traction_control_loss","severity":1.0},"capture_flags":{"save_rgb":true,"save_depth":false,"video_rgb":true,"video_depth":false}}
{"frame":3468,"timestamp":{"delta_seconds":0.05000000074505806,"elapsed_seconds":39.29327911604196},"control":{"throttle":0.28248170018196106,"steer":0.017040422186255455,"brake":0.0,"hand_brake":false,"reverse":false,"manual_gear_shift":false,"gear":0},"transform":{"location":{"x":-59.52543640136719,"y":24.475065231323242,"z":0.003426246577873826},"rotation":{"pitch":-0.06936739385128021,"yaw":0.04656479135155678,"roll":-0.1149597093462944}},"velocity":{"x":4.933981418609619,"y":0.028661107644438744,"z":0.012771548703312874},"angular_velocity":{"x":0.6143141984939575,"y":0.5108480453491211,"z":1.9701151847839355},"acceleration":{"x":-0.4233741760253906,"y":0.044491738080978394,"z":0.27486151456832886},"speed_mps":4.934081192150437,"speed_kph":17.762692291741573,"speed_limit_kph":30.0,"collisions_this_frame":[],"waypoint":{"x":-59.52555847167969,"y":24.51862907409668,"z":0.0},"lane_deviation_m":0.043698541820049286,"lane_width":3.5,"goal":{"x":7.4111151695251465,"y":-60.89999771118164,"z":0.5999999642372131},"fault":{"name":"traction_control_loss","severity":1.0},"capture_flags":{"save_rgb":true,"save_depth":false,"video_rgb":true,"video_depth":false}}
{"frame":3469,"timestamp":{"delta_seconds":0.05000000074505806,"elapsed_seconds":39.343279116787016},"control":{"throttle":0.4595932960510254,"steer":-0.0022364070173352957,"brake":0.0,"hand_brake":false,"reverse":false,"manual_gear_shift":false,"gear":0},"transform":{"location":{"x":-59.27885437011719,"y":24.47524642944336,"z":0.003839416429400444},"rotation":{"pitch":-0.07867011427879333,"yaw":0.08931592106819153,"roll":-0.1167602464556694}},"velocity":{"x":4.937814235687256,"y":0.0014937876258045435,"z":0.004279994871467352},"angular_velocity":{"x":-0.12642285227775574,"y":0.03641968220472336,"z":0.42660754919052124},"acceleration":{"x":0.07665634155273438,"y":-0.5433464050292969,"z":-0.1698310673236847},"speed_mps":4.937816316542495,"speed_kph":17.776138739552984,"speed_limit_kph":30.0,"collisions_this_frame":[],"waypoint":{"x":-59.27897644042969,"y":24.51931381225586,"z":0.0},"lane_deviation_m":0.044234491884708405,"lane_width":3.5,"goal":{"x":7.4111151695251465,"y":-60.89999771118164,"z":0.5999999642372131},"fault":{"name":"traction_control_loss","severity":1.0},"capture_flags":{"save_rgb":true,"save_depth":false,"video_rgb":true,"video_depth":false}}
{"frame":3470,"timestamp":{"delta_seconds":0.05000000074505806,"elapsed_seconds":39.393279117532074},"control":{"throttle":0.4595932960510254,"steer":-0.0022364070173352957,"brake":0.0,"hand_brake":false,"reverse":false,"manual_gear_shift":false,"gear":0},"transform":{"location":{"x":-59.03110122680664,"y":24.47515296936035,"z":0.0039881132543087006},"rotation":{"pitch":-0.0754394382238388,"yaw":0.09200938791036606,"roll":-0.100128173828125}},"velocity":{"x":4.970949172973633,"y":0.010374268516898155,"z":-0.03092789091169834},"angular_velocity":{"x":-4.137982368469238,"y":-2.098677635192871,"z":-0.12773029506206512},"acceleration":{"x":0.6626987457275391,"y":0.1776096224784851,"z":-0.7041577100753784},"speed_mps":4.971056209717483,"speed_kph":17.89580235498294,"speed_limit_kph":30.0,"collisions_this_frame":[],"waypoint":{"x":-59.031227111816406,"y":24.520002365112305,"z":0.0},"lane_deviation_m":0.045026540756225586,"lane_width":3.5,"goal":{"x":7.4111151695251465,"y":-60.89999771118164,"z":0.5999999642372131},"fault":{"name":"traction_control_loss","severity":1.0},"capture_flags":{"save_rgb":true,"save_depth":false,"video_rgb":true,"video_depth":false}}
{"frame":3471,"timestamp":{"delta_seconds":0.05000000074505806,"elapsed_seconds":39.44327911827713},"control":{"throttle":0.22133049368858337,"steer":0.01133677363395691,"brake":0.0,"hand_brake":false,"reverse":false,"manual_gear_shift":false,"gear":0},"transform":{"location":{"x":-58.78075408935547,"y":24.47620391845703,"z":0.0026428985875099897},"rotation":{"pitch":-0.015190339647233486,"yaw":0.12496516108512878,"roll":-0.013580321334302425}},"velocity":{"x":5.013408660888672,"y":0.04603893682360649,"z":-0.010403594933450222},"angular_velocity":{"x":-1.0209660530090332,"y":-0.8945693969726562,"z":0.9750306010246277},"acceleration":{"x":0.8491897583007812,"y":0.7132934331893921,"z":0.4104859232902527},"speed_mps":5.013630841971209,"speed_kph":18.049071031096354,"speed_limit_kph":30.0,"collisions_this_frame":[],"waypoint":{"x":-58.78087615966797,"y":24.52069854736328,"z":0.0},"lane_deviation_m":0.04457321763038635,"lane_width":3.5,"goal":{"x":7.4111151695251465,"y":-60.89999771118164,"z":0.5999999642372131},"fault":{"name":"traction_control_loss","severity":1.0},"capture_flags":{"save_rgb":true,"save_depth":false,"video_rgb":true,"video_depth":false}}
{"frame":3472,"timestamp":{"delta_seconds":0.05000000074505806,"elapsed_seconds":39.49327911902219},"control":{"throttle":0.22133049368858337,"steer":0.01133677363395691,"brake":0.0,"hand_brake":false,"reverse":false,"manual_gear_shift":false,"gear":0},"transform":{"location":{"x":-58.52953338623047,"y":24.47829818725586,"z":0.0021944046020507812},"rotation":{"pitch":0.004945056512951851,"yaw":0.1729438602924347,"roll":0.0012411645147949457}},"velocity":{"x":5.008266925811768,"y":0.050367455929517746,"z":-0.004641999956220388},"angular_velocity":{"x":-0.0856655091047287,"y":-0.16350476443767548,"z":0.10523100942373276},"acceleration":{"x":-0.10283470153808594,"y":0.0865703821182251,"z":0.11523190140724182},"speed_mps":5.008522339868363,"speed_kph":18.030680423526107,"speed_limit_kph":30.0,"collisions_this_frame":[],"waypoint":{"x":-58.52965545654297,"y":24.52139663696289,"z":0.0},"lane_deviation_m":0.04315445199608803,"lane_width":3.5,"goal":{"x":7.4111151695251465,"y":-60.89999771118164,"z":0.5999999642372131},"fault":{"name":"traction_control_loss","severity":1.0},"capture_flags":{"save_rgb":true,"save_depth":false,"video_rgb":true,"video_depth":false}}
{"frame":3473,"timestamp":{"delta_seconds":0.05000000074505806,"elapsed_seconds":39.54327911976725},"control":{"throttle":0.10513047128915787,"steer":0.022368360310792923,"brake":0.0,"hand_brake":false,"reverse":false,"manual_gear_shift":false,"gear":0},"transform":{"location":{"x":-58.28074264526367,"y":24.48116111755371,"z":0.001895637484267354},"rotation":{"pitch":0.005867131985723972,"yaw":0.26172494888305664,"roll":-0.0010986328125}},"velocity":{"x":4.972702980041504,"y":0.07697173207998276,"z":-0.006165046710520983},"angular_velocity":{"x":0.07066991925239563,"y":0.003468212205916643,"z":1.9896594285964966},"acceleration":{"x":-0.7112789154052734,"y":0.5320855379104614,"z":-0.030460935086011887},"speed_mps":4.973302482561662,"speed_kph":17.903888937221986,"speed_limit_kph":30.0,"collisions_this_frame":[],"waypoint":{"x":-58.28085708618164,"y":24.52208709716797,"z":0.0},"lane_deviation_m":0.04097001627087593,"lane_width":3.5,"goal":{"x":7.4111151695251465,"y":-60.89999771118164,"z":0.5999999642372131},"fault":{"name":"traction_control_loss","severity":1.0},"capture_flags":{"save_rgb":true,"save_depth":false,"video_rgb":true,"video_depth":false}}
{"frame":3474,"timestamp":{"delta_seconds":0.05000000074505806,"elapsed_seconds":39.59327912051231},"control":{"throttle":0.10513047128915787,"steer":0.022368360310792923,"brake":0.0,"hand_brake":false,"reverse":false,"manual_gear_shift":false,"gear":0},"transform":{"location":{"x":-58.03236770629883,"y":24.484874725341797,"z":0.0017205429030582309},"rotation":{"pitch":0.004828943405300379,"yaw":0.37257739901542664,"roll":-0.00396728515625}},"velocity":{"x":4.960437297821045,"y":0.09237316250801086,"z":-0.002294788369908929},"angular_velocity":{"x":0.04530443996191025,"y":0.03275485336780548,"z":2.2911219596862793},"acceleration":{"x":-0.2453136444091797,"y":0.30802860856056213,"z":0.0774051696062088},"speed_mps":4.96129783955968,"speed_kph":17.86067222241485,"speed_limit_kph":30.0,"collisions_this_frame":[],"waypoint":{"x":-58.032474517822266,"y":24.522777557373047,"z":0.0},"lane_deviation_m":0.03794201463460922,"lane_width":3.5,"goal":{"x":7.4111151695251465,"y":-60.89999771118164,"z":0.5999999642372131},"fault":{"name":"traction_control_loss","severity":1.0},"capture_flags":{"save_rgb":true,"save_depth":false,"video_rgb":true,"video_depth":false}}
{"frame":3475,"timestamp":{"delta_seconds":0.05000000074505806,"elapsed_seconds":39.643279121257365},"control":{"throttle":0.3046110272407532,"steer":0.02173914760351181,"brake":0.0,"hand_brake":false,"reverse":false,"manual_gear_shift":false,"gear":0},"transform":{"location":{"x":-57.785057067871094,"y":24.489126205444336,"z":0.0016783904284238815},"rotation":{"pitch":0.002868679352104664,"yaw":0.4860101342201233,"roll":-0.005340575706213713}},"velocity":{"x":4.939197063446045,"y":0.10202664136886597,"z":-0.0004474925808608532},"angular_velocity":{"x":0.019473103806376457,"y":0.038026828318834305,"z":2.261204957962036},"acceleration":{"x":-0.4248046875,"y":0.19306957721710205,"z":0.03694591671228409},"speed_mps":4.940250729199142,"speed_kph":17.78490262511691,"speed_limit_kph":30.0,"collisions_this_frame":[],"waypoint":{"x":-57.785152435302734,"y":24.52346420288086,"z":0.0},"lane_deviation_m":0.03437912464141846,"lane_width":3.5,"goal":{"x":7.4111151695251465,"y":-60.89999771118164,"z":0.5999999642372131},"fault":{"name":"traction_control_loss","severity":1.0},"capture_flags":{"save_rgb":true,"save_depth":false,"video_rgb":true,"video_depth":false}}
{"frame":3476,"timestamp":{"delta_seconds":0.05000000074505806,"elapsed_seconds":39.69327912200242},"control":{"throttle":0.3046110272407532,"steer":0.02173914760351181,"brake":0.0,"hand_brake":false,"reverse":false,"manual_gear_shift":false,"gear":0},"transform":{"location":{"x":-57.53824996948242,"y":24.49386215209961,"z":0.001690559322014451},"rotation":{"pitch":0.0015367924934253097,"yaw":0.5991668701171875,"roll":-0.006072997581213713}},"velocity":{"x":4.935812473297119,"y":0.1118786484003067,"z":0.0003456115664448589},"angular_velocity":{"x":0.012020881287753582,"y":0.018440978601574898,"z":2.2641735076904297},"acceleration":{"x":-0.06769180297851562,"y":0.1970401406288147,"z":0.015862083062529564},"speed_mps":4.937080283221112,"speed_kph":17.773489019596006,"speed_limit_kph":30.0,"collisions_this_frame":[],"waypoint":{"x":-57.538333892822266,"y":24.524150848388672,"z":0.0},"lane_deviation_m":0.030335955321788788,"lane_width":3.5,"goal":{"x":7.4111151695251465,"y":-60.89999771118164,"z":0.5999999642372131},"fault":{"name":"traction_control_loss","severity":1.0},"capture_flags":{"save_rgb":true,"save_depth":false,"video_rgb":true,"video_depth":false}}
{"frame":3477,"timestamp":{"delta_seconds":0.05000000074505806,"elapsed_seconds":39.74327912274748},"control":{"throttle":0.4096083343029022,"steer":0.009369046427309513,"brake":0.0,"hand_brake":false,"reverse":false,"manual_gear_shift":false,"gear":0},"transform":{"location":{"x":-57.29103469848633,"y":24.498291015625,"z":0.001717796316370368},"rotation":{"pitch":0.0014001886593177915,"yaw":0.6734843254089355,"roll":-0.0029296872671693563}},"velocity":{"x":4.953466415405273,"y":0.09275062382221222,"z":0.000606269808486104},"angular_velocity":{"x":-0.060382477939128876,"y":-0.009288174100220203,"z":1.204206943511963},"acceleration":{"x":0.35307884216308594,"y":-0.38256049156188965,"z":0.00521316472440958},"speed_mps":4.954334725705406,"speed_kph":17.835605012539464,"speed_limit_kph":30.0,"collisions_this_frame":[],"waypoint":{"x":-57.291107177734375,"y":24.524837493896484,"z":0.0},"lane_deviation_m":0.02660209685564041,"lane_width":3.5,"goal":{"x":7.4111151695251465,"y":-60.89999771118164,"z":0.5999999642372131},"fault":{"name":"traction_control_loss","severity":1.0},"capture_flags":{"save_rgb":true,"save_depth":false,"video_rgb":true,"video_depth":false}}
{"frame":3478,"timestamp":{"delta_seconds":0.05000000074505806,"elapsed_seconds":39.79327912349254},"control":{"throttle":0.4096083343029022,"steer":0.009369046427309513,"brake":0.0,"hand_brake":false,"reverse":false,"manual_gear_shift":false,"gear":0},"transform":{"location":{"x":-57.04224395751953,"y":24.502546310424805,"z":0.0017427443526685238},"rotation":{"pitch":0.0025544906966388226,"yaw":0.727200984954834,"roll":-0.0012817381648346782}},"velocity":{"x":4.992316246032715,"y":0.09192447364330292,"z":0.0006284999544732273},"angular_velocity":{"x":-0.016751505434513092,"y":-0.03140183165669441,"z":1.0284748077392578},"acceleration":{"x":0.7769966125488281,"y":-0.016523003578186035,"z":0.000444602919742465},"speed_mps":4.993162525320899,"speed_kph":17.975385091155236,"speed_limit_kph":30.0,"collisions_this_frame":[],"waypoint":{"x":-57.04230880737305,"y":24.525529861450195,"z":0.0},"lane_deviation_m":0.023049619048833847,"lane_width":3.5,"goal":{"x":7.4111151695251465,"y":-60.89999771118164,"z":0.5999999642372131},"fault":{"name":"traction_control_loss","severity":1.0},"capture_flags":{"save_rgb":true,"save_depth":false,"video_rgb":true,"video_depth":false}}
{"frame":3479,"timestamp":{"delta_seconds":0.05000000074505806,"elapsed_seconds":39.8432791242376},"control":{"throttle":0.0776369571685791,"steer":0.0322517454624176,"brake":0.0,"hand_brake":false,"reverse":false,"manual_gear_shift":false,"gear":0},"transform":{"location":{"x":-56.79167175292969,"y":24.508466720581055,"z":0.0019805908668786287},"rotation":{"pitch":0.0039820000529289246,"yaw":0.8555313348770142,"roll":-0.00888061337172985}},"velocity":{"x":5.014978408813477,"y":0.1508849710226059,"z":0.004420938435941935},"angular_velocity":{"x":0.14164474606513977,"y":-0.007974478416144848,"z":3.4038405418395996},"acceleration":{"x":0.4532432556152344,"y":1.1792099475860596,"z":0.0758487656712532},"speed_mps":5.01724967088967,"speed_kph":18.062098815202813,"speed_limit_kph":30.0,"collisions_this_frame":[],"waypoint":{"x":-56.79172134399414,"y":24.526226043701172,"z":0.0},"lane_deviation_m":0.0178694911301136,"lane_width":3.5,"goal":{"x":7.4111151695251465,"y":-60.89999771118164,"z":0.5999999642372131},"fault":{"name":"traction_control_loss","severity":1.0},"capture_flags":{"save_rgb":true,"save_depth":false,"video_rgb":true,"video_depth":false}}
{"frame":3480,"timestamp":{"delta_seconds":0.05000000074505806,"elapsed_seconds":39.893279124982655},"control":{"throttle":0.0776369571685791,"steer":0.0322517454624176,"brake":0.0,"hand_brake":false,"reverse":false,"manual_gear_shift":false,"gear":0},"transform":{"location":{"x":-56.54185485839844,"y":24.51566505432129,"z":0.002001647837460041},"rotation":{"pitch":0.002691094297915697,"yaw":1.0386089086532593,"roll":-0.012237547896802425}},"velocity":{"x":4.9855146408081055,"y":0.17399856448173523,"z":-0.004073543474078178},"angular_velocity":{"x":0.03660592809319496,"y":0.031065266579389572,"z":3.434788942337036},"acceleration":{"x":-0.5892753601074219,"y":0.46227186918258667,"z":-0.1698896288871765},"speed_mps":4.988551726494385,"speed_kph":17.958786215379785,"speed_limit_kph":30.0,"collisions_this_frame":[],"waypoint":{"x":-56.54188537597656,"y":24.526920318603516,"z":0.0},"lane_deviation_m":0.011431907303631306,"lane_width":3.5,"goal":{"x":7.4111151695251465,"y":-60.89999771118164,"z":0.5999999642372131},"fault":{"name":"traction_control_loss","severity":1.0},"capture_flags":{"save_rgb":true,"save_depth":false,"video_rgb":true,"video_depth":false}}
{"frame":3481,"timestamp":{"delta_seconds":0.05000000074505806,"elapsed_seconds":39.94327912572771},"control":{"throttle":0.14621378481388092,"steer":0.02251601405441761,"brake":0.0,"hand_brake":false,"reverse":false,"manual_gear_shift":false,"gear":0},"transform":{"location":{"x":-56.29334259033203,"y":24.52332878112793,"z":0.0018826675368472934},"rotation":{"pitch":0.0009152452694252133,"yaw":1.174873948097229,"roll":-0.010498045943677425}},"velocity":{"x":4.959158897399902,"y":0.1692885309457779,"z":-0.0018041610019281507},"angular_velocity":{"x":-0.0429949089884758,"y":0.036828190088272095,"z":2.4983932971954346},"acceleration":{"x":-0.5271148681640625,"y":-0.09420067071914673,"z":0.04538765177130699},"speed_mps":4.962047846541518,"speed_kph":17.863372247549464,"speed_limit_kph":30.0,"collisions_this_frame":[],"waypoint":{"x":-56.29335403442383,"y":24.527610778808594,"z":0.0},"lane_deviation_m":0.004677613731473684,"lane_width":3.5,"goal":{"x":7.4111151695251465,"y":-60.89999771118164,"z":0.5999999642372131},"fault":{"name":"traction_control_loss","severity":1.0},"capture_flags":{"save_rgb":true,"save_depth":false,"video_rgb":true,"video_depth":false}}
{"frame":3482,"timestamp":{"delta_seconds":0.05000000074505806,"elapsed_seconds":39.99327912647277},"control":{"throttle":0.14621378481388092,"steer":0.02251601405441761,"brake":0.0,"hand_brake":false,"reverse":false,"manual_gear_shift":false,"gear":0},"transform":{"location":{"x":-56.0463752746582,"y":24.531234741210938,"z":0.0018413924844935536},"rotation":{"pitch":-0.0010381886968389153,"yaw":1.2955045700073242,"roll":-0.009002684615552425}},"velocity":{"x":4.925360679626465,"y":0.17510533332824707,"z":-0.0006527996156364679},"angular_velocity":{"x":-0.02209050953388214,"y":0.03864944726228714,"z":2.3738811016082764},"acceleration":{"x":-0.67596435546875,"y":0.11633604764938354,"z":0.02302722819149494},"speed_mps":4.9284723929751095,"speed_kph":17.742500614710394,"speed_limit_kph":30.0,"collisions_this_frame":[],"waypoint":{"x":-56.04636764526367,"y":24.528295516967773,"z":0.0},"lane_deviation_m":0.0034684035927057266,"lane_width":3.5,"goal":{"x":7.4111151695251465,"y":-60.89999771118164,"z":0.5999999642372131},"fault":{"name":"traction_control_loss","severity":1.0},"capture_flags":{"save_rgb":true,"save_depth":false,"video_rgb":true,"video_depth":false}}
{"frame":3483,"timestamp":{"delta_seconds":0.05000000074505806,"elapsed_seconds":40.04327912721783},"control":{"throttle":0.45916247367858887,"steer":0.005553888157010078,"brake":0.0,"hand_brake":false,"reverse":false,"manual_gear_shift":false,"gear":0},"transform":{"location":{"x":-55.80093765258789,"y":24.538442611694336,"z":0.0018358611268922687},"rotation":{"pitch":-0.002588641596958041,"yaw":1.3596771955490112,"roll":-0.0034484860952943563}},"velocity":{"x":4.90208101272583,"y":0.14367304742336273,"z":-0.00011051177716581151},"angular_velocity":{"x":-0.10286428034305573,"y":0.01837904378771782,"z":0.8836398720741272},"acceleration":{"x":-0.4655933380126953,"y":-0.6286457180976868,"z":0.010845756158232689},"speed_mps":4.904185988734101,"speed_kph":17.655069559442765,"speed_limit_kph":30.0,"collisions_this_frame":[],"waypoint":{"x":-55.80091094970703,"y":24.52897834777832,"z":0.0},"lane_deviation_m":0.009640715084969997,"lane_width":3.5,"goal":{"x":7.4111151695251465,"y":-60.89999771118164,"z":0.5999999642372131},"fault":{"name":"traction_control_loss","severity":1.0},"capture_flags":{"save_rgb":true,"save_depth":false,"video_rgb":true,"video_depth":false}}
{"frame":3484,"timestamp":{"delta_seconds":0.05000000074505806,"elapsed_seconds":40.09327912796289},"control":{"throttle":0.45916247367858887,"steer":0.005553888157010078,"brake":0.0,"hand_brake":false,"reverse":false,"manual_gear_shift":false,"gear":0},"transform":{"location":{"x":-55.555419921875,"y":24.545196533203125,"z":0.0018363570561632514},"rotation":{"pitch":-0.002288113348186016,"yaw":1.3946518898010254,"roll":-0.000457763671875}},"velocity":{"x":4.920849323272705,"y":0.13847583532333374,"z":0.00011766433453885838},"angular_velocity":{"x":-0.03433829918503761,"y":-0.024621998891234398,"z":0.6333746910095215},"acceleration":{"x":0.3753662109375,"y":-0.10394424200057983,"z":0.004563522059470415},"speed_mps":4.922797338218062,"speed_kph":17.722070417585023,"speed_limit_kph":30.0,"collisions_this_frame":[],"waypoint":{"x":-55.55537414550781,"y":24.529661178588867,"z":0.0},"lane_deviation_m":0.01564357802271843,"lane_width":3.5,"goal":{"x":7.4111151695251465,"y":-60.89999771118164,"z":0.5999999642372131},"fault":{"name":"traction_control_loss","severity":1.0},"capture_flags":{"save_rgb":true,"save_depth":false,"video_rgb":true,"video_depth":false}}
