{"frame":14690,"timestamp":{"delta_seconds":0.05000000074505806,"elapsed_seconds":147.83896937128156},"control":{"throttle":0.0,"steer":0.0,"brake":1.0,"hand_brake":false,"reverse":false,"manual_gear_shift":false,"gear":0},"transform":{"location":{"x":26.382587432861328,"y":-57.40138626098633,"z":0.4823998808860779},"rotation":{"pitch":0.0,"yaw":-0.0234375,"roll":0.0}},"velocity":{"x":0.0,"y":0.0,"z":-1.470000147819519},"angular_velocity":{"x":0.0,"y":0.0,"z":0.0},"acceleration":{"x":0.0,"y":0.0,"z":-9.80000114440918},"speed_mps":1.470000147819519,"speed_kph":5.2920005321502686,"speed_limit_kph":30.0,"collisions_this_frame":[],"waypoint":{"x":26.382585525512695,"y":-57.40774917602539,"z":0.0},"lane_deviation_m":0.48244184255599976,"lane_width":3.5,"goal":{"x":-113.40350341796875,"y":-25.76747703552246,"z":0.5999950766563416},"fault":{"name":"camera_blackout","severity":1.0},"capture_flags":{"save_rgb":true,"save_depth":false,"video_rgb":true,"video_depth":false}}
{"frame":14691,"timestamp":{"delta_seconds":0.05000000074505806,"elapsed_seconds":147.88896937202662},"control":{"throttle":1.0,"steer":0.004999999888241291,"brake":0.0,"hand_brake":false,"reverse":false,"manual_gear_shift":false,"gear":0},"transform":{"location":{"x":26.382587432861328,"y":-57.40138626098633,"z":0.3941999077796936},"rotation":{"pitch":0.0,"yaw":-0.0234375,"roll":0.0}},"velocity":{"x":0.0,"y":0.0,"z":-1.9600002765655518},"angular_velocity":{"x":0.0,"y":0.0,"z":0.0},"acceleration":{"x":0.0,"y":0.0,"z":-9.800003051757812},"speed_mps":1.9600002765655518,"speed_kph":7.056000995635986,"speed_limit_kph":30.0,"collisions_this_frame":[],"waypoint":{"x":26.382585525512695,"y":-57.40774917602539,"z":0.0},"lane_deviation_m":0.3942512571811676,"lane_width":3.5,"goal":{"x":-113.40350341796875,"y":-25.76747703552246,"z":0.5999950766563416},"fault":{"name":"camera_blackout","severity":1.0},"capture_flags":{"save_rgb":true,"save_depth":false,"video_rgb":true,"video_depth":false}}
{"frame":14692,"timestamp":{"delta_seconds":0.05000000074505806,"elapsed_seconds":147.93896937277168},"control":{"throttle":1.0,"steer":0.0010000000474974513,"brake":0.0,"hand_brake":false,"reverse":false,"manual_gear_shift":false,"gear":0},"transform":{"location":{"x":26.382587432861328,"y":-57.40138626098633,"z":0.2815000116825104},"rotation":{"pitch":0.0,"yaw":-0.0234375,"roll":0.0}},"velocity":{"x":0.0,"y":0.0,"z":-2.450000286102295},"angular_velocity":{"x":0.0,"y":0.0,"z":0.0},"acceleration":{"x":0.0,"y":0.0,"z":-9.800000190734863},"speed_mps":2.450000286102295,"speed_kph":8.820001029968262,"speed_limit_kph":30.0,"collisions_this_frame":[],"waypoint":{"x":26.382585525512695,"y":-57.40774917602539,"z":0.0},"lane_deviation_m":0.2815719246864319,"lane_width":3.5,"goal":{"x":-113.40350341796875,"y":-25.76747703552246,"z":0.5999950766563416},"fault":{"name":"camera_blackout","severity":1.0},"capture_flags":{"save_rgb":true,"save_depth":false,"video_rgb":true,"video_depth":false}}
{"frame":14693,"timestamp":{"delta_seconds":0.05000000074505806,"elapsed_seconds":147.98896937351674},"control":{"throttle":1.0,"steer":-0.009999999776482582,"brake":0.0,"hand_brake":false,"reverse":false,"manual_gear_shift":false,"gear":0},"transform":{"location":{"x":26.382587432861328,"y":-57.40138626098633,"z":0.1442999243736267},"rotation":{"pitch":0.0,"yaw":-0.0234375,"roll":0.0}},"velocity":{"x":0.0,"y":0.0,"z":-2.93999981880188},"angular_velocity":{"x":0.0,"y":0.0,"z":0.0},"acceleration":{"x":0.0,"y":0.0,"z":-9.7999906539917},"speed_mps":2.93999981880188,"speed_kph":10.583999347686769,"speed_limit_kph":30.0,"collisions_this_frame":[],"waypoint":{"x":26.382585525512695,"y":-57.40774917602539,"z":0.0},"lane_deviation_m":0.14444014430046082,"lane_width":3.5,"goal":{"x":-113.40350341796875,"y":-25.76747703552246,"z":0.5999950766563416},"fault":{"name":"camera_blackout","severity":1.0},"capture_flags":{"save_rgb":true,"save_depth":false,"video_rgb":true,"video_depth":false}}
{"frame":14694,"timestamp":{"delta_seconds":0.05000000074505806,"elapsed_seconds":148.0389693742618},"control":{"throttle":1.0,"steer":0.004999999888241291,"brake":0.0,"hand_brake":false,"reverse":false,"manual_gear_shift":false,"gear":0},"transform":{"location":{"x":26.382587432861328,"y":-57.40138626098633,"z":0.008085518144071102},"rotation":{"pitch":0.0,"yaw":-0.0234375,"roll":0.0}},"velocity":{"x":-5.311540007824078e-07,"y":-8.628744581073988e-06,"z":-2.0645947456359863},"angular_velocity":{"x":0.0010237988317385316,"y":-0.0008021033136174083,"z":7.535234658462286e-08},"acceleration":{"x":-1.0623080015648156e-05,"y":-0.00017257488798350096,"z":17.508102416992188},"speed_mps":2.064594745654086,"speed_kph":7.43254108435471,"speed_limit_kph":30.0,"collisions_this_frame":[],"waypoint":{"x":26.382585525512695,"y":-57.40774917602539,"z":0.0},"lane_deviation_m":0.010288940742611885,"lane_width":3.5,"goal":{"x":-113.40350341796875,"y":-25.76747703552246,"z":0.5999950766563416},"fault":{"name":"camera_blackout","severity":1.0},"capture_flags":{"save_rgb":true,"save_depth":false,"video_rgb":true,"video_depth":false}}
{"frame":14695,"timestamp":{"delta_seconds":0.05000000074505806,"elapsed_seconds":148.08896937500685},"control":{"throttle":1.0,"steer":0.0020000000949949026,"brake":0.0,"hand_brake":false,"reverse":false,"manual_gear_shift":false,"gear":0},"transform":{"location":{"x":26.382587432861328,"y":-57.40138626098633,"z":-0.05158809572458267},"rotation":{"pitch":0.0,"yaw":-0.0234375,"roll":0.0}},"velocity":{"x":-1.6240289824054344e-07,"y":-1.6826836599648232e-06,"z":-0.7380875945091248},"angular_velocity":{"x":0.00020972374477423728,"y":-0.00023566970776300877,"z":1.479209732480058e-08},"acceleration":{"x":7.375022050837288e-06,"y":0.00013892122660763562,"z":26.530141830444336},"speed_mps":0.7380875945110608,"speed_kph":2.6571153402398187,"speed_limit_kph":30.0,"collisions_this_frame":[],"waypoint":{"x":26.382585525512695,"y":-57.40774917602539,"z":0.0},"lane_deviation_m":0.05197901651263237,"lane_width":3.5,"goal":{"x":-113.40350341796875,"y":-25.76747703552246,"z":0.5999950766563416},"fault":{"name":"camera_blackout","severity":1.0},"capture_flags":{"save_rgb":true,"save_depth":false,"video_rgb":true,"video_depth":false}}
{"frame":14696,"timestamp":{"delta_seconds":0.05000000074505806,"elapsed_seconds":148.1389693757519},"control":{"throttle":1.0,"steer":0.024000000208616257,"brake":0.0,"hand_brake":false,"reverse":false,"manual_gear_shift":false,"gear":0},"transform":{"location":{"x":26.382587432861328,"y":-57.40138626098633,"z":-0.06773178279399872},"rotation":{"pitch":0.0,"yaw":-0.0234375,"roll":0.0}},"velocity":{"x":-4.345151793927471e-08,"y":-1.1800672439221671e-07,"z":-0.11209796369075775},"angular_velocity":{"x":8.450690802419558e-05,"y":-6.302039400907233e-05,"z":1.346961031600813e-08},"acceleration":{"x":2.37902759181452e-06,"y":3.129353717667982e-05,"z":12.519792556762695},"speed_mps":0.11209796369082829,"speed_kph":0.40355266928698186,"speed_limit_kph":30.0,"collisions_this_frame":[],"waypoint":{"x":26.382585525512695,"y":-57.40774917602539,"z":0.0},"lane_deviation_m":0.06802999973297119,"lane_width":3.5,"goal":{"x":-113.40350341796875,"y":-25.76747703552246,"z":0.5999950766563416},"fault":{"name":"camera_blackout","severity":1.0},"capture_flags":{"save_rgb":true,"save_depth":false,"video_rgb":true,"video_depth":false}}
{"frame":14697,"timestamp":{"delta_seconds":0.05000000074505806,"elapsed_seconds":148.18896937649697},"control":{"throttle":1.0,"steer":0.0010000000474974513,"brake":0.0,"hand_brake":false,"reverse":false,"manual_gear_shift":false,"gear":0},"transform":{"location":{"x":26.382587432861328,"y":-57.40138626098633,"z":-0.06445316225290298},"rotation":{"pitch":0.0,"yaw":-0.0234375,"roll":0.0}},"velocity":{"x":-7.587272143894097e-09,"y":1.0196550448426933e-07,"z":0.15056174993515015},"angular_velocity":{"x":-1.770434664649656e-06,"y":-9.992856575991027e-06,"z":-4.58763194099987e-10},"acceleration":{"x":7.172849336711806e-07,"y":4.39944460595143e-06,"z":5.253194808959961},"speed_mps":0.15056174993518487,"speed_kph":0.5420222997666655,"speed_limit_kph":30.0,"collisions_this_frame":[],"waypoint":{"x":26.382585525512695,"y":-57.40774917602539,"z":0.0},"lane_deviation_m":0.06476648151874542,"lane_width":3.5,"goal":{"x":-113.40350341796875,"y":-25.76747703552246,"z":0.5999950766563416},"fault":{"name":"camera_blackout","severity":1.0},"capture_flags":{"save_rgb":true,"save_depth":false,"video_rgb":true,"video_depth":false}}
{"frame":14698,"timestamp":{"delta_seconds":0.05000000074505806,"elapsed_seconds":148.23896937724203},"control":{"throttle":1.0,"steer":0.014000000432133675,"brake":0.0,"hand_brake":false,"reverse":false,"manual_gear_shift":false,"gear":0},"transform":{"location":{"x":26.382587432861328,"y":-57.40138626098633,"z":-0.053962018340826035},"rotation":{"pitch":0.0,"yaw":-0.0234375,"roll":0.0}},"velocity":{"x":3.5311642498925266e-09,"y":5.836041094831046e-10,"z":0.23337270319461823},"angular_velocity":{"x":4.09223503083922e-06,"y":5.711824087484274e-06,"z":-5.925398394168724e-09},"acceleration":{"x":2.2236872609937564e-07,"y":-2.0276379473216366e-06,"z":1.6562190055847168},"speed_mps":0.23337270319461825,"speed_kph":0.8401417315006258,"speed_limit_kph":30.0,"collisions_this_frame":[],"waypoint":{"x":26.382585525512695,"y":-57.40774917602539,"z":0.0},"lane_deviation_m":0.05433586612343788,"lane_width":3.5,"goal":{"x":-113.40350341796875,"y":-25.76747703552246,"z":0.5999950766563416},"fault":{"name":"camera_blackout","severity":1.0},"capture_flags":{"save_rgb":true,"save_depth":false,"video_rgb":true,"video_depth":false}}
{"frame":14699,"timestamp":{"delta_seconds":0.05000000074505806,"elapsed_seconds":148.2889693779871},"control":{"throttle":1.0,"steer":0.003000000026077032,"brake":0.0,"hand_brake":false,"reverse":false,"manual_gear_shift":false,"gear":0},"transform":{"location":{"x":26.389564514160156,"y":-57.401371002197266,"z":-0.04213031753897667},"rotation":{"pitch":0.008947547525167465,"yaw":-0.023101806640625,"roll":-0.000152587890625}},"velocity":{"x":0.42269229888916016,"y":0.0007629746687598526,"z":0.23370636999607086},"angular_velocity":{"x":0.004521393682807684,"y":-0.5013288259506226,"z":0.03372012823820114},"acceleration":{"x":8.453845977783203,"y":0.015259481966495514,"z":0.006673336029052734},"speed_mps":0.48299899487192377,"speed_kph":1.7387963815389256,"speed_limit_kph":30.0,"collisions_this_frame":[],"waypoint":{"x":26.389562606811523,"y":-57.407752990722656,"z":0.0},"lane_deviation_m":0.042610954493284225,"lane_width":3.5,"goal":{"x":-113.40350341796875,"y":-25.76747703552246,"z":0.5999950766563416},"fault":{"name":"camera_blackout","severity":1.0},"capture_flags":{"save_rgb":true,"save_depth":false,"video_rgb":true,"video_depth":false}}
{"frame":14700,"timestamp":{"delta_seconds":0.05000000074505806,"elapsed_seconds":148.33896937873214},"control":{"throttle":1.0,"steer":0.04899999871850014,"brake":0.0,"hand_brake":false,"reverse":false,"manual_gear_shift":false,"gear":0},"transform":{"location":{"x":26.437633514404297,"y":-57.40040969848633,"z":-0.031556740403175354},"rotation":{"pitch":0.045147549360990524,"yaw":0.02378040924668312,"roll":-0.004669188521802425}},"velocity":{"x":1.2552217245101929,"y":0.03839318826794624,"z":0.2014344334602356},"angular_velocity":{"x":0.10473185032606125,"y":-0.7195183038711548,"z":1.4745585918426514},"acceleration":{"x":16.650588989257812,"y":0.7526043057441711,"z":-0.6454387307167053},"speed_mps":1.2718614097342393,"speed_kph":4.578701075043262,"speed_limit_kph":30.0,"collisions_this_frame":[],"waypoint":{"x":26.437631607055664,"y":-57.407772064208984,"z":0.0},"lane_deviation_m":0.032404202967882156,"lane_width":3.5,"goal":{"x":-113.40350341796875,"y":-25.76747703552246,"z":0.5999950766563416},"fault":{"name":"camera_blackout","severity":1.0},"capture_flags":{"save_rgb":true,"save_depth":false,"video_rgb":true,"video_depth":false}}
{"frame":14701,"timestamp":{"delta_seconds":0.05000000074505806,"elapsed_seconds":148.3889693794772},"control":{"throttle":1.0,"steer":0.03200000151991844,"brake":0.0,"hand_brake":false,"reverse":false,"manual_gear_shift":false,"gear":0},"transform":{"location":{"x":26.523916244506836,"y":-57.39876937866211,"z":-0.022899169474840164},"rotation":{"pitch":0.07914140075445175,"yaw":0.09146273881196976,"roll":-0.006225585471838713}},"velocity":{"x":1.9908332824707031,"y":0.04462650790810585,"z":0.1607610434293747},"angular_velocity":{"x":0.02183915115892887,"y":-0.5902106761932373,"z":1.4497588872909546},"acceleration":{"x":14.712230682373047,"y":0.12466639280319214,"z":-0.813467800617218},"speed_mps":1.9978120023880246,"speed_kph":7.192123208596889,"speed_limit_kph":30.0,"collisions_this_frame":[],"waypoint":{"x":26.52391242980957,"y":-57.407806396484375,"z":0.0},"lane_deviation_m":0.02461787313222885,"lane_width":3.5,"goal":{"x":-113.40350341796875,"y":-25.76747703552246,"z":0.5999950766563416},"fault":{"name":"camera_blackout","severity":1.0},"capture_flags":{"save_rgb":true,"save_depth":false,"video_rgb":true,"video_depth":false}}
{"frame":14702,"timestamp":{"delta_seconds":0.05000000074505806,"elapsed_seconds":148.43896938022226},"control":{"throttle":1.0,"steer":0.03099999949336052,"brake":0.0,"hand_brake":false,"reverse":false,"manual_gear_shift":false,"gear":0},"transform":{"location":{"x":26.640565872192383,"y":-57.396644592285156,"z":-0.016155624762177467},"rotation":{"pitch":0.10026717185974121,"yaw":0.17302264273166656,"roll":-0.006988525390625}},"velocity":{"x":2.5410351753234863,"y":0.05722177401185036,"z":0.1224164143204689},"angular_velocity":{"x":0.01512217614799738,"y":-0.31735432147979736,"z":1.7805248498916626},"acceleration":{"x":11.004037857055664,"y":0.25190532207489014,"z":-0.7668925523757935},"speed_mps":2.5446256840933215,"speed_kph":9.160652462735957,"speed_limit_kph":30.0,"collisions_this_frame":[],"waypoint":{"x":26.640565872192383,"y":-57.40785598754883,"z":0.0},"lane_deviation_m":0.01966467872262001,"lane_width":3.5,"goal":{"x":-113.40350341796875,"y":-25.76747703552246,"z":0.5999950766563416},"fault":{"name":"camera_blackout","severity":1.0},"capture_flags":{"save_rgb":true,"save_depth":false,"video_rgb":true,"video_depth":false}}
{"frame":14703,"timestamp":{"delta_seconds":0.05000000074505806,"elapsed_seconds":148.48896938096732},"control":{"throttle":1.0,"steer":0.026000000536441803,"brake":0.0,"hand_brake":false,"reverse":false,"manual_gear_shift":false,"gear":0},"transform":{"location":{"x":26.78192901611328,"y":-57.3941535949707,"z":-0.011083068326115608},"rotation":{"pitch":0.11004800349473953,"yaw":0.25788718461990356,"roll":-0.006622314453125}},"velocity":{"x":3.0060460567474365,"y":0.0631183311343193,"z":0.09030629694461823},"angular_velocity":{"x":-0.005097041837871075,"y":-0.12450850009918213,"z":1.7158935070037842},"acceleration":{"x":9.300217628479004,"y":0.11793114244937897,"z":-0.6422023773193359},"speed_mps":3.0080645016820773,"speed_kph":10.829032206055478,"speed_limit_kph":30.0,"collisions_this_frame":[],"waypoint":{"x":26.781930923461914,"y":-57.40791320800781,"z":0.0},"lane_deviation_m":0.017668088898062706,"lane_width":3.5,"goal":{"x":-113.40350341796875,"y":-25.76747703552246,"z":0.5999950766563416},"fault":{"name":"camera_blackout","severity":1.0},"capture_flags":{"save_rgb":true,"save_depth":false,"video_rgb":true,"video_depth":false}}
{"frame":14704,"timestamp":{"delta_seconds":0.05000000074505806,"elapsed_seconds":148.53896938171238},"control":{"throttle":1.0,"steer":0.03700000047683716,"brake":0.0,"hand_brake":false,"reverse":false,"manual_gear_shift":false,"gear":0},"transform":{"location":{"x":26.944725036621094,"y":-57.39060974121094,"z":-0.007364921271800995},"rotation":{"pitch":0.11252736300230026,"yaw":0.37854307889938354,"roll":-0.009216307662427425}},"velocity":{"x":3.417126178741455,"y":0.09554529190063477,"z":0.06511127203702927},"angular_velocity":{"x":0.05129111930727959,"y":-0.009534478187561035,"z":2.6790707111358643},"acceleration":{"x":8.221602439880371,"y":0.6485391855239868,"z":-0.5039005279541016},"speed_mps":3.4190817044918416,"speed_kph":12.30869413617063,"speed_limit_kph":30.0,"collisions_this_frame":[],"waypoint":{"x":26.944726943969727,"y":-57.40797805786133,"z":0.0},"lane_deviation_m":0.018865324556827545,"lane_width":3.5,"goal":{"x":-113.40350341796875,"y":-25.76747703552246,"z":0.5999950766563416},"fault":{"name":"camera_blackout","severity":1.0},"capture_flags":{"save_rgb":true,"save_depth":false,"video_rgb":true,"video_depth":false}}
{"frame":14705,"timestamp":{"delta_seconds":0.05000000074505806,"elapsed_seconds":148.58896938245744},"control":{"throttle":1.0,"steer":0.03400000184774399,"brake":0.0,"hand_brake":false,"reverse":false,"manual_gear_shift":false,"gear":0},"transform":{"location":{"x":27.12714385986328,"y":-57.38617706298828,"z":-0.004693679511547089},"rotation":{"pitch":0.11116815358400345,"yaw":0.5154427289962769,"roll":-0.01025390625}},"velocity":{"x":3.79955792427063,"y":0.11143835633993149,"z":0.04613466188311577},"angular_velocity":{"x":0.01237248070538044,"y":0.04592832550406456,"z":2.811157464981079},"acceleration":{"x":7.648634910583496,"y":0.31786128878593445,"z":-0.37953221797943115},"speed_mps":3.8014717326554663,"speed_kph":13.68529823755968,"speed_limit_kph":30.0,"collisions_this_frame":[],"waypoint":{"x":27.12714958190918,"y":-57.40805435180664,"z":0.0},"lane_deviation_m":0.02237512916326523,"lane_width":3.5,"goal":{"x":-113.40350341796875,"y":-25.76747703552246,"z":0.5999950766563416},"fault":{"name":"camera_blackout","severity":1.0},"capture_flags":{"save_rgb":true,"save_depth":false,"video_rgb":true,"video_depth":false}}
{"frame":14706,"timestamp":{"delta_seconds":0.05000000074505806,"elapsed_seconds":148.6389693832025},"control":{"throttle":1.0,"steer":0.03400000184774399,"brake":0.0,"hand_brake":false,"reverse":false,"manual_gear_shift":false,"gear":0},"transform":{"location":{"x":27.328102111816406,"y":-57.380882263183594,"z":-0.0028034590650349855},"rotation":{"pitch":0.10813555121421814,"yaw":0.6628664135932922,"roll":-0.01080322265625}},"velocity":{"x":4.164378643035889,"y":0.1309199184179306,"z":0.032249126583337784},"angular_velocity":{"x":0.010753510519862175,"y":0.06740132719278336,"z":3.0423715114593506},"acceleration":{"x":7.296414375305176,"y":0.3896312415599823,"z":-0.2777107059955597},"speed_mps":4.166560873643559,"speed_kph":14.999619145116812,"speed_limit_kph":30.0,"collisions_this_frame":[],"waypoint":{"x":27.328107833862305,"y":-57.40813446044922,"z":0.0},"lane_deviation_m":0.02739601582288742,"lane_width":3.5,"goal":{"x":-113.40350341796875,"y":-25.76747703552246,"z":0.5999950766563416},"fault":{"name":"camera_blackout","severity":1.0},"capture_flags":{"save_rgb":true,"save_depth":false,"video_rgb":true,"video_depth":false}}
{"frame":14707,"timestamp":{"delta_seconds":0.05000000074505806,"elapsed_seconds":148.68896938394755},"control":{"throttle":1.0,"steer":0.0430000014603138,"brake":0.0,"hand_brake":false,"reverse":false,"manual_gear_shift":false,"gear":0},"transform":{"location":{"x":27.54693031311035,"y":-57.37406921386719,"z":-0.0014824294485151768},"rotation":{"pitch":0.10459750890731812,"yaw":0.8483840823173523,"roll":-0.01388549618422985}},"velocity":{"x":4.517504692077637,"y":0.17258313298225403,"z":0.02229565568268299},"angular_velocity":{"x":0.059311166405677795,"y":0.07183182239532471,"z":4.000355243682861},"acceleration":{"x":7.062520980834961,"y":0.8332642912864685,"z":-0.19906941056251526},"speed_mps":4.520855082503282,"speed_kph":16.275078297011813,"speed_limit_kph":30.0,"collisions_this_frame":[],"waypoint":{"x":27.546937942504883,"y":-57.408226013183594,"z":0.0},"lane_deviation_m":0.034188952296972275,"lane_width":3.5,"goal":{"x":-113.40350341796875,"y":-25.76747703552246,"z":0.5999950766563416},"fault":{"name":"camera_blackout","severity":1.0},"capture_flags":{"save_rgb":true,"save_depth":false,"video_rgb":true,"video_depth":false}}
{"frame":14708,"timestamp":{"delta_seconds":0.05000000074505806,"elapsed_seconds":148.7389693846926},"control":{"throttle":1.0,"steer":0.023000000044703484,"brake":0.0,"hand_brake":false,"reverse":false,"manual_gear_shift":false,"gear":0},"transform":{"location":{"x":27.783308029174805,"y":-57.36692810058594,"z":-0.0005684662028215826},"rotation":{"pitch":0.10125071555376053,"yaw":1.000167965888977,"roll":-0.01049804501235485}},"velocity":{"x":4.866957187652588,"y":0.15965373814105988,"z":0.015277575701475143},"angular_velocity":{"x":-0.07542622834444046,"y":0.06298881769180298,"z":2.710883378982544},"acceleration":{"x":6.989049911499023,"y":-0.25858789682388306,"z":-0.14036160707473755},"speed_mps":4.869599058122231,"speed_kph":17.53055660924003,"speed_limit_kph":30.0,"collisions_this_frame":[],"waypoint":{"x":27.7833194732666,"y":-57.408321380615234,"z":0.0},"lane_deviation_m":0.04139718413352966,"lane_width":3.5,"goal":{"x":-113.40350341796875,"y":-25.76747703552246,"z":0.5999950766563416},"fault":{"name":"camera_blackout","severity":1.0},"capture_flags":{"save_rgb":true,"save_depth":false,"video_rgb":true,"video_depth":false}}
{"frame":14709,"timestamp":{"delta_seconds":0.05000000074505806,"elapsed_seconds":148.78896938543767},"control":{"throttle":1.0,"steer":0.02500000037252903,"brake":0.0,"hand_brake":false,"reverse":false,"manual_gear_shift":false,"gear":0},"transform":{"location":{"x":28.03700065612793,"y":-57.35926818847656,"z":0.00027408599271439016},"rotation":{"pitch":0.09806101769208908,"yaw":1.1369102001190186,"roll":-0.008819580078125}},"velocity":{"x":5.211991310119629,"y":0.17695440351963043,"z":0.01602952927350998},"angular_velocity":{"x":-0.01165956910699606,"y":0.059511296451091766,"z":2.7705299854278564},"acceleration":{"x":6.90068244934082,"y":0.34601330757141113,"z":0.015039071440696716},"speed_mps":5.215019005094444,"speed_kph":18.774068418339997,"speed_limit_kph":30.0,"collisions_this_frame":[],"waypoint":{"x":28.037015914916992,"y":-57.408424377441406,"z":0.0},"lane_deviation_m":0.04915695637464523,"lane_width":3.5,"goal":{"x":-113.40350341796875,"y":-25.76747703552246,"z":0.5999950766563416},"fault":{"name":"camera_blackout","severity":1.0},"capture_flags":{"save_rgb":true,"save_depth":false,"video_rgb":true,"video_depth":false}}
{"frame":14710,"timestamp":{"delta_seconds":0.05000000074505806,"elapsed_seconds":148.83896938618273},"control":{"throttle":1.0,"steer":0.02500000037252903,"brake":0.0,"hand_brake":false,"reverse":false,"manual_gear_shift":false,"gear":0},"transform":{"location":{"x":28.306928634643555,"y":-57.35063171386719,"z":0.0008484649588353932},"rotation":{"pitch":0.09410633891820908,"yaw":1.2806938886642456,"roll":-0.009216307662427425}},"velocity":{"x":5.495654106140137,"y":0.19828523695468903,"z":0.008367633447051048},"angular_velocity":{"x":0.018791139125823975,"y":0.13841862976551056,"z":3.008896827697754},"acceleration":{"x":5.673255920410156,"y":0.4266166687011719,"z":-0.15323790907859802},"speed_mps":5.499236411250077,"speed_kph":19.797251080500278,"speed_limit_kph":30.0,"collisions_this_frame":[],"waypoint":{"x":28.306947708129883,"y":-57.40853500366211,"z":0.0},"lane_deviation_m":0.057909511029720306,"lane_width":3.5,"goal":{"x":-113.40350341796875,"y":-25.76747703552246,"z":0.5999950766563416},"fault":{"name":"camera_blackout","severity":1.0},"capture_flags":{"save_rgb":true,"save_depth":false,"video_rgb":true,"video_depth":false}}
{"frame":14711,"timestamp":{"delta_seconds":0.05000000074505806,"elapsed_seconds":148.88896938692778},"control":{"throttle":1.0,"steer":0.041999999433755875,"brake":0.0,"hand_brake":false,"reverse":false,"manual_gear_shift":false,"gear":0},"transform":{"location":{"x":28.582706451416016,"y":-57.34055709838867,"z":0.0012146758381277323},"rotation":{"pitch":0.08110849559307098,"yaw":1.4646297693252563,"roll":-0.013336181640625}},"velocity":{"x":5.557951927185059,"y":0.23883187770843506,"z":0.004428701475262642},"angular_velocity":{"x":0.06779108941555023,"y":0.27066469192504883,"z":4.106233596801758},"acceleration":{"x":1.2459564208984375,"y":0.8109328150749207,"z":-0.07877863943576813},"speed_mps":5.56308276984143,"speed_kph":20.02709797142915,"speed_limit_kph":30.0,"collisions_this_frame":[],"waypoint":{"x":28.582731246948242,"y":-57.40864944458008,"z":0.0},"lane_deviation_m":0.06810317933559418,"lane_width":3.5,"goal":{"x":-113.40350341796875,"y":-25.76747703552246,"z":0.5999950766563416},"fault":{"name":"camera_blackout","severity":1.0},"capture_flags":{"save_rgb":true,"save_depth":false,"video_rgb":true,"video_depth":false}}
{"frame":14712,"timestamp":{"delta_seconds":0.05000000074505806,"elapsed_seconds":148.93896938767284},"control":{"throttle":1.0,"steer":0.03400000184774399,"brake":0.0,"hand_brake":false,"reverse":false,"manual_gear_shift":false,"gear":0},"transform":{"location":{"x":28.866830825805664,"y":-57.32893753051758,"z":0.0014241026947274804},"rotation":{"pitch":0.07177845388650894,"yaw":1.6713303327560425,"roll":-0.01513671875}},"velocity":{"x":5.772887229919434,"y":0.26868829131126404,"z":0.0023862551897764206},"angular_velocity":{"x":0.03214394301176071,"y":0.13303804397583008,"z":4.042537689208984},"acceleration":{"x":4.2987060546875,"y":0.5971282720565796,"z":-0.040848925709724426},"speed_mps":5.779137138143416,"speed_kph":20.8048936973163,"speed_limit_kph":30.0,"collisions_this_frame":[],"waypoint":{"x":28.866857528686523,"y":-57.40876388549805,"z":0.0},"lane_deviation_m":0.0798390582203865,"lane_width":3.5,"goal":{"x":-113.40350341796875,"y":-25.76747703552246,"z":0.5999950766563416},"fault":{"name":"camera_blackout","severity":1.0},"capture_flags":{"save_rgb":true,"save_depth":false,"video_rgb":true,"video_depth":false}}
{"frame":14713,"timestamp":{"delta_seconds":0.05000000074505806,"elapsed_seconds":148.9889693884179},"control":{"throttle":1.0,"steer":0.019999999552965164,"brake":0.0,"hand_brake":false,"reverse":false,"manual_gear_shift":false,"gear":0},"transform":{"location":{"x":29.162405014038086,"y":-57.31671142578125,"z":0.0015312957111746073},"rotation":{"pitch":0.06785109639167786,"yaw":1.8350238800048828,"roll":-0.011688231490552425}},"velocity":{"x":6.008678913116455,"y":0.26569241285324097,"z":0.0013084029778838158},"angular_velocity":{"x":-0.07758795469999313,"y":0.05015858635306358,"z":2.6642074584960938},"acceleration":{"x":4.71583366394043,"y":-0.059917569160461426,"z":-0.021557044237852097},"speed_mps":6.014550394759069,"speed_kph":21.65238142113265,"speed_limit_kph":30.0,"collisions_this_frame":[],"waypoint":{"x":29.16243553161621,"y":-57.40888595581055,"z":0.0},"lane_deviation_m":0.09218725562095642,"lane_width":3.5,"goal":{"x":-113.40350341796875,"y":-25.76747703552246,"z":0.5999950766563416},"fault":{"name":"camera_blackout","severity":1.0},"capture_flags":{"save_rgb":true,"save_depth":false,"video_rgb":true,"video_depth":false}}
{"frame":14714,"timestamp":{"delta_seconds":0.05000000074505806,"elapsed_seconds":149.03896938916296},"control":{"throttle":1.0,"steer":0.04800000041723251,"brake":0.0,"hand_brake":false,"reverse":false,"manual_gear_shift":false,"gear":0},"transform":{"location":{"x":29.473106384277344,"y":-57.30199432373047,"z":0.0015685653779655695},"rotation":{"pitch":0.06946302205324173,"yaw":2.070111036300659,"roll":-0.01898193173110485}},"velocity":{"x":6.398875713348389,"y":0.3557933270931244,"z":0.0007330321823246777},"angular_velocity":{"x":0.19002196192741394,"y":-0.1633731871843338,"z":5.720527648925781},"acceleration":{"x":7.803936004638672,"y":1.8020182847976685,"z":-0.011507416144013405},"speed_mps":6.408759616635658,"speed_kph":23.071534619888368,"speed_limit_kph":30.0,"collisions_this_frame":[],"waypoint":{"x":29.473146438598633,"y":-57.40901184082031,"z":0.0},"lane_deviation_m":0.1070290207862854,"lane_width":3.5,"goal":{"x":-113.40350341796875,"y":-25.76747703552246,"z":0.5999950766563416},"fault":{"name":"camera_blackout","severity":1.0},"capture_flags":{"save_rgb":true,"save_depth":false,"video_rgb":true,"video_depth":false}}
{"frame":14715,"timestamp":{"delta_seconds":0.05000000074505806,"elapsed_seconds":149.08896938990802},"control":{"throttle":1.0,"steer":0.04399999976158142,"brake":0.0,"hand_brake":false,"reverse":false,"manual_gear_shift":false,"gear":0},"transform":{"location":{"x":29.804847717285156,"y":-57.284061431884766,"z":0.0015536879654973745},"rotation":{"pitch":0.07654592394828796,"yaw":2.368425130844116,"roll":-0.02426147274672985}},"velocity":{"x":6.735276222229004,"y":0.41112640500068665,"z":0.0004201602714601904},"angular_velocity":{"x":0.039461035281419754,"y":-0.03724663332104683,"z":5.976919651031494},"acceleration":{"x":6.728010177612305,"y":1.1066615581512451,"z":-0.006257438100874424},"speed_mps":6.747812303787565,"speed_kph":24.292124293635233,"speed_limit_kph":30.0,"collisions_this_frame":[],"waypoint":{"x":29.80489158630371,"y":-57.409149169921875,"z":0.0},"lane_deviation_m":0.125097393989563,"lane_width":3.5,"goal":{"x":-113.40350341796875,"y":-25.76747703552246,"z":0.5999950766563416},"fault":{"name":"camera_blackout","severity":1.0},"capture_flags":{"save_rgb":true,"save_depth":false,"video_rgb":true,"video_depth":false}}
{"frame":14716,"timestamp":{"delta_seconds":0.05000000074505806,"elapsed_seconds":149.13896939065307},"control":{"throttle":1.0,"steer":0.027000000700354576,"brake":0.0,"hand_brake":false,"reverse":false,"manual_gear_shift":false,"gear":0},"transform":{"location":{"x":30.151500701904297,"y":-57.26456832885742,"z":0.0015602874336764216},"rotation":{"pitch":0.07804856449365616,"yaw":2.6246345043182373,"roll":-0.02117919735610485}},"velocity":{"x":7.0659990310668945,"y":0.43007612228393555,"z":0.00024889945052564144},"angular_velocity":{"x":-0.05583098158240318,"y":-0.034516192972660065,"z":4.676334381103516},"acceleration":{"x":6.6144561767578125,"y":0.378994345664978,"z":-0.0034252163022756577},"speed_mps":7.079075352046199,"speed_kph":25.484671267366316,"speed_limit_kph":30.0,"collisions_this_frame":[],"waypoint":{"x":30.151552200317383,"y":-57.4092903137207,"z":0.0},"lane_deviation_m":0.14473040401935577,"lane_width":3.5,"goal":{"x":-113.40350341796875,"y":-25.76747703552246,"z":0.5999950766563416},"fault":{"name":"camera_blackout","severity":1.0},"capture_flags":{"save_rgb":true,"save_depth":false,"video_rgb":true,"video_depth":false}}
{"frame":14717,"timestamp":{"delta_seconds":0.05000000074505806,"elapsed_seconds":149.18896939139813},"control":{"throttle":1.0,"steer":0.02199999988079071,"brake":0.0,"hand_brake":false,"reverse":false,"manual_gear_shift":false,"gear":0},"transform":{"location":{"x":30.51419448852539,"y":-57.24383544921875,"z":0.0015624618390575051},"rotation":{"pitch":0.07927799969911575,"yaw":2.829343557357788,"roll":-0.01739501766860485}},"velocity":{"x":7.379360675811768,"y":0.4484004080295563,"z":0.00015219688066281378},"angular_velocity":{"x":-0.06326072663068771,"y":-0.021639546379446983,"z":3.774186849594116},"acceleration":{"x":6.267232894897461,"y":0.36648571491241455,"z":-0.0019340513972565532},"speed_mps":7.392971454888898,"speed_kph":26.614697237600033,"speed_limit_kph":30.0,"collisions_this_frame":[],"waypoint":{"x":30.514257431030273,"y":-57.40943908691406,"z":0.0},"lane_deviation_m":0.16561101377010345,"lane_width":3.5,"goal":{"x":-113.40350341796875,"y":-25.76747703552246,"z":0.5999950766563416},"fault":{"name":"camera_blackout","severity":1.0},"capture_flags":{"save_rgb":true,"save_depth":false,"video_rgb":true,"video_depth":false}}
{"frame":14718,"timestamp":{"delta_seconds":0.05000000074505806,"elapsed_seconds":149.2389693921432},"control":{"throttle":1.0,"steer":0.0430000014603138,"brake":0.0,"hand_brake":false,"reverse":false,"manual_gear_shift":false,"gear":0},"transform":{"location":{"x":30.894290924072266,"y":-57.21996307373047,"z":0.0015550613170489669},"rotation":{"pitch":0.08153196424245834,"yaw":3.0910768508911133,"roll":-0.0238037109375}},"velocity":{"x":7.750568866729736,"y":0.5436731576919556,"z":9.261131344828755e-05},"angular_velocity":{"x":0.16682305932044983,"y":-0.055397022515535355,"z":6.310454845428467},"acceleration":{"x":7.424163818359375,"y":1.9054549932479858,"z":-0.0011917112860828638},"speed_mps":7.769613778618076,"speed_kph":27.970609603025075,"speed_limit_kph":30.0,"collisions_this_frame":[],"waypoint":{"x":30.894365310668945,"y":-57.40959167480469,"z":0.0},"lane_deviation_m":0.18963497877120972,"lane_width":3.5,"goal":{"x":-113.40350341796875,"y":-25.76747703552246,"z":0.5999950766563416},"fault":{"name":"camera_blackout","severity":1.0},"capture_flags":{"save_rgb":true,"save_depth":false,"video_rgb":true,"video_depth":false}}
{"frame":14719,"timestamp":{"delta_seconds":0.05000000074505806,"elapsed_seconds":149.28896939288825},"control":{"throttle":1.0,"steer":0.039000000804662704,"brake":0.0,"hand_brake":false,"reverse":false,"manual_gear_shift":false,"gear":0},"transform":{"location":{"x":31.292160034179688,"y":-57.1926155090332,"z":0.0015440367860719562},"rotation":{"pitch":0.08402498066425323,"yaw":3.397373914718628,"roll":-0.0280761681497097}},"velocity":{"x":8.092531204223633,"y":0.6085128784179688,"z":6.05297063884791e-05},"angular_velocity":{"x":0.05551417917013168,"y":-0.03471951559185982,"z":6.361997127532959},"acceleration":{"x":6.83924674987793,"y":1.2967944145202637,"z":-0.0006416321266442537},"speed_mps":8.115377330611162,"speed_kph":29.215358390200183,"speed_limit_kph":30.0,"collisions_this_frame":[],"waypoint":{"x":31.2922420501709,"y":-57.40975570678711,"z":0.0},"lane_deviation_m":0.21714571118354797,"lane_width":3.5,"goal":{"x":-113.40350341796875,"y":-25.76747703552246,"z":0.5999950766563416},"fault":{"name":"camera_blackout","severity":1.0},"capture_flags":{"save_rgb":true,"save_depth":false,"video_rgb":true,"video_depth":false}}
{"frame":14720,"timestamp":{"delta_seconds":0.05000000074505806,"elapsed_seconds":149.3389693936333},"control":{"throttle":1.0,"steer":0.027000000700354576,"brake":0.0,"hand_brake":false,"reverse":false,"manual_gear_shift":false,"gear":0},"transform":{"location":{"x":31.708927154541016,"y":-57.16256332397461,"z":0.0015288161812350154},"rotation":{"pitch":0.08703026920557022,"yaw":3.6749603748321533,"roll":-0.0266418419778347}},"velocity":{"x":8.492413520812988,"y":0.6530786752700806,"z":3.629684215411544e-05},"angular_velocity":{"x":-0.025588706135749817,"y":-0.07309062033891678,"z":5.060137748718262},"acceleration":{"x":7.997646331787109,"y":0.8913159370422363,"z":-0.00048465729923918843},"speed_mps":8.517487843601376,"speed_kph":30.662956236964956,"speed_limit_kph":30.0,"collisions_this_frame":[],"waypoint":{"x":31.709020614624023,"y":-57.40992736816406,"z":0.0},"lane_deviation_m":0.24736878275871277,"lane_width":3.5,"goal":{"x":-113.40350341796875,"y":-25.76747703552246,"z":0.5999950766563416},"fault":{"name":"camera_blackout","severity":1.0},"capture_flags":{"save_rgb":true,"save_depth":false,"video_rgb":true,"video_depth":false}}
{"frame":14721,"timestamp":{"delta_seconds":0.05000000074505806,"elapsed_seconds":149.38896939437836},"control":{"throttle":1.0,"steer":0.023000000044703484,"brake":0.0,"hand_brake":false,"reverse":false,"manual_gear_shift":false,"gear":0},"transform":{"location":{"x":32.14447021484375,"y":-57.13015365600586,"z":0.0015155791770666838},"rotation":{"pitch":0.08951645344495773,"yaw":3.9182262420654297,"roll":-0.02426147274672985}},"velocity":{"x":8.854375839233398,"y":0.6951901912689209,"z":2.502441384422127e-05},"angular_velocity":{"x":-0.03633604198694229,"y":-0.039406899362802505,"z":4.633231163024902},"acceleration":{"x":7.239246368408203,"y":0.8422303199768066,"z":-0.00022544857347384095},"speed_mps":8.881624902294787,"speed_kph":31.973849648261233,"speed_limit_kph":30.0,"collisions_this_frame":[],"waypoint":{"x":32.14457702636719,"y":-57.41010284423828,"z":0.0},"lane_deviation_m":0.2799533009529114,"lane_width":3.5,"goal":{"x":-113.40350341796875,"y":-25.76747703552246,"z":0.5999950766563416},"fault":{"name":"camera_blackout","severity":1.0},"capture_flags":{"save_rgb":true,"save_depth":false,"video_rgb":true,"video_depth":false}}
{"frame":14722,"timestamp":{"delta_seconds":0.05000000074505806,"elapsed_seconds":149.43896939512342},"control":{"throttle":1.0,"steer":0.024000000208616257,"brake":0.0,"hand_brake":false,"reverse":false,"manual_gear_shift":false,"gear":0},"transform":{"location":{"x":32.59958267211914,"y":-57.09485626220703,"z":0.0015008925693109632},"rotation":{"pitch":0.0922212079167366,"yaw":4.149098873138428,"roll":-0.02435302734375}},"velocity":{"x":9.264708518981934,"y":0.7588465809822083,"z":1.9092560251010582e-05},"angular_velocity":{"x":0.022551296278834343,"y":-0.06423632800579071,"z":4.618412494659424},"acceleration":{"x":8.206653594970703,"y":1.273127794265747,"z":-0.0001186370718642138},"speed_mps":9.295734079432851,"speed_kph":33.46464268595827,"speed_limit_kph":30.0,"collisions_this_frame":[],"waypoint":{"x":32.59970474243164,"y":-57.4102897644043,"z":0.0},"lane_deviation_m":0.31543707847595215,"lane_width":3.5,"goal":{"x":-113.40350341796875,"y":-25.76747703552246,"z":0.5999950766563416},"fault":{"name":"camera_blackout","severity":1.0},"capture_flags":{"save_rgb":true,"save_depth":false,"video_rgb":true,"video_depth":false}}
{"frame":14723,"timestamp":{"delta_seconds":0.05000000074505806,"elapsed_seconds":149.48896939586848},"control":{"throttle":1.0,"steer":0.008999999612569809,"brake":0.0,"hand_brake":false,"reverse":false,"manual_gear_shift":false,"gear":0},"transform":{"location":{"x":33.074764251708984,"y":-57.05751037597656,"z":0.001485862652771175},"rotation":{"pitch":0.09487815201282501,"yaw":4.321662425994873,"roll":-0.0191650353372097}},"velocity":{"x":9.659406661987305,"y":0.7781664729118347,"z":1.2454986062948592e-05},"angular_velocity":{"x":-0.10177026689052582,"y":-0.05036844685673714,"z":2.917937994003296},"acceleration":{"x":7.893962860107422,"y":0.3863978385925293,"z":-0.00013275147648528218},"speed_mps":9.690700703321916,"speed_kph":34.886522531958896,"speed_limit_kph":30.0,"collisions_this_frame":[],"waypoint":{"x":33.07490158081055,"y":-57.410484313964844,"z":0.0},"lane_deviation_m":0.35297709703445435,"lane_width":3.5,"goal":{"x":-113.40350341796875,"y":-25.76747703552246,"z":0.5999950766563416},"fault":{"name":"camera_blackout","severity":1.0},"capture_flags":{"save_rgb":true,"save_depth":false,"video_rgb":true,"video_depth":false}}
{"frame":14724,"timestamp":{"delta_seconds":0.05000000074505806,"elapsed_seconds":149.53896939661354},"control":{"throttle":0.0,"steer":0.01600000075995922,"brake":0.0,"hand_brake":false,"reverse":false,"manual_gear_shift":false,"gear":0},"transform":{"location":{"x":33.56908416748047,"y":-57.01768493652344,"z":0.0014804076636210084},"rotation":{"pitch":0.09588901698589325,"yaw":4.474672317504883,"roll":-0.01879882626235485}},"velocity":{"x":10.023334503173828,"y":0.8374111652374268,"z":7.839203135517891e-06},"angular_velocity":{"x":0.01799924485385418,"y":0.008117515593767166,"z":3.128267526626587},"acceleration":{"x":7.278556823730469,"y":1.1848938465118408,"z":-9.231566218659282e-05},"speed_mps":10.058254919330723,"speed_kph":36.209717709590606,"speed_limit_kph":30.0,"collisions_this_frame":[],"waypoint":{"x":33.569236755371094,"y":-57.41068649291992,"z":0.0},"lane_deviation_m":0.3930043876171112,"lane_width":3.5,"goal":{"x":-113.40350341796875,"y":-25.76747703552246,"z":0.5999950766563416},"fault":{"name":"camera_blackout","severity":1.0},"capture_flags":{"save_rgb":true,"save_depth":false,"video_rgb":true,"video_depth":false}}
{"frame":14725,"timestamp":{"delta_seconds":0.05000000074505806,"elapsed_seconds":149.5889693973586},"control":{"throttle":0.7977274656295776,"steer":0.04699999839067459,"brake":0.0,"hand_brake":false,"reverse":false,"manual_gear_shift":false,"gear":0},"transform":{"location":{"x":34.0782470703125,"y":-56.972782135009766,"z":0.001501388498581946},"rotation":{"pitch":0.09237830340862274,"yaw":4.7605509757995605,"roll":-0.032745361328125}},"velocity":{"x":10.279488563537598,"y":0.984338641166687,"z":4.0912627810030244e-06},"angular_velocity":{"x":0.28921112418174744,"y":0.12796159088611603,"z":7.071977615356445},"acceleration":{"x":5.123081207275391,"y":2.938549518585205,"z":-7.495880709029734e-05},"speed_mps":10.32650994714143,"speed_kph":37.17543580970915,"speed_limit_kph":30.0,"collisions_this_frame":[],"waypoint":{"x":34.07841491699219,"y":-57.410892486572266,"z":0.0},"lane_deviation_m":0.43811294436454773,"lane_width":3.5,"goal":{"x":-113.40350341796875,"y":-25.76747703552246,"z":0.5999950766563416},"fault":{"name":"camera_blackout","severity":1.0},"capture_flags":{"save_rgb":true,"save_depth":false,"video_rgb":true,"video_depth":false}}
{"frame":14726,"timestamp":{"delta_seconds":0.05000000074505806,"elapsed_seconds":149.63896939810365},"control":{"throttle":0.8484678864479065,"steer":0.026000000536441803,"brake":0.0,"hand_brake":false,"reverse":false,"manual_gear_shift":false,"gear":0},"transform":{"location":{"x":34.599853515625,"y":-56.92390823364258,"z":0.0015347670996561646},"rotation":{"pitch":0.08668875694274902,"yaw":5.081334114074707,"roll":-0.0353393517434597}},"velocity":{"x":10.529059410095215,"y":1.0377087593078613,"z":5.645752025884576e-06},"angular_velocity":{"x":-0.01133236289024353,"y":0.11298312991857529,"z":6.045818328857422},"acceleration":{"x":4.991416931152344,"y":1.0674023628234863,"z":3.1089784897631034e-05},"speed_mps":10.580072378320043,"speed_kph":38.088260561952154,"speed_limit_kph":30.0,"collisions_this_frame":[],"waypoint":{"x":34.60004425048828,"y":-57.41110610961914,"z":0.0},"lane_deviation_m":0.4872003197669983,"lane_width":3.5,"goal":{"x":-113.40350341796875,"y":-25.76747703552246,"z":0.5999950766563416},"fault":{"name":"camera_blackout","severity":1.0},"capture_flags":{"save_rgb":true,"save_depth":false,"video_rgb":true,"video_depth":false}}
{"frame":14727,"timestamp":{"delta_seconds":0.05000000074505806,"elapsed_seconds":149.6889693988487},"control":{"throttle":0.7984678745269775,"steer":0.004999999888241291,"brake":0.0,"hand_brake":false,"reverse":false,"manual_gear_shift":false,"gear":0},"transform":{"location":{"x":35.133506774902344,"y":-56.873558044433594,"z":0.0015684127574786544},"rotation":{"pitch":0.08099237829446793,"yaw":5.29241943359375,"roll":-0.0263671875}},"velocity":{"x":10.763751029968262,"y":1.0357117652893066,"z":3.3855437777674524e-06},"angular_velocity":{"x":-0.1923232525587082,"y":0.09683216363191605,"z":3.417890787124634},"acceleration":{"x":4.6938323974609375,"y":-0.03993988037109375,"z":-4.520416405284777e-05},"speed_mps":10.813465452661925,"speed_kph":38.92847562958293,"speed_limit_kph":30.0,"collisions_this_frame":[],"waypoint":{"x":35.13371658325195,"y":-57.41132354736328,"z":0.0},"lane_deviation_m":0.5377678275108337,"lane_width":3.5,"goal":{"x":-113.40350341796875,"y":-25.76747703552246,"z":0.5999950766563416},"fault":{"name":"camera_blackout","severity":1.0},"capture_flags":{"save_rgb":true,"save_depth":false,"video_rgb":true,"video_depth":false}}
{"frame":14728,"timestamp":{"delta_seconds":0.05000000074505806,"elapsed_seconds":149.73896939959377},"control":{"throttle":0.7484678626060486,"steer":0.014999999664723873,"brake":0.0,"hand_brake":false,"reverse":false,"manual_gear_shift":false,"gear":0},"transform":{"location":{"x":35.67842102050781,"y":-56.82100296020508,"z":0.0015999984461814165},"rotation":{"pitch":0.07563067972660065,"yaw":5.45303201675415,"roll":-0.02447509579360485}},"velocity":{"x":10.98321533203125,"y":1.092581868171692,"z":4.19616708313697e-06},"angular_velocity":{"x":-0.008642579428851604,"y":0.10416053235530853,"z":3.003329038619995},"acceleration":{"x":4.389286041259766,"y":1.137402057647705,"z":1.6212467016885057e-05},"speed_mps":11.037425160264574,"speed_kph":39.734730576952465,"speed_limit_kph":30.0,"collisions_this_frame":[],"waypoint":{"x":35.67864990234375,"y":-57.41154861450195,"z":0.0},"lane_deviation_m":0.5905478596687317,"lane_width":3.5,"goal":{"x":-113.40350341796875,"y":-25.76747703552246,"z":0.5999950766563416},"fault":{"name":"camera_blackout","severity":1.0},"capture_flags":{"save_rgb":true,"save_depth":false,"video_rgb":true,"video_depth":false}}
{"frame":14729,"timestamp":{"delta_seconds":0.05000000074505806,"elapsed_seconds":149.78896940033883},"control":{"throttle":0.6984678506851196,"steer":-0.004000000189989805,"brake":0.0,"hand_brake":false,"reverse":false,"manual_gear_shift":false,"gear":0},"transform":{"location":{"x":36.23358154296875,"y":-56.76734924316406,"z":0.0016315459506586194},"rotation":{"pitch":0.0702553242444992,"yaw":5.541235446929932,"roll":-0.0167236328125}},"velocity":{"x":11.179770469665527,"y":1.0831230878829956,"z":3.929138074454386e-06},"angular_velocity":{"x":-0.17391721904277802,"y":0.09252607077360153,"z":1.2729548215866089},"acceleration":{"x":3.931102752685547,"y":-0.18917560577392578,"z":-5.340580173651688e-06},"speed_mps":11.232115712452662,"speed_kph":40.43561656482959,"speed_limit_kph":30.0,"collisions_this_frame":[],"waypoint":{"x":36.23383331298828,"y":-57.411773681640625,"z":0.0},"lane_deviation_m":0.6444265246391296,"lane_width":3.5,"goal":{"x":-113.40350341796875,"y":-25.76747703552246,"z":0.5999950766563416},"fault":{"name":"camera_blackout","severity":1.0},"capture_flags":{"save_rgb":true,"save_depth":false,"video_rgb":true,"video_depth":false}}
{"frame":14730,"timestamp":{"delta_seconds":0.05000000074505806,"elapsed_seconds":149.8389694010839},"control":{"throttle":1.0,"steer":-0.0020000000949949026,"brake":0.0,"hand_brake":false,"reverse":false,"manual_gear_shift":false,"gear":0},"transform":{"location":{"x":36.79821014404297,"y":-56.71292495727539,"z":0.001661338726989925},"rotation":{"pitch":0.06520780920982361,"yaw":5.55670166015625,"roll":-0.011260986328125}},"velocity":{"x":11.370711326599121,"y":1.0974916219711304,"z":-3.814697180359872e-08},"angular_velocity":{"x":-0.09256290644407272,"y":0.08109138906002045,"z":-0.30520859360694885},"acceleration":{"x":3.818817138671875,"y":0.2873706817626953,"z":-7.934570021461695e-05},"speed_mps":11.42355303454868,"speed_kph":41.12479092437525,"speed_limit_kph":30.0,"collisions_this_frame":[],"waypoint":{"x":36.798484802246094,"y":-57.41200637817383,"z":0.0},"lane_deviation_m":0.6990834474563599,"lane_width":3.5,"goal":{"x":-113.40350341796875,"y":-25.76747703552246,"z":0.5999950766563416},"fault":{"name":"camera_blackout","severity":1.0},"capture_flags":{"save_rgb":true,"save_depth":false,"video_rgb":true,"video_depth":false}}
{"frame":14731,"timestamp":{"delta_seconds":0.05000000074505806,"elapsed_seconds":149.88896940182894},"control":{"throttle":1.0,"steer":0.006000000052154064,"brake":0.0,"hand_brake":false,"reverse":false,"manual_gear_shift":false,"gear":0},"transform":{"location":{"x":37.373313903808594,"y":-56.65681838989258,"z":0.0016775511903688312},"rotation":{"pitch":0.06242792680859566,"yaw":5.5897040367126465,"roll":-0.01165771484375}},"velocity":{"x":11.595355033874512,"y":1.143815279006958,"z":1.039505036715127e-06},"angular_velocity":{"x":0.02082924358546734,"y":0.03397344797849655,"z":1.155849814414978},"acceleration":{"x":4.4928741455078125,"y":0.9264731407165527,"z":2.155303991457913e-05},"speed_mps":11.651633866290592,"speed_kph":41.94588191864613,"speed_limit_kph":30.0,"collisions_this_frame":[],"waypoint":{"x":37.37361145019531,"y":-57.41223907470703,"z":0.0},"lane_deviation_m":0.7554225921630859,"lane_width":3.5,"goal":{"x":-113.40350341796875,"y":-25.76747703552246,"z":0.5999950766563416},"fault":{"name":"camera_blackout","severity":1.0},"capture_flags":{"save_rgb":true,"save_depth":false,"video_rgb":true,"video_depth":false}}
{"frame":14732,"timestamp":{"delta_seconds":0.05000000074505806,"elapsed_seconds":149.938969402574},"control":{"throttle":0.0,"steer":0.0010000000474974513,"brake":0.0,"hand_brake":false,"reverse":false,"manual_gear_shift":false,"gear":0},"transform":{"location":{"x":37.96048355102539,"y":-56.59907913208008,"z":0.001680831890553236},"rotation":{"pitch":0.0618678517639637,"yaw":5.617166042327881,"roll":-0.010101318359375}},"velocity":{"x":11.837002754211426,"y":1.1679983139038086,"z":1.363754222438729e-06},"angular_velocity":{"x":-0.042831141501665115,"y":0.00607339758425951,"z":0.2757626175880432},"acceleration":{"x":4.832954406738281,"y":0.4836606979370117,"z":6.484983714472037e-06},"speed_mps":11.894488398602643,"speed_kph":42.82015823496952,"speed_limit_kph":30.0,"collisions_this_frame":[],"waypoint":{"x":37.9608039855957,"y":-57.412479400634766,"z":0.0},"lane_deviation_m":0.8134020566940308,"lane_width":3.5,"goal":{"x":-113.40350341796875,"y":-25.76747703552246,"z":0.5999950766563416},"fault":{"name":"camera_blackout","severity":1.0},"capture_flags":{"save_rgb":true,"save_depth":false,"video_rgb":true,"video_depth":false}}
{"frame":14733,"timestamp":{"delta_seconds":0.05000000074505806,"elapsed_seconds":149.98896940331906},"control":{"throttle":1.0,"steer":0.014999999664723873,"brake":0.0,"hand_brake":false,"reverse":false,"manual_gear_shift":false,"gear":0},"transform":{"location":{"x":38.558013916015625,"y":-56.53900909423828,"z":0.0016916656168177724},"rotation":{"pitch":0.06003735959529877,"yaw":5.699880123138428,"roll":-0.0145263671875}},"velocity":{"x":12.021719932556152,"y":1.2358038425445557,"z":-1.6403197378167533e-06},"angular_velocity":{"x":0.09823192656040192,"y":0.06119382381439209,"z":2.4028193950653076},"acceleration":{"x":3.6943435668945312,"y":1.3561105728149414,"z":-6.008147829561494e-05},"speed_mps":12.08507183570162,"speed_kph":43.50625860852583,"speed_limit_kph":30.0,"collisions_this_frame":[],"waypoint":{"x":38.55835723876953,"y":-57.412723541259766,"z":0.0},"lane_deviation_m":0.8737161755561829,"lane_width":3.5,"goal":{"x":-113.40350341796875,"y":-25.76747703552246,"z":0.5999950766563416},"fault":{"name":"camera_blackout","severity":1.0},"capture_flags":{"save_rgb":true,"save_depth":false,"video_rgb":true,"video_depth":false}}
{"frame":14734,"timestamp":{"delta_seconds":0.05000000074505806,"elapsed_seconds":150.03896940406412},"control":{"throttle":1.0,"steer":0.02500000037252903,"brake":0.0,"hand_brake":false,"reverse":false,"manual_gear_shift":false,"gear":0},"transform":{"location":{"x":39.16469192504883,"y":-56.47541427612305,"z":0.0017057036748155951},"rotation":{"pitch":0.05766045302152634,"yaw":5.875487327575684,"roll":-0.022857666015625}},"velocity":{"x":12.210844039916992,"y":1.3259656429290771,"z":-1.0490417707842425e-06},"angular_velocity":{"x":0.15439920127391815,"y":0.05181039869785309,"z":4.088018894195557},"acceleration":{"x":3.782482147216797,"y":1.8032360076904297,"z":1.1825559340650216e-05},"speed_mps":12.282625820784649,"speed_kph":44.217452954824736,"speed_limit_kph":30.0,"collisions_this_frame":[],"waypoint":{"x":39.165061950683594,"y":-57.41297149658203,"z":0.0},"lane_deviation_m":0.9375588297843933,"lane_width":3.5,"goal":{"x":-113.40350341796875,"y":-25.76747703552246,"z":0.5999950766563416},"fault":{"name":"camera_blackout","severity":1.0},"capture_flags":{"save_rgb":true,"save_depth":false,"video_rgb":true,"video_depth":false}}
{"frame":14735,"timestamp":{"delta_seconds":0.05000000074505806,"elapsed_seconds":150.08896940480918},"control":{"throttle":1.0,"steer":0.02800000086426735,"brake":0.0,"hand_brake":false,"reverse":false,"manual_gear_shift":false,"gear":0},"transform":{"location":{"x":39.78205490112305,"y":-56.407737731933594,"z":0.001708297641016543},"rotation":{"pitch":0.0572301521897316,"yaw":6.13585090637207,"roll":-0.03045654483139515}},"velocity":{"x":12.437819480895996,"y":1.4202321767807007,"z":1.554489131194714e-06},"angular_velocity":{"x":0.135089710354805,"y":0.005250261630862951,"z":5.746588706970215},"acceleration":{"x":4.539508819580078,"y":1.8853306770324707,"z":5.207061622058973e-05},"speed_mps":12.518642613131888,"speed_kph":45.067113407274796,"speed_limit_kph":30.0,"collisions_this_frame":[],"waypoint":{"x":39.78245544433594,"y":-57.41322326660156,"z":0.0},"lane_deviation_m":1.0054869651794434,"lane_width":3.5,"goal":{"x":-113.40350341796875,"y":-25.76747703552246,"z":0.5999950766563416},"fault":{"name":"camera_blackout","severity":1.0},"capture_flags":{"save_rgb":true,"save_depth":false,"video_rgb":true,"video_depth":false}}
{"frame":14736,"timestamp":{"delta_seconds":0.05000000074505806,"elapsed_seconds":150.13896940555423},"control":{"throttle":1.0,"steer":0.008999999612569809,"brake":0.0,"hand_brake":false,"reverse":false,"manual_gear_shift":false,"gear":0},"transform":{"location":{"x":40.41191101074219,"y":-56.33721160888672,"z":0.0016992568271234632},"rotation":{"pitch":0.05875328555703163,"yaw":6.360570907592773,"roll":-0.0275878943502903}},"velocity":{"x":12.700356483459473,"y":1.452686071395874,"z":-2.7656554379973386e-07},"angular_velocity":{"x":-0.0792778804898262,"y":-0.05075235292315483,"z":3.889364719390869},"acceleration":{"x":5.250740051269531,"y":0.6490778923034668,"z":-3.6621091567212716e-05},"speed_mps":12.783166729295942,"speed_kph":46.0194002254654,"speed_limit_kph":30.0,"collisions_this_frame":[],"waypoint":{"x":40.41233825683594,"y":-57.413482666015625,"z":0.0},"lane_deviation_m":1.0762724876403809,"lane_width":3.5,"goal":{"x":-113.40350341796875,"y":-25.76747703552246,"z":0.5999950766563416},"fault":{"name":"camera_blackout","severity":1.0},"capture_flags":{"save_rgb":true,"save_depth":false,"video_rgb":true,"video_depth":false}}
{"frame":14737,"timestamp":{"delta_seconds":0.05000000074505806,"elapsed_seconds":150.1889694062993},"control":{"throttle":1.0,"steer":0.03400000184774399,"brake":0.0,"hand_brake":false,"reverse":false,"manual_gear_shift":false,"gear":0},"transform":{"location":{"x":41.05500411987305,"y":-56.26199722290039,"z":0.0016847228398546576},"rotation":{"pitch":0.06123264133930206,"yaw":6.636755466461182,"roll":-0.035797119140625}},"velocity":{"x":12.965620994567871,"y":1.5875030755996704,"z":-6.00814814788464e-07},"angular_velocity":{"x":0.20946545898914337,"y":-0.030404968187212944,"z":6.376880645751953},"acceleration":{"x":5.305290222167969,"y":2.6963400840759277,"z":-6.48498553346144e-06},"speed_mps":13.062445934426597,"speed_kph":47.02480536393575,"speed_limit_kph":30.0,"collisions_this_frame":[],"waypoint":{"x":41.05546569824219,"y":-57.41374588012695,"z":0.0},"lane_deviation_m":1.1517499685287476,"lane_width":3.5,"goal":{"x":-113.40350341796875,"y":-25.76747703552246,"z":0.5999950766563416},"fault":{"name":"camera_blackout","severity":1.0},"capture_flags":{"save_rgb":true,"save_depth":false,"video_rgb":true,"video_depth":false}}
{"frame":14738,"timestamp":{"delta_seconds":0.05000000074505806,"elapsed_seconds":150.23896940704435},"control":{"throttle":1.0,"steer":0.057999998331069946,"brake":0.0,"hand_brake":false,"reverse":false,"manual_gear_shift":false,"gear":0},"transform":{"location":{"x":41.71144104003906,"y":-56.17901611328125,"z":0.001668968121521175},"rotation":{"pitch":0.06393739581108093,"yaw":7.095636367797852,"roll":-0.0547790564596653}},"velocity":{"x":13.22909164428711,"y":1.7880314588546753,"z":-1.8692015828492003e-06},"angular_velocity":{"x":0.3848518133163452,"y":-0.007369538769125938,"z":10.682082176208496},"acceleration":{"x":5.269412994384766,"y":4.010567665100098,"z":-2.5367735361214727e-05},"speed_mps":13.349379095328908,"speed_kph":48.05776474318407,"speed_limit_kph":30.0,"collisions_this_frame":[],"waypoint":{"x":41.711936950683594,"y":-57.41401290893555,"z":0.0},"lane_deviation_m":1.2349979877471924,"lane_width":3.5,"goal":{"x":-113.40350341796875,"y":-25.76747703552246,"z":0.5999950766563416},"fault":{"name":"camera_blackout","severity":1.0},"capture_flags":{"save_rgb":true,"save_depth":false,"video_rgb":true,"video_depth":false}}
{"frame":14739,"timestamp":{"delta_seconds":0.05000000074505806,"elapsed_seconds":150.2889694077894},"control":{"throttle":1.0,"steer":0.02500000037252903,"brake":0.0,"hand_brake":false,"reverse":false,"manual_gear_shift":false,"gear":0},"transform":{"location":{"x":42.38208770751953,"y":-56.09003448486328,"z":0.0016518783522769809},"rotation":{"pitch":0.06683339923620224,"yaw":7.5653486251831055,"roll":-0.0563659593462944}},"velocity":{"x":13.523385047912598,"y":1.8701545000076294,"z":1.4972686130931834e-06},"angular_velocity":{"x":-0.02754616178572178,"y":-0.06192865967750549,"z":8.736645698547363},"acceleration":{"x":5.885868072509766,"y":1.642460823059082,"z":6.732939800713211e-05},"speed_mps":13.652084859390783,"speed_kph":49.14750549380682,"speed_limit_kph":30.0,"collisions_this_frame":[],"waypoint":{"x":42.38261413574219,"y":-57.41428756713867,"z":0.0},"lane_deviation_m":1.3242542743682861,"lane_width":3.5,"goal":{"x":-113.40350341796875,"y":-25.76747703552246,"z":0.5999950766563416},"fault":{"name":"camera_blackout","severity":1.0},"capture_flags":{"save_rgb":true,"save_depth":false,"video_rgb":true,"video_depth":false}}
{"frame":14740,"timestamp":{"delta_seconds":0.05000000074505806,"elapsed_seconds":150.33896940853447},"control":{"throttle":1.0,"steer":0.03999999910593033,"brake":0.0,"hand_brake":false,"reverse":false,"manual_gear_shift":false,"gear":0},"transform":{"location":{"x":43.06719207763672,"y":-55.99445724487305,"z":0.001636238070204854},"rotation":{"pitch":0.06948351114988327,"yaw":8.036572456359863,"roll":-0.06231687590479851}},"velocity":{"x":13.808717727661133,"y":2.028810739517212,"z":-3.356933575560106e-06},"angular_velocity":{"x":0.1587037742137909,"y":-0.028323262929916382,"z":9.8033447265625},"acceleration":{"x":5.706653594970703,"y":3.1731247901916504,"z":-9.70840483205393e-05},"speed_mps":13.95696092632685,"speed_kph":50.24505933477666,"speed_limit_kph":30.0,"collisions_this_frame":[],"waypoint":{"x":43.06776428222656,"y":-57.41456604003906,"z":0.0},"lane_deviation_m":1.4201098680496216,"lane_width":3.5,"goal":{"x":-113.40350341796875,"y":-25.76747703552246,"z":0.5999950766563416},"fault":{"name":"camera_blackout","severity":1.0},"capture_flags":{"save_rgb":true,"save_depth":false,"video_rgb":true,"video_depth":false}}
{"frame":14741,"timestamp":{"delta_seconds":0.05000000074505806,"elapsed_seconds":150.38896940927953},"control":{"throttle":1.0,"steer":0.04100000113248825,"brake":0.0,"hand_brake":false,"reverse":false,"manual_gear_shift":false,"gear":0},"transform":{"location":{"x":43.76667022705078,"y":-55.89101028442383,"z":0.0016228866297751665},"rotation":{"pitch":0.07177162170410156,"yaw":8.551456451416016,"roll":-0.0701904371380806}},"velocity":{"x":14.095725059509277,"y":2.1940808296203613,"z":-4.95910626341356e-07},"angular_velocity":{"x":0.15693046152591705,"y":-0.019996026530861855,"z":10.578208923339844},"acceleration":{"x":5.740146636962891,"y":3.3054018020629883,"z":5.7220458984375e-05},"speed_mps":14.26546373729875,"speed_kph":51.3556694542755,"speed_limit_kph":30.0,"collisions_this_frame":[],"waypoint":{"x":43.76728057861328,"y":-57.414852142333984,"z":0.0},"lane_deviation_m":1.5238428115844727,"lane_width":3.5,"goal":{"x":-113.40350341796875,"y":-25.76747703552246,"z":0.5999950766563416},"fault":{"name":"camera_blackout","severity":1.0},"capture_flags":{"save_rgb":true,"save_depth":false,"video_rgb":true,"video_depth":false}}
