{"frame":28,"timestamp":{"delta_seconds":0.05000000074505806,"elapsed_seconds":3.909465699456632},"control":{"throttle":0.0,"steer":0.0,"brake":1.0,"hand_brake":false,"reverse":false,"manual_gear_shift":false,"gear":0},"transform":{"location":{"x":-87.6230239868164,"y":12.967159271240234,"z":0.48239994049072266},"rotation":{"pitch":0.0,"yaw":-179.84078979492188,"roll":0.0}},"velocity":{"x":0.0,"y":0.0,"z":-1.470000147819519},"angular_velocity":{"x":0.0,"y":0.0,"z":0.0},"acceleration":{"x":0.0,"y":0.0,"z":-9.80000114440918},"speed_mps":1.470000147819519,"speed_kph":5.2920005321502686,"speed_limit_kph":30.0,"collisions_this_frame":[],"waypoint":{"x":-87.62295532226562,"y":12.94051742553711,"z":0.0},"lane_deviation_m":0.48313507437705994,"lane_width":3.5,"goal":{"x":-68.73516845703125,"y":129.30384826660156,"z":0.5999999642372131},"fault":{"name":"camera_blackout","severity":1.0},"capture_flags":{"save_rgb":true,"save_depth":false,"video_rgb":true,"video_depth":false}}
{"frame":29,"timestamp":{"delta_seconds":0.05000000074505806,"elapsed_seconds":3.95946570020169},"control":{"throttle":1.0,"steer":0.06499999761581421,"brake":0.0,"hand_brake":false,"reverse":false,"manual_gear_shift":false,"gear":0},"transform":{"location":{"x":-87.6230239868164,"y":12.967159271240234,"z":0.394199937582016},"rotation":{"pitch":0.0,"yaw":-179.84078979492188,"roll":0.0}},"velocity":{"x":0.0,"y":0.0,"z":-1.9600002765655518},"angular_velocity":{"x":0.0,"y":0.0,"z":0.0},"acceleration":{"x":0.0,"y":0.0,"z":-9.800003051757812},"speed_mps":1.9600002765655518,"speed_kph":7.056000995635986,"speed_limit_kph":30.0,"collisions_this_frame":[],"waypoint":{"x":-87.62295532226562,"y":12.94051742553711,"z":0.0},"lane_deviation_m":0.3950991928577423,"lane_width":3.5,"goal":{"x":-68.73516845703125,"y":129.30384826660156,"z":0.5999999642372131},"fault":{"name":"camera_blackout","severity":1.0},"capture_flags":{"save_rgb":true,"save_depth":false,"video_rgb":true,"video_depth":false}}
{"frame":30,"timestamp":{"delta_seconds":0.05000000074505806,"elapsed_seconds":4.009465700946748},"control":{"throttle":1.0,"steer":0.04699999839067459,"brake":0.0,"hand_brake":false,"reverse":false,"manual_gear_shift":false,"gear":0},"transform":{"location":{"x":-87.6230239868164,"y":12.967159271240234,"z":0.281499981880188},"rotation":{"pitch":0.0,"yaw":-179.84078979492188,"roll":0.0}},"velocity":{"x":0.0,"y":0.0,"z":-2.450000286102295},"angular_velocity":{"x":0.0,"y":0.0,"z":0.0},"acceleration":{"x":0.0,"y":0.0,"z":-9.800000190734863},"speed_mps":2.450000286102295,"speed_kph":8.820001029968262,"speed_limit_kph":30.0,"collisions_this_frame":[],"waypoint":{"x":-87.62295532226562,"y":12.94051742553711,"z":0.0},"lane_deviation_m":0.2827579081058502,"lane_width":3.5,"goal":{"x":-68.73516845703125,"y":129.30384826660156,"z":0.5999999642372131},"fault":{"name":"camera_blackout","severity":1.0},"capture_flags":{"save_rgb":true,"save_depth":false,"video_rgb":true,"video_depth":false}}
{"frame":31,"timestamp":{"delta_seconds":0.05000000074505806,"elapsed_seconds":4.059465701691806},"control":{"throttle":1.0,"steer":0.04899999871850014,"brake":0.0,"hand_brake":false,"reverse":false,"manual_gear_shift":false,"gear":0},"transform":{"location":{"x":-87.6230239868164,"y":12.967159271240234,"z":0.14429987967014313},"rotation":{"pitch":0.0,"yaw":-179.84078979492188,"roll":0.0}},"velocity":{"x":0.0,"y":0.0,"z":-2.93999981880188},"angular_velocity":{"x":0.0,"y":0.0,"z":0.0},"acceleration":{"x":0.0,"y":0.0,"z":-9.7999906539917},"speed_mps":2.93999981880188,"speed_kph":10.583999347686769,"speed_limit_kph":30.0,"collisions_this_frame":[],"waypoint":{"x":-87.62295532226562,"y":12.94051742553711,"z":0.0},"lane_deviation_m":0.1467387080192566,"lane_width":3.5,"goal":{"x":-68.73516845703125,"y":129.30384826660156,"z":0.5999999642372131},"fault":{"name":"camera_blackout","severity":1.0},"capture_flags":{"save_rgb":true,"save_depth":false,"video_rgb":true,"video_depth":false}}
{"frame":32,"timestamp":{"delta_seconds":0.05000000074505806,"elapsed_seconds":4.109465702436864},"control":{"throttle":1.0,"steer":0.041999999433755875,"brake":0.0,"hand_brake":false,"reverse":false,"manual_gear_shift":false,"gear":0},"transform":{"location":{"x":-87.6224594116211,"y":12.965437889099121,"z":0.009863052517175674},"rotation":{"pitch":0.10301973670721054,"yaw":-179.75428771972656,"roll":-0.26739493012428284}},"velocity":{"x":0.023834284394979477,"y":0.009878121316432953,"z":-1.9710824489593506},"angular_velocity":{"x":-9.291232109069824,"y":3.9045188426971436,"z":1.5128848552703857},"acceleration":{"x":0.47668570280075073,"y":0.19756242632865906,"z":19.378347396850586},"speed_mps":1.9712512957481991,"speed_kph":7.096504664693517,"speed_limit_kph":30.0,"collisions_this_frame":[],"waypoint":{"x":-87.62239074707031,"y":12.94051742553711,"z":0.0},"lane_deviation_m":0.02680138126015663,"lane_width":3.5,"goal":{"x":-68.73516845703125,"y":129.30384826660156,"z":0.5999999642372131},"fault":{"name":"camera_blackout","severity":1.0},"capture_flags":{"save_rgb":true,"save_depth":false,"video_rgb":true,"video_depth":false}}
{"frame":33,"timestamp":{"delta_seconds":0.05000000074505806,"elapsed_seconds":4.159465703181922},"control":{"throttle":1.0,"steer":0.04500000178813934,"brake":0.0,"hand_brake":false,"reverse":false,"manual_gear_shift":false,"gear":0},"transform":{"location":{"x":-87.62300872802734,"y":12.964221000671387,"z":-0.04638561233878136},"rotation":{"pitch":0.266630083322525,"yaw":-179.71636962890625,"roll":-0.5796812772750854}},"velocity":{"x":0.008198380470275879,"y":0.013445288874208927,"z":-0.6647555232048035},"angular_velocity":{"x":-3.9705722332000732,"y":2.467128276824951,"z":0.449535608291626},"acceleration":{"x":-0.31271809339523315,"y":0.07134334743022919,"z":26.126537322998047},"speed_mps":0.6649420236881847,"speed_kph":2.393791285277465,"speed_limit_kph":30.0,"collisions_this_frame":[],"waypoint":{"x":-87.6229476928711,"y":12.94051742553711,"z":0.0},"lane_deviation_m":0.05209115147590637,"lane_width":3.5,"goal":{"x":-68.73516845703125,"y":129.30384826660156,"z":0.5999999642372131},"fault":{"name":"camera_blackout","severity":1.0},"capture_flags":{"save_rgb":true,"save_depth":false,"video_rgb":true,"video_depth":false}}
{"frame":34,"timestamp":{"delta_seconds":0.05000000074505806,"elapsed_seconds":4.2094657039269805},"control":{"throttle":1.0,"steer":0.029999999329447746,"brake":0.0,"hand_brake":false,"reverse":false,"manual_gear_shift":false,"gear":0},"transform":{"location":{"x":-87.62281036376953,"y":12.965023040771484,"z":-0.05922431871294975},"rotation":{"pitch":0.25967010855674744,"yaw":-179.70425415039062,"roll":-0.5084227919578552}},"velocity":{"x":0.0007716668769717216,"y":-0.013001646846532822,"z":-0.055187758058309555},"angular_velocity":{"x":2.020264148712158,"y":-1.085858941078186,"z":0.09404193609952927},"acceleration":{"x":-0.14853426814079285,"y":-0.5289387106895447,"z":12.191354751586914},"speed_mps":0.056703852867274224,"speed_kph":0.20413387032218722,"speed_limit_kph":30.0,"collisions_this_frame":[],"waypoint":{"x":-87.62274169921875,"y":12.94051742553711,"z":0.0},"lane_deviation_m":0.06409407407045364,"lane_width":3.5,"goal":{"x":-68.73516845703125,"y":129.30384826660156,"z":0.5999999642372131},"fault":{"name":"camera_blackout","severity":1.0},"capture_flags":{"save_rgb":true,"save_depth":false,"video_rgb":true,"video_depth":false}}
{"frame":35,"timestamp":{"delta_seconds":0.05000000074505806,"elapsed_seconds":4.2594657046720386},"control":{"throttle":1.0,"steer":0.052000001072883606,"brake":0.0,"hand_brake":false,"reverse":false,"manual_gear_shift":false,"gear":0},"transform":{"location":{"x":-87.62252044677734,"y":12.965401649475098,"z":-0.05481468141078949},"rotation":{"pitch":0.21009661257266998,"yaw":-179.70567321777344,"roll":-0.4157410264015198}},"velocity":{"x":-0.0018686404218897223,"y":-0.003369945101439953,"z":0.1460023820400238},"angular_velocity":{"x":1.8794145584106445,"y":-0.9810710549354553,"z":-0.09132776409387589},"acceleration":{"x":-0.05280614644289017,"y":0.19263403117656708,"z":4.023802757263184},"speed_mps":0.14605322286198993,"speed_kph":0.5257916023031638,"speed_limit_kph":30.0,"collisions_this_frame":[],"waypoint":{"x":-87.62245178222656,"y":12.94051742553711,"z":0.0},"lane_deviation_m":0.06019866093993187,"lane_width":3.5,"goal":{"x":-68.73516845703125,"y":129.30384826660156,"z":0.5999999642372131},"fault":{"name":"camera_blackout","severity":1.0},"capture_flags":{"save_rgb":true,"save_depth":false,"video_rgb":true,"video_depth":false}}
{"frame":36,"timestamp":{"delta_seconds":0.05000000074505806,"elapsed_seconds":4.309465705417097},"control":{"throttle":1.0,"steer":0.06700000166893005,"brake":0.0,"hand_brake":false,"reverse":false,"manual_gear_shift":false,"gear":0},"transform":{"location":{"x":-87.62226104736328,"y":12.965912818908691,"z":-0.04520610719919205},"rotation":{"pitch":0.16085778176784515,"yaw":-179.71131896972656,"roll":-0.3229980170726776}},"velocity":{"x":-0.002498807618394494,"y":-0.0020581006538122892,"z":0.20101909339427948},"angular_velocity":{"x":1.8293734788894653,"y":-0.9618755578994751,"z":-0.13488581776618958},"acceleration":{"x":-0.012603344395756721,"y":0.026236888021230698,"z":1.1003341674804688},"speed_mps":0.20104515842683957,"speed_kph":0.7237625703366225,"speed_limit_kph":30.0,"collisions_this_frame":[],"waypoint":{"x":-87.6221923828125,"y":12.940519332885742,"z":0.0},"lane_deviation_m":0.051850032061338425,"lane_width":3.5,"goal":{"x":-68.73516845703125,"y":129.30384826660156,"z":0.5999999642372131},"fault":{"name":"camera_blackout","severity":1.0},"capture_flags":{"save_rgb":true,"save_depth":false,"video_rgb":true,"video_depth":false}}
{"frame":37,"timestamp":{"delta_seconds":0.05000000074505806,"elapsed_seconds":4.359465706162155},"control":{"throttle":1.0,"steer":0.03799999877810478,"brake":0.0,"hand_brake":false,"reverse":false,"manual_gear_shift":false,"gear":0},"transform":{"location":{"x":-87.62849426269531,"y":12.966331481933594,"z":-0.03504558652639389},"rotation":{"pitch":0.12221256643533707,"yaw":-179.72486877441406,"roll":-0.23367303609848022}},"velocity":{"x":-0.3686521053314209,"y":-0.007573375012725592,"z":0.19080832600593567},"angular_velocity":{"x":1.9126067161560059,"y":-0.535588800907135,"z":-0.6996362209320068},"acceleration":{"x":-7.323065757751465,"y":-0.11030548810958862,"z":-0.20421534776687622},"speed_mps":0.41517411774767443,"speed_kph":1.494626823891628,"speed_limit_kph":30.0,"collisions_this_frame":[],"waypoint":{"x":-87.62842559814453,"y":12.940502166748047,"z":0.0},"lane_deviation_m":0.04353563115000725,"lane_width":3.5,"goal":{"x":-68.73516845703125,"y":129.30384826660156,"z":0.5999999642372131},"fault":{"name":"camera_blackout","severity":1.0},"capture_flags":{"save_rgb":true,"save_depth":false,"video_rgb":true,"video_depth":false}}
{"frame":38,"timestamp":{"delta_seconds":0.05000000074505806,"elapsed_seconds":4.409465706907213},"control":{"throttle":1.0,"steer":0.08900000154972076,"brake":0.0,"hand_brake":false,"reverse":false,"manual_gear_shift":false,"gear":0},"transform":{"location":{"x":-87.67494201660156,"y":12.964390754699707,"z":-0.025996055454015732},"rotation":{"pitch":0.13561339676380157,"yaw":-179.65155029296875,"roll":-0.21002197265625}},"velocity":{"x":-1.2501814365386963,"y":-0.07275233417749405,"z":0.18048951029777527},"angular_velocity":{"x":-0.7547568082809448,"y":0.8264168500900269,"z":2.5825657844543457},"acceleration":{"x":-17.630586624145508,"y":-1.3035792112350464,"z":-0.206376314163208},"speed_mps":1.2652363374965812,"speed_kph":4.5548508149876925,"speed_limit_kph":30.0,"collisions_this_frame":[],"waypoint":{"x":-87.67488098144531,"y":12.940372467041016,"z":0.0},"lane_deviation_m":0.03539317473769188,"lane_width":3.5,"goal":{"x":-68.73516845703125,"y":129.30384826660156,"z":0.5999999642372131},"fault":{"name":"camera_blackout","severity":1.0},"capture_flags":{"save_rgb":true,"save_depth":false,"video_rgb":true,"video_depth":false}}
{"frame":39,"timestamp":{"delta_seconds":0.05000000074505806,"elapsed_seconds":4.459465707652271},"control":{"throttle":1.0,"steer":0.08900000154972076,"brake":0.0,"hand_brake":false,"reverse":false,"manual_gear_shift":false,"gear":0},"transform":{"location":{"x":-87.75807189941406,"y":12.959900856018066,"z":-0.01772964373230934},"rotation":{"pitch":0.19843748211860657,"yaw":-179.48472595214844,"roll":-0.2935791015625}},"velocity":{"x":-1.920595645904541,"y":-0.11495703458786011,"z":0.1620606780052185},"angular_velocity":{"x":-1.704107642173767,"y":1.2819665670394897,"z":3.9911773204803467},"acceleration":{"x":-13.408284187316895,"y":-0.8440940380096436,"z":-0.36857664585113525},"speed_mps":1.9308460369030531,"speed_kph":6.951045732850991,"speed_limit_kph":30.0,"collisions_this_frame":[],"waypoint":{"x":-87.75801849365234,"y":12.940141677856445,"z":0.0},"lane_deviation_m":0.026547471061348915,"lane_width":3.5,"goal":{"x":-68.73516845703125,"y":129.30384826660156,"z":0.5999999642372131},"fault":{"name":"camera_blackout","severity":1.0},"capture_flags":{"save_rgb":true,"save_depth":false,"video_rgb":true,"video_depth":false}}
{"frame":40,"timestamp":{"delta_seconds":0.05000000074505806,"elapsed_seconds":4.509465708397329},"control":{"throttle":1.0,"steer":0.10599999874830246,"brake":0.0,"hand_brake":false,"reverse":false,"manual_gear_shift":false,"gear":0},"transform":{"location":{"x":-87.87120056152344,"y":12.95370101928711,"z":-0.01154884323477745},"rotation":{"pitch":0.21989110112190247,"yaw":-179.25909423828125,"roll":-0.2828673720359802}},"velocity":{"x":-2.4667766094207764,"y":-0.18193961679935455,"z":0.10528409481048584},"angular_velocity":{"x":0.9414227604866028,"y":0.018505796790122986,"z":5.091816425323486},"acceleration":{"x":-10.923619270324707,"y":-1.3396515846252441,"z":-1.1355316638946533},"speed_mps":2.4757167862190177,"speed_kph":8.912580430388465,"speed_limit_kph":30.0,"collisions_this_frame":[],"waypoint":{"x":-87.87116241455078,"y":12.939826965332031,"z":0.0},"lane_deviation_m":0.01805177703499794,"lane_width":3.5,"goal":{"x":-68.73516845703125,"y":129.30384826660156,"z":0.5999999642372131},"fault":{"name":"camera_blackout","severity":1.0},"capture_flags":{"save_rgb":true,"save_depth":false,"video_rgb":true,"video_depth":false}}
{"frame":41,"timestamp":{"delta_seconds":0.05000000074505806,"elapsed_seconds":4.559465709142387},"control":{"throttle":1.0,"steer":0.07100000232458115,"brake":0.0,"hand_brake":false,"reverse":false,"manual_gear_shift":false,"gear":0},"transform":{"location":{"x":-88.01014709472656,"y":12.945995330810547,"z":-0.006899604573845863},"rotation":{"pitch":0.23600351810455322,"yaw":-179.02198791503906,"roll":-0.2938842177391052}},"velocity":{"x":-2.9632084369659424,"y":-0.18206436932086945,"z":0.09331590682268143},"angular_velocity":{"x":-1.313989520072937,"y":0.6557772755622864,"z":4.7233357429504395},"acceleration":{"x":-9.92863655090332,"y":-0.0024950504302978516,"z":-0.23936375975608826},"speed_mps":2.9702625361991974,"speed_kph":10.692945130317112,"speed_limit_kph":30.0,"collisions_this_frame":[],"waypoint":{"x":-88.0101318359375,"y":12.939441680908203,"z":0.0},"lane_deviation_m":0.009516044519841671,"lane_width":3.5,"goal":{"x":-68.73516845703125,"y":129.30384826660156,"z":0.5999999642372131},"fault":{"name":"camera_blackout","severity":1.0},"capture_flags":{"save_rgb":true,"save_depth":false,"video_rgb":true,"video_depth":false}}
{"frame":42,"timestamp":{"delta_seconds":0.05000000074505806,"elapsed_seconds":4.609465709887445},"control":{"throttle":1.0,"steer":0.10999999940395355,"brake":0.0,"hand_brake":false,"reverse":false,"manual_gear_shift":false,"gear":0},"transform":{"location":{"x":-88.1703872680664,"y":12.936179161071777,"z":-0.004760551266372204},"rotation":{"pitch":0.1679406762123108,"yaw":-178.6787872314453,"roll":-0.11734005808830261}},"velocity":{"x":-3.375373363494873,"y":-0.31622225046157837,"z":0.006895361002534628},"angular_velocity":{"x":4.488283634185791,"y":-1.9531164169311523,"z":7.8154802322387695},"acceleration":{"x":-8.243298530578613,"y":-2.6831576824188232,"z":-1.7284108400344849},"speed_mps":3.3901606747587985,"speed_kph":12.204578429131674,"speed_limit_kph":30.0,"collisions_this_frame":[],"waypoint":{"x":-88.17039489746094,"y":12.938995361328125,"z":0.0},"lane_deviation_m":0.005531174596399069,"lane_width":3.5,"goal":{"x":-68.73516845703125,"y":129.30384826660156,"z":0.5999999642372131},"fault":{"name":"camera_blackout","severity":1.0},"capture_flags":{"save_rgb":true,"save_depth":false,"video_rgb":true,"video_depth":false}}
{"frame":43,"timestamp":{"delta_seconds":0.05000000074505806,"elapsed_seconds":4.659465710632503},"control":{"throttle":1.0,"steer":0.08799999952316284,"brake":0.0,"hand_brake":false,"reverse":false,"manual_gear_shift":false,"gear":0},"transform":{"location":{"x":-88.35076904296875,"y":12.922926902770996,"z":-0.0037106703966856003},"rotation":{"pitch":0.11226098239421844,"yaw":-178.31626892089844,"roll":-0.020935053005814552}},"velocity":{"x":-3.768558979034424,"y":-0.3288120627403259,"z":0.017839306965470314},"angular_velocity":{"x":0.9339496493339539,"y":-0.6514517664909363,"z":7.230380535125732},"acceleration":{"x":-7.863712310791016,"y":-0.25179624557495117,"z":0.21887890994548798},"speed_mps":3.782918501889452,"speed_kph":13.618506606802027,"speed_limit_kph":30.0,"collisions_this_frame":[],"waypoint":{"x":-88.35081481933594,"y":12.938493728637695,"z":0.0},"lane_deviation_m":0.016003038734197617,"lane_width":3.5,"goal":{"x":-68.73516845703125,"y":129.30384826660156,"z":0.5999999642372131},"fault":{"name":"camera_blackout","severity":1.0},"capture_flags":{"save_rgb":true,"save_depth":false,"video_rgb":true,"video_depth":false}}
{"frame":44,"timestamp":{"delta_seconds":0.05000000074505806,"elapsed_seconds":4.709465711377561},"control":{"throttle":1.0,"steer":0.08299999684095383,"brake":0.0,"hand_brake":false,"reverse":false,"manual_gear_shift":false,"gear":0},"transform":{"location":{"x":-88.55029296875,"y":12.90804386138916,"z":-0.0026361846830695868},"rotation":{"pitch":0.09446834027767181,"yaw":-177.95411682128906,"roll":-0.0030822749249637127}},"velocity":{"x":-4.137341022491455,"y":-0.35621458292007446,"z":0.019673213362693787},"angular_velocity":{"x":0.12675891816616058,"y":-0.204507514834404,"z":7.367415428161621},"acceleration":{"x":-7.375640869140625,"y":-0.5480504035949707,"z":0.03667812794446945},"speed_mps":4.152693896833665,"speed_kph":14.949698028601196,"speed_limit_kph":30.0,"collisions_this_frame":[],"waypoint":{"x":-88.55037689208984,"y":12.93794059753418,"z":0.0},"lane_deviation_m":0.03001285344362259,"lane_width":3.5,"goal":{"x":-68.73516845703125,"y":129.30384826660156,"z":0.5999999642372131},"fault":{"name":"camera_blackout","severity":1.0},"capture_flags":{"save_rgb":true,"save_depth":false,"video_rgb":true,"video_depth":false}}
{"frame":45,"timestamp":{"delta_seconds":0.05000000074505806,"elapsed_seconds":4.759465712122619},"control":{"throttle":1.0,"steer":0.09600000083446503,"brake":0.0,"hand_brake":false,"reverse":false,"manual_gear_shift":false,"gear":0},"transform":{"location":{"x":-88.76775360107422,"y":12.890303611755371,"z":-0.0016730880597606301},"rotation":{"pitch":0.08918177336454391,"yaw":-177.5335235595703,"roll":-0.007720946334302425}},"velocity":{"x":-4.487463474273682,"y":-0.43240293860435486,"z":0.017668467015028},"angular_velocity":{"x":-0.14546525478363037,"y":-0.06523987650871277,"z":8.899150848388672},"acceleration":{"x":-7.002449035644531,"y":-1.523767113685608,"z":-0.040094926953315735},"speed_mps":4.508282700650079,"speed_kph":16.229817722340282,"speed_limit_kph":30.0,"collisions_this_frame":[],"waypoint":{"x":-88.76830291748047,"y":12.937332153320312,"z":0.0},"lane_deviation_m":0.0470614992082119,"lane_width":3.5,"goal":{"x":-68.73516845703125,"y":129.30384826660156,"z":0.5999999642372131},"fault":{"name":"camera_blackout","severity":1.0},"capture_flags":{"save_rgb":true,"save_depth":false,"video_rgb":true,"video_depth":false}}
{"frame":46,"timestamp":{"delta_seconds":0.05000000074505806,"elapsed_seconds":4.809465712867677},"control":{"throttle":1.0,"steer":0.09799999743700027,"brake":0.0,"hand_brake":false,"reverse":false,"manual_gear_shift":false,"gear":0},"transform":{"location":{"x":-89.00255584716797,"y":12.869135856628418,"z":-0.0008770751883275807},"rotation":{"pitch":0.08780890703201294,"yaw":-177.05828857421875,"roll":-0.01593017391860485}},"velocity":{"x":-4.8305230140686035,"y":-0.5078098177909851,"z":0.014425105415284634},"angular_velocity":{"x":-0.1590946465730667,"y":-0.021962396800518036,"z":9.841071128845215},"acceleration":{"x":-6.8611907958984375,"y":-1.508137583732605,"z":-0.06486722826957703},"speed_mps":4.857162904840394,"speed_kph":17.48578645742542,"speed_limit_kph":30.0,"collisions_this_frame":[],"waypoint":{"x":-89.00334167480469,"y":12.93667984008789,"z":0.0},"lane_deviation_m":0.06755425035953522,"lane_width":3.5,"goal":{"x":-68.73516845703125,"y":129.30384826660156,"z":0.5999999642372131},"fault":{"name":"camera_blackout","severity":1.0},"capture_flags":{"save_rgb":true,"save_depth":false,"video_rgb":true,"video_depth":false}}
{"frame":47,"timestamp":{"delta_seconds":0.05000000074505806,"elapsed_seconds":4.859465713612735},"control":{"throttle":1.0,"steer":0.09600000083446503,"brake":0.0,"hand_brake":false,"reverse":false,"manual_gear_shift":false,"gear":0},"transform":{"location":{"x":-89.25443267822266,"y":12.844484329223633,"z":-9.693145693745464e-05},"rotation":{"pitch":0.08752203732728958,"yaw":-176.55133056640625,"roll":-0.02322387509047985}},"velocity":{"x":-5.16904354095459,"y":-0.5814344882965088,"z":0.018182335421442986},"angular_velocity":{"x":-0.14447978138923645,"y":-0.012549825012683868,"z":10.357513427734375},"acceleration":{"x":-6.770410537719727,"y":-1.4724934101104736,"z":0.07514460384845734},"speed_mps":5.201673556634092,"speed_kph":18.726024803882733,"speed_limit_kph":30.0,"collisions_this_frame":[],"waypoint":{"x":-89.25548553466797,"y":12.935978889465332,"z":0.0},"lane_deviation_m":0.0915006697177887,"lane_width":3.5,"goal":{"x":-68.73516845703125,"y":129.30384826660156,"z":0.5999999642372131},"fault":{"name":"camera_blackout","severity":1.0},"capture_flags":{"save_rgb":true,"save_depth":false,"video_rgb":true,"video_depth":false}}
{"frame":48,"timestamp":{"delta_seconds":0.05000000074505806,"elapsed_seconds":4.909465714357793},"control":{"throttle":1.0,"steer":0.10999999940395355,"brake":0.0,"hand_brake":false,"reverse":false,"manual_gear_shift":false,"gear":0},"transform":{"location":{"x":-89.5226821899414,"y":12.815216064453125,"z":0.0005603408790193498},"rotation":{"pitch":0.08687999844551086,"yaw":-175.9711151123047,"roll":-0.0335388146340847}},"velocity":{"x":-5.46999454498291,"y":-0.6900344491004944,"z":0.01030076015740633},"angular_velocity":{"x":-0.1505802571773529,"y":-0.056698523461818695,"z":12.038979530334473},"acceleration":{"x":-6.019020080566406,"y":-2.171999216079712,"z":-0.1576315015554428},"speed_mps":5.513355962455901,"speed_kph":19.848081464841247,"speed_limit_kph":30.0,"collisions_this_frame":[],"waypoint":{"x":-89.52406311035156,"y":12.935232162475586,"z":0.0},"lane_deviation_m":0.12002535164356232,"lane_width":3.5,"goal":{"x":-68.73516845703125,"y":129.30384826660156,"z":0.5999999642372131},"fault":{"name":"camera_blackout","severity":1.0},"capture_flags":{"save_rgb":true,"save_depth":false,"video_rgb":true,"video_depth":false}}
{"frame":49,"timestamp":{"delta_seconds":0.05000000074505806,"elapsed_seconds":4.959465715102851},"control":{"throttle":1.0,"steer":0.10899999737739563,"brake":0.0,"hand_brake":false,"reverse":false,"manual_gear_shift":false,"gear":0},"transform":{"location":{"x":-89.79900360107422,"y":12.782315254211426,"z":0.0009906005579978228},"rotation":{"pitch":0.07754313200712204,"yaw":-175.3502960205078,"roll":-0.037994384765625}},"velocity":{"x":-5.577336311340332,"y":-0.7634012699127197,"z":0.005990428850054741},"angular_velocity":{"x":-0.11378978192806244,"y":-0.2070506513118744,"z":13.024250984191895},"acceleration":{"x":-2.1468353271484375,"y":-1.4673364162445068,"z":-0.08620662987232208},"speed_mps":5.629342564983725,"speed_kph":20.26563323394141,"speed_limit_kph":30.0,"collisions_this_frame":[],"waypoint":{"x":-89.80075073242188,"y":12.934463500976562,"z":0.0},"lane_deviation_m":0.15216150879859924,"lane_width":3.5,"goal":{"x":-68.73516845703125,"y":129.30384826660156,"z":0.5999999642372131},"fault":{"name":"camera_blackout","severity":1.0},"capture_flags":{"save_rgb":true,"save_depth":false,"video_rgb":true,"video_depth":false}}
{"frame":50,"timestamp":{"delta_seconds":0.05000000074505806,"elapsed_seconds":5.0094657158479095},"control":{"throttle":1.0,"steer":0.11500000208616257,"brake":0.0,"hand_brake":false,"reverse":false,"manual_gear_shift":false,"gear":0},"transform":{"location":{"x":-90.08204650878906,"y":12.745701789855957,"z":0.0012647246476262808},"rotation":{"pitch":0.06860924512147903,"yaw":-174.6988067626953,"roll":-0.0422668419778347}},"velocity":{"x":-5.718011379241943,"y":-0.8395967483520508,"z":0.003582906676456332},"angular_velocity":{"x":-0.028377780690789223,"y":-0.1627386063337326,"z":13.428449630737305},"acceleration":{"x":-2.8135013580322266,"y":-1.523909568786621,"z":-0.0481504425406456},"speed_mps":5.779324326441971,"speed_kph":20.8055675751911,"speed_limit_kph":30.0,"collisions_this_frame":[],"waypoint":{"x":-90.0842056274414,"y":12.933675765991211,"z":0.0},"lane_deviation_m":0.18799062073230743,"lane_width":3.5,"goal":{"x":-68.73516845703125,"y":129.30384826660156,"z":0.5999999642372131},"fault":{"name":"camera_blackout","severity":1.0},"capture_flags":{"save_rgb":true,"save_depth":false,"video_rgb":true,"video_depth":false}}
{"frame":51,"timestamp":{"delta_seconds":0.05000000074505806,"elapsed_seconds":5.0594657165929675},"control":{"throttle":1.0,"steer":0.10000000149011612,"brake":0.0,"hand_brake":false,"reverse":false,"manual_gear_shift":false,"gear":0},"transform":{"location":{"x":-90.37968444824219,"y":12.704312324523926,"z":0.001391944824717939},"rotation":{"pitch":0.06987283378839493,"yaw":-174.04942321777344,"roll":-0.0451049767434597}},"velocity":{"x":-6.143651008605957,"y":-0.9548651576042175,"z":0.0021963119506835938},"angular_velocity":{"x":-0.11701276898384094,"y":0.1608400046825409,"z":13.259237289428711},"acceleration":{"x":-8.512792587280273,"y":-2.305368185043335,"z":-0.027731895446777344},"speed_mps":6.217412645830876,"speed_kph":22.382685524991157,"speed_limit_kph":30.0,"collisions_this_frame":[],"waypoint":{"x":-90.38230895996094,"y":12.93284797668457,"z":0.0},"lane_deviation_m":0.22855496406555176,"lane_width":3.5,"goal":{"x":-68.73516845703125,"y":129.30384826660156,"z":0.5999999642372131},"fault":{"name":"camera_blackout","severity":1.0},"capture_flags":{"save_rgb":true,"save_depth":false,"video_rgb":true,"video_depth":false}}
{"frame":52,"timestamp":{"delta_seconds":0.05000000074505806,"elapsed_seconds":5.109465717338026},"control":{"throttle":1.0,"steer":0.11800000071525574,"brake":0.0,"hand_brake":false,"reverse":false,"manual_gear_shift":false,"gear":0},"transform":{"location":{"x":-90.69402313232422,"y":12.656618118286133,"z":0.0014637374551966786},"rotation":{"pitch":0.07190822809934616,"yaw":-173.3297882080078,"roll":-0.053161609917879105}},"velocity":{"x":-6.348304271697998,"y":-1.079931616783142,"z":0.0013806151691824198},"angular_velocity":{"x":-0.093598373234272,"y":-0.04510620981454849,"z":14.753808975219727},"acceleration":{"x":-4.09306526184082,"y":-2.501329183578491,"z":-0.016313936561346054},"speed_mps":6.439504742531459,"speed_kph":23.182217073113254,"speed_limit_kph":30.0,"collisions_this_frame":[],"waypoint":{"x":-90.69786071777344,"y":12.915687561035156,"z":0.0},"lane_deviation_m":0.2591020166873932,"lane_width":3.5,"goal":{"x":-68.73516845703125,"y":129.30384826660156,"z":0.5999999642372131},"fault":{"name":"camera_blackout","severity":1.0},"capture_flags":{"save_rgb":true,"save_depth":false,"video_rgb":true,"video_depth":false}}
{"frame":53,"timestamp":{"delta_seconds":0.05000000074505806,"elapsed_seconds":5.159465718083084},"control":{"throttle":1.0,"steer":0.13199999928474426,"brake":0.0,"hand_brake":false,"reverse":false,"manual_gear_shift":false,"gear":0},"transform":{"location":{"x":-91.01976013183594,"y":12.601022720336914,"z":0.002636985620483756},"rotation":{"pitch":0.026924604550004005,"yaw":-172.54493713378906,"roll":-0.1362914890050888}},"velocity":{"x":-6.623063087463379,"y":-1.2538350820541382,"z":-0.021601084619760513},"angular_velocity":{"x":4.953234672546387,"y":2.607309103012085,"z":15.784276008605957},"acceleration":{"x":-5.495176315307617,"y":-3.478069305419922,"z":-0.459634006023407},"speed_mps":6.740736879627212,"speed_kph":24.266652766657963,"speed_limit_kph":30.0,"collisions_this_frame":[],"waypoint":{"x":-90.99019622802734,"y":12.897848129272461,"z":0.0},"lane_deviation_m":0.2983057200908661,"lane_width":3.5,"goal":{"x":-68.73516845703125,"y":129.30384826660156,"z":0.5999999642372131},"fault":{"name":"camera_blackout","severity":1.0},"capture_flags":{"save_rgb":true,"save_depth":false,"video_rgb":true,"video_depth":false}}
{"frame":54,"timestamp":{"delta_seconds":0.05000000074505806,"elapsed_seconds":5.209465718828142},"control":{"throttle":1.0,"steer":0.08399999886751175,"brake":0.0,"hand_brake":false,"reverse":false,"manual_gear_shift":false,"gear":0},"transform":{"location":{"x":-91.3612289428711,"y":12.54140853881836,"z":0.001713447505608201},"rotation":{"pitch":0.07292592525482178,"yaw":-171.8152618408203,"roll":-0.0485839769244194}},"velocity":{"x":-6.963213920593262,"y":-1.3229568004608154,"z":-0.008704500272870064},"angular_velocity":{"x":0.5614070296287537,"y":0.6176801919937134,"z":13.475720405578613},"acceleration":{"x":-6.803016662597656,"y":-1.382434368133545,"z":0.2579316794872284},"speed_mps":7.087780933984508,"speed_kph":25.51601136234423,"speed_limit_kph":30.0,"collisions_this_frame":[],"waypoint":{"x":-91.29627227783203,"y":12.87267780303955,"z":0.0},"lane_deviation_m":0.3375820219516754,"lane_width":3.5,"goal":{"x":-68.73516845703125,"y":129.30384826660156,"z":0.5999999642372131},"fault":{"name":"camera_blackout","severity":1.0},"capture_flags":{"save_rgb":true,"save_depth":false,"video_rgb":true,"video_depth":false}}
{"frame":55,"timestamp":{"delta_seconds":0.05000000074505806,"elapsed_seconds":5.2594657195732},"control":{"throttle":1.0,"steer":0.15700000524520874,"brake":0.0,"hand_brake":false,"reverse":false,"manual_gear_shift":false,"gear":0},"transform":{"location":{"x":-91.7184066772461,"y":12.472691535949707,"z":0.001405639573931694},"rotation":{"pitch":0.08411377668380737,"yaw":-170.9799041748047,"roll":-0.059478744864463806}},"velocity":{"x":-7.241508483886719,"y":-1.582656979560852,"z":-0.002907400019466877},"angular_velocity":{"x":-0.5580421686172485,"y":0.029749898239970207,"z":19.57040786743164},"acceleration":{"x":-5.565891265869141,"y":-5.194003582000732,"z":0.11594200134277344},"speed_mps":7.412439321176995,"speed_kph":26.684781556237184,"speed_limit_kph":30.0,"collisions_this_frame":[],"waypoint":{"x":-91.73283386230469,"y":12.825214385986328,"z":0.0},"lane_deviation_m":0.3528207540512085,"lane_width":3.5,"goal":{"x":-68.73516845703125,"y":129.30384826660156,"z":0.5999999642372131},"fault":{"name":"camera_blackout","severity":1.0},"capture_flags":{"save_rgb":true,"save_depth":false,"video_rgb":true,"video_depth":false}}
{"frame":56,"timestamp":{"delta_seconds":0.05000000074505806,"elapsed_seconds":5.309465720318258},"control":{"throttle":1.0,"steer":0.12999999523162842,"brake":0.0,"hand_brake":false,"reverse":false,"manual_gear_shift":false,"gear":0},"transform":{"location":{"x":-92.09013366699219,"y":12.394052505493164,"z":0.0013299179263412952},"rotation":{"pitch":0.08637456595897675,"yaw":-170.00222778320312,"roll":-0.0729675218462944}},"velocity":{"x":-7.530440330505371,"y":-1.7534596920013428,"z":-0.00044404028449207544},"angular_velocity":{"x":-0.16443099081516266,"y":-0.019439034163951874,"z":19.886188507080078},"acceleration":{"x":-5.778636932373047,"y":-3.4160542488098145,"z":0.04926719516515732},"speed_mps":7.731891919830945,"speed_kph":27.8348109113914,"speed_limit_kph":30.0,"collisions_this_frame":[],"waypoint":{"x":-92.06714630126953,"y":12.779598236083984,"z":0.0},"lane_deviation_m":0.3862327039241791,"lane_width":3.5,"goal":{"x":-68.73516845703125,"y":129.30384826660156,"z":0.5999999642372131},"fault":{"name":"camera_blackout","severity":1.0},"capture_flags":{"save_rgb":true,"save_depth":false,"video_rgb":true,"video_depth":false}}
{"frame":57,"timestamp":{"delta_seconds":0.05000000074505806,"elapsed_seconds":5.359465721063316},"control":{"throttle":1.0,"steer":0.16500000655651093,"brake":0.0,"hand_brake":false,"reverse":false,"manual_gear_shift":false,"gear":0},"transform":{"location":{"x":-92.47755432128906,"y":12.303472518920898,"z":0.001331977779045701},"rotation":{"pitch":0.0876859650015831,"yaw":-168.88067626953125,"roll":-0.0946655198931694}},"velocity":{"x":-7.853723526000977,"y":-2.0594046115875244,"z":0.0004826259391847998},"angular_velocity":{"x":-0.4899595379829407,"y":-0.05688461288809776,"z":23.758663177490234},"acceleration":{"x":-6.465663909912109,"y":-6.118898391723633,"z":0.01853332296013832},"speed_mps":8.11924385703601,"speed_kph":29.229277885329633,"speed_limit_kph":30.0,"collisions_this_frame":[],"waypoint":{"x":-92.53372192382812,"y":12.7023344039917,"z":0.0},"lane_deviation_m":0.40279942750930786,"lane_width":3.5,"goal":{"x":-68.73516845703125,"y":129.30384826660156,"z":0.5999999642372131},"fault":{"name":"camera_blackout","severity":1.0},"capture_flags":{"save_rgb":true,"save_depth":false,"video_rgb":true,"video_depth":false}}
{"frame":58,"timestamp":{"delta_seconds":0.05000000074505806,"elapsed_seconds":5.409465721808374},"control":{"throttle":1.0,"steer":0.17599999904632568,"brake":0.0,"hand_brake":false,"reverse":false,"manual_gear_shift":false,"gear":0},"transform":{"location":{"x":-92.87985229492188,"y":12.199019432067871,"z":0.0013613891787827015},"rotation":{"pitch":0.08838947117328644,"yaw":-167.56602478027344,"roll":-0.11663816124200821}},"velocity":{"x":-8.126482009887695,"y":-2.354210138320923,"z":0.0007260417914949358},"angular_velocity":{"x":-0.35592740774154663,"y":-0.07297411561012268,"z":27.393033981323242},"acceleration":{"x":-5.455169677734375,"y":-5.896110534667969,"z":0.004868316929787397},"speed_mps":8.460615566230276,"speed_kph":30.458216038428993,"speed_limit_kph":30.0,"collisions_this_frame":[],"waypoint":{"x":-92.89631652832031,"y":12.631194114685059,"z":0.0},"lane_deviation_m":0.4324903190135956,"lane_width":3.5,"goal":{"x":-68.73516845703125,"y":129.30384826660156,"z":0.5999999642372131},"fault":{"name":"camera_blackout","severity":1.0},"capture_flags":{"save_rgb":true,"save_depth":false,"video_rgb":true,"video_depth":false}}
{"frame":59,"timestamp":{"delta_seconds":0.05000000074505806,"elapsed_seconds":5.459465722553432},"control":{"throttle":1.0,"steer":0.17100000381469727,"brake":0.0,"hand_brake":false,"reverse":false,"manual_gear_shift":false,"gear":0},"transform":{"location":{"x":-93.29747009277344,"y":12.079927444458008,"z":0.0013911055866628885},"rotation":{"pitch":0.08955060690641403,"yaw":-166.14004516601562,"roll":-0.13305659592151642}},"velocity":{"x":-8.44079303741455,"y":-2.6699929237365723,"z":0.0007036113529466093},"angular_velocity":{"x":-0.3290071487426758,"y":-0.043714046478271484,"z":29.18661880493164},"acceleration":{"x":-6.286220550537109,"y":-6.315655708312988,"z":-0.00044860877096652985},"speed_mps":8.853013600370117,"speed_kph":31.87084896133242,"speed_limit_kph":30.0,"collisions_this_frame":[],"waypoint":{"x":-93.39173889160156,"y":12.51800537109375,"z":0.0},"lane_deviation_m":0.4481080174446106,"lane_width":3.5,"goal":{"x":-68.73516845703125,"y":129.30384826660156,"z":0.5999999642372131},"fault":{"name":"camera_blackout","severity":1.0},"capture_flags":{"save_rgb":true,"save_depth":false,"video_rgb":true,"video_depth":false}}
{"frame":60,"timestamp":{"delta_seconds":0.05000000074505806,"elapsed_seconds":5.50946572329849},"control":{"throttle":1.0,"steer":0.1809999942779541,"brake":0.0,"hand_brake":false,"reverse":false,"manual_gear_shift":false,"gear":0},"transform":{"location":{"x":-93.72998809814453,"y":11.944851875305176,"z":0.001415901118889451},"rotation":{"pitch":0.09080736339092255,"yaw":-164.6101531982422,"roll":-0.1499939113855362}},"velocity":{"x":-8.720715522766113,"y":-3.0128321647644043,"z":0.0005863475380465388},"angular_velocity":{"x":-0.3214664161205292,"y":-0.06116841733455658,"z":31.515499114990234},"acceleration":{"x":-5.59844970703125,"y":-6.856784820556641,"z":-0.0023452762980014086},"speed_mps":9.226485637871889,"speed_kph":33.2153482963388,"speed_limit_kph":30.0,"collisions_this_frame":[],"waypoint":{"x":-93.7816390991211,"y":12.415678977966309,"z":0.0},"lane_deviation_m":0.4736538827419281,"lane_width":3.5,"goal":{"x":-68.73516845703125,"y":129.30384826660156,"z":0.5999999642372131},"fault":{"name":"camera_blackout","severity":1.0},"capture_flags":{"save_rgb":true,"save_depth":false,"video_rgb":true,"video_depth":false}}
{"frame":61,"timestamp":{"delta_seconds":0.05000000074505806,"elapsed_seconds":5.559465724043548},"control":{"throttle":1.0,"steer":0.14300000667572021,"brake":0.0,"hand_brake":false,"reverse":false,"manual_gear_shift":false,"gear":0},"transform":{"location":{"x":-94.17882537841797,"y":11.794434547424316,"z":0.0014282608171924949},"rotation":{"pitch":0.093040831387043,"yaw":-163.11740112304688,"roll":-0.15237422287464142}},"velocity":{"x":-9.057405471801758,"y":-3.2916226387023926,"z":0.00045950888306833804},"angular_velocity":{"x":-0.033554788678884506,"y":0.033545639365911484,"z":29.08702850341797},"acceleration":{"x":-6.733798980712891,"y":-5.575809478759766,"z":-0.0025367732159793377},"speed_mps":9.636979489829319,"speed_kph":34.69312616338555,"speed_limit_kph":30.0,"collisions_this_frame":[],"waypoint":{"x":-94.30419158935547,"y":12.25973129272461,"z":0.0},"lane_deviation_m":0.4818918704986572,"lane_width":3.5,"goal":{"x":-68.73516845703125,"y":129.30384826660156,"z":0.5999999642372131},"fault":{"name":"camera_blackout","severity":1.0},"capture_flags":{"save_rgb":true,"save_depth":false,"video_rgb":true,"video_depth":false}}
{"frame":62,"timestamp":{"delta_seconds":0.05000000074505806,"elapsed_seconds":5.609465724788606},"control":{"throttle":0.0,"steer":0.10899999737739563,"brake":0.0,"hand_brake":false,"reverse":false,"manual_gear_shift":false,"gear":0},"transform":{"location":{"x":-94.6435317993164,"y":11.63100814819336,"z":0.0014429473085328937},"rotation":{"pitch":0.09383996576070786,"yaw":-161.80552673339844,"roll":-0.1427612155675888}},"velocity":{"x":-9.359272003173828,"y":-3.5084526538848877,"z":0.00034885405329987407},"angular_velocity":{"x":0.16472706198692322,"y":0.03896312043070793,"z":24.980712890625},"acceleration":{"x":-6.037330627441406,"y":-4.336600303649902,"z":-0.002213096711784601},"speed_mps":9.995259505167661,"speed_kph":35.98293421860358,"speed_limit_kph":30.0,"collisions_this_frame":[],"waypoint":{"x":-94.7198257446289,"y":12.119853973388672,"z":0.0},"lane_deviation_m":0.4947656989097595,"lane_width":3.5,"goal":{"x":-68.73516845703125,"y":129.30384826660156,"z":0.5999999642372131},"fault":{"name":"camera_blackout","severity":1.0},"capture_flags":{"save_rgb":true,"save_depth":false,"video_rgb":true,"video_depth":false}}
{"frame":63,"timestamp":{"delta_seconds":0.05000000074505806,"elapsed_seconds":5.659465725533664},"control":{"throttle":0.8825362324714661,"steer":0.16599999368190765,"brake":0.0,"hand_brake":false,"reverse":false,"manual_gear_shift":false,"gear":0},"transform":{"location":{"x":-95.11810302734375,"y":11.451799392700195,"z":0.0014825438847765326},"rotation":{"pitch":0.08961207419633865,"yaw":-160.44190979003906,"roll":-0.1587219089269638}},"velocity":{"x":-9.48475170135498,"y":-3.886990547180176,"z":0.00025297162937931716},"angular_velocity":{"x":-0.39972880482673645,"y":-0.26754331588745117,"z":28.851133346557617},"acceleration":{"x":-2.509593963623047,"y":-7.570757865905762,"z":-0.001917648478411138},"speed_mps":10.250327332052322,"speed_kph":36.901178395388364,"speed_limit_kph":30.0,"collisions_this_frame":[],"waypoint":{"x":-95.25916290283203,"y":11.916650772094727,"z":0.0},"lane_deviation_m":0.4857848286628723,"lane_width":3.5,"goal":{"x":-68.73516845703125,"y":129.30384826660156,"z":0.5999999642372131},"fault":{"name":"camera_blackout","severity":1.0},"capture_flags":{"save_rgb":true,"save_depth":false,"video_rgb":true,"video_depth":false}}
{"frame":64,"timestamp":{"delta_seconds":0.05000000074505806,"elapsed_seconds":5.709465726278722},"control":{"throttle":0.8325362205505371,"steer":0.15700000524520874,"brake":0.0,"hand_brake":false,"reverse":false,"manual_gear_shift":false,"gear":0},"transform":{"location":{"x":-95.59850311279297,"y":11.255513191223145,"z":0.0015318298246711493},"rotation":{"pitch":0.083014115691185,"yaw":-158.93356323242188,"roll":-0.1759033054113388}},"velocity":{"x":-9.58959674835205,"y":-4.224162578582764,"z":0.00017984390433412045},"angular_velocity":{"x":-0.2183476686477661,"y":-0.22704654932022095,"z":31.003870010375977},"acceleration":{"x":-2.0969009399414062,"y":-6.743440628051758,"z":-0.0014625545591115952},"speed_mps":10.478736341689633,"speed_kph":37.723450830082676,"speed_limit_kph":30.0,"collisions_this_frame":[],"waypoint":{"x":-95.7989273071289,"y":11.687670707702637,"z":0.0},"lane_deviation_m":0.4763741195201874,"lane_width":3.5,"goal":{"x":-68.73516845703125,"y":129.30384826660156,"z":0.5999999642372131},"fault":{"name":"camera_blackout","severity":1.0},"capture_flags":{"save_rgb":true,"save_depth":false,"video_rgb":true,"video_depth":false}}
{"frame":65,"timestamp":{"delta_seconds":0.05000000074505806,"elapsed_seconds":5.75946572702378},"control":{"throttle":0.7825362086296082,"steer":0.16500000655651093,"brake":0.0,"hand_brake":false,"reverse":false,"manual_gear_shift":false,"gear":0},"transform":{"location":{"x":-96.0837173461914,"y":11.041961669921875,"z":0.00157756800763309},"rotation":{"pitch":0.07650494575500488,"yaw":-157.34402465820312,"roll":-0.1914367377758026}},"velocity":{"x":-9.665715217590332,"y":-4.586960315704346,"z":0.00012521744065452367},"angular_velocity":{"x":-0.2301388382911682,"y":-0.23214936256408691,"z":32.14857864379883},"acceleration":{"x":-1.522369384765625,"y":-7.255954742431641,"z":-0.0010925292735919356},"speed_mps":10.698890392049226,"speed_kph":38.516005411377215,"speed_limit_kph":30.0,"collisions_this_frame":[],"waypoint":{"x":-96.22602844238281,"y":11.487415313720703,"z":0.0},"lane_deviation_m":0.46763649582862854,"lane_width":3.5,"goal":{"x":-68.73516845703125,"y":129.30384826660156,"z":0.5999999642372131},"fault":{"name":"camera_blackout","severity":1.0},"capture_flags":{"save_rgb":true,"save_depth":false,"video_rgb":true,"video_depth":false}}
{"frame":66,"timestamp":{"delta_seconds":0.05000000074505806,"elapsed_seconds":5.809465727768838},"control":{"throttle":0.0,"steer":0.17599999904632568,"brake":1.0,"hand_brake":false,"reverse":false,"manual_gear_shift":false,"gear":0},"transform":{"location":{"x":-96.57127380371094,"y":10.810547828674316,"z":0.001624641357921064},"rotation":{"pitch":0.06940837949514389,"yaw":-155.64703369140625,"roll":-0.2081909030675888}},"velocity":{"x":-9.666637420654297,"y":-4.949982166290283,"z":8.376121695619076e-05},"angular_velocity":{"x":-0.21715815365314484,"y":-0.2768632769584656,"z":34.95429992675781},"acceleration":{"x":-0.018444061279296875,"y":-7.26043701171875,"z":-0.0008291244739666581},"speed_mps":10.860303977145472,"speed_kph":39.0970943177237,"speed_limit_kph":30.0,"collisions_this_frame":[],"waypoint":{"x":-96.761962890625,"y":11.210968017578125,"z":0.0},"lane_deviation_m":0.4435102045536041,"lane_width":3.5,"goal":{"x":-68.73516845703125,"y":129.30384826660156,"z":0.5999999642372131},"fault":{"name":"camera_blackout","severity":1.0},"capture_flags":{"save_rgb":true,"save_depth":false,"video_rgb":true,"video_depth":false}}
{"frame":67,"timestamp":{"delta_seconds":0.05000000074505806,"elapsed_seconds":5.8594657285138965},"control":{"throttle":0.0,"steer":0.1550000011920929,"brake":1.0,"hand_brake":false,"reverse":false,"manual_gear_shift":false,"gear":0},"transform":{"location":{"x":-97.05613708496094,"y":10.564289093017578,"z":0.0016965484246611595},"rotation":{"pitch":0.057762905955314636,"yaw":-153.97955322265625,"roll":-0.2133788764476776}},"velocity":{"x":-9.557353973388672,"y":-5.192900657653809,"z":6.339073297567666e-05},"angular_velocity":{"x":0.08735992759466171,"y":-0.28651943802833557,"z":32.2065315246582},"acceleration":{"x":2.1856689453125,"y":-4.858369827270508,"z":-0.0004074096796102822},"speed_mps":10.877004744732254,"speed_kph":39.157217081036116,"speed_limit_kph":30.0,"collisions_this_frame":[],"waypoint":{"x":-97.18310546875,"y":10.972925186157227,"z":0.0},"lane_deviation_m":0.42791038751602173,"lane_width":3.5,"goal":{"x":-68.73516845703125,"y":129.30384826660156,"z":0.5999999642372131},"fault":{"name":"camera_blackout","severity":1.0},"capture_flags":{"save_rgb":true,"save_depth":false,"video_rgb":true,"video_depth":false}}
{"frame":68,"timestamp":{"delta_seconds":0.05000000074505806,"elapsed_seconds":5.9094657292589545},"control":{"throttle":0.0,"steer":0.19099999964237213,"brake":1.0,"hand_brake":false,"reverse":false,"manual_gear_shift":false,"gear":0},"transform":{"location":{"x":-97.52993774414062,"y":10.306118965148926,"z":0.0018062591552734375},"rotation":{"pitch":0.039533134549856186,"yaw":-152.267333984375,"roll":-0.2252502292394638}},"velocity":{"x":-9.262001991271973,"y":-5.430542945861816,"z":3.9968490455066785e-05},"angular_velocity":{"x":-0.037253428250551224,"y":-0.4720795452594757,"z":35.19361877441406},"acceleration":{"x":5.907039642333984,"y":-4.752845764160156,"z":-0.0004684448358602822},"speed_mps":10.736641820176969,"speed_kph":38.65191055263709,"speed_limit_kph":30.0,"collisions_this_frame":[],"waypoint":{"x":-97.69377899169922,"y":10.658015251159668,"z":0.0},"lane_deviation_m":0.3881729245185852,"lane_width":3.5,"goal":{"x":-68.73516845703125,"y":129.30384826660156,"z":0.5999999642372131},"fault":{"name":"camera_blackout","severity":1.0},"capture_flags":{"save_rgb":true,"save_depth":false,"video_rgb":true,"video_depth":false}}
{"frame":69,"timestamp":{"delta_seconds":0.05000000074505806,"elapsed_seconds":5.959465730004013},"control":{"throttle":0.0,"steer":0.17599999904632568,"brake":1.0,"hand_brake":false,"reverse":false,"manual_gear_shift":false,"gear":0},"transform":{"location":{"x":-97.98735809326172,"y":10.039271354675293,"z":0.0019321822328493},"rotation":{"pitch":0.01833905652165413,"yaw":-150.5292205810547,"roll":-0.2301330417394638}},"velocity":{"x":-8.909976959228516,"y":-5.569795608520508,"z":3.0021667043911293e-05},"angular_velocity":{"x":0.1643633246421814,"y":-0.39748087525367737,"z":34.50396728515625},"acceleration":{"x":7.040500640869141,"y":-2.785053253173828,"z":-0.00019893646822310984},"speed_mps":10.50763115719136,"speed_kph":37.8274721658889,"speed_limit_kph":30.0,"collisions_this_frame":[],"waypoint":{"x":-98.1810531616211,"y":10.328666687011719,"z":0.0},"lane_deviation_m":0.34824010729789734,"lane_width":3.5,"goal":{"x":-68.73516845703125,"y":129.30384826660156,"z":0.5999999642372131},"fault":{"name":"camera_blackout","severity":1.0},"capture_flags":{"save_rgb":true,"save_depth":false,"video_rgb":true,"video_depth":false}}
{"frame":70,"timestamp":{"delta_seconds":0.05000000074505806,"elapsed_seconds":6.009465730749071},"control":{"throttle":0.0,"steer":0.18000000715255737,"brake":1.0,"hand_brake":false,"reverse":false,"manual_gear_shift":false,"gear":0},"transform":{"location":{"x":-98.42584991455078,"y":9.766243934631348,"z":0.0020545197185128927},"rotation":{"pitch":-0.0022607925347983837,"yaw":-148.79522705078125,"roll":-0.2329101264476776}},"velocity":{"x":-8.505949974060059,"y":-5.678725242614746,"z":2.271652192575857e-05},"angular_velocity":{"x":0.16288116574287415,"y":-0.365094929933548,"z":34.75960922241211},"acceleration":{"x":8.08053970336914,"y":-2.1785926818847656,"z":-0.00014610290236305445},"speed_mps":10.227370402153149,"speed_kph":36.818533447751335,"speed_limit_kph":30.0,"collisions_this_frame":[],"waypoint":{"x":-98.5511703491211,"y":10.058146476745605,"z":0.0},"lane_deviation_m":0.31767362356185913,"lane_width":3.5,"goal":{"x":-68.73516845703125,"y":129.30384826660156,"z":0.5999999642372131},"fault":{"name":"camera_blackout","severity":1.0},"capture_flags":{"save_rgb":true,"save_depth":false,"video_rgb":true,"video_depth":false}}
{"frame":71,"timestamp":{"delta_seconds":0.05000000074505806,"elapsed_seconds":6.059465731494129},"control":{"throttle":0.4825362265110016,"steer":0.1550000011920929,"brake":0.0,"hand_brake":false,"reverse":false,"manual_gear_shift":false,"gear":0},"transform":{"location":{"x":-98.84514617919922,"y":9.488903999328613,"z":0.002154731657356024},"rotation":{"pitch":-0.019226981326937675,"yaw":-147.15866088867188,"roll":-0.2274779975414276}},"velocity":{"x":-8.14566707611084,"y":-5.740437030792236,"z":1.7480850146966986e-05},"angular_velocity":{"x":0.2594759464263916,"y":-0.17920376360416412,"z":31.596603393554688},"acceleration":{"x":7.205657958984375,"y":-1.2342357635498047,"z":-0.00010471343557583168},"speed_mps":9.96516479641117,"speed_kph":35.874593267080215,"speed_limit_kph":30.0,"collisions_this_frame":[],"waypoint":{"x":-98.9908447265625,"y":9.711960792541504,"z":0.0},"lane_deviation_m":0.2664339244365692,"lane_width":3.5,"goal":{"x":-68.73516845703125,"y":129.30384826660156,"z":0.5999999642372131},"fault":{"name":"camera_blackout","severity":1.0},"capture_flags":{"save_rgb":true,"save_depth":false,"video_rgb":true,"video_depth":false}}
{"frame":72,"timestamp":{"delta_seconds":0.05000000074505806,"elapsed_seconds":6.109465732239187},"control":{"throttle":0.43253621459007263,"steer":0.0989999994635582,"brake":0.0,"hand_brake":false,"reverse":false,"manual_gear_shift":false,"gear":0},"transform":{"location":{"x":-99.25048828125,"y":9.209091186523438,"z":0.0022096633911132812},"rotation":{"pitch":-0.02850237861275673,"yaw":-145.78720092773438,"roll":-0.20410151779651642}},"velocity":{"x":-7.937717914581299,"y":-5.744841575622559,"z":2.0923613192280754e-05},"angular_velocity":{"x":0.46166425943374634,"y":0.1683330237865448,"z":25.298574447631836},"acceleration":{"x":4.15898323059082,"y":-0.08809089660644531,"z":6.885526090627536e-05},"speed_mps":9.798498375817806,"speed_kph":35.274594152944104,"speed_limit_kph":30.0,"collisions_this_frame":[],"waypoint":{"x":-99.32416534423828,"y":9.430058479309082,"z":0.0},"lane_deviation_m":0.23293720185756683,"lane_width":3.5,"goal":{"x":-68.73516845703125,"y":129.30384826660156,"z":0.5999999642372131},"fault":{"name":"camera_blackout","severity":1.0},"capture_flags":{"save_rgb":true,"save_depth":false,"video_rgb":true,"video_depth":false}}
{"frame":73,"timestamp":{"delta_seconds":0.05000000074505806,"elapsed_seconds":6.159465732984245},"control":{"throttle":0.38253623247146606,"steer":0.18199999630451202,"brake":0.0,"hand_brake":false,"reverse":false,"manual_gear_shift":false,"gear":0},"transform":{"location":{"x":-99.64315032958984,"y":8.922809600830078,"z":0.0022288893815129995},"rotation":{"pitch":-0.0316169448196888,"yaw":-144.45086669921875,"roll":-0.207427978515625}},"velocity":{"x":-7.63915491104126,"y":-5.9410400390625,"z":1.41525260914932e-05},"angular_velocity":{"x":-0.22881489992141724,"y":-0.20544996857643127,"z":28.581920623779297},"acceleration":{"x":5.971260070800781,"y":-3.923969268798828,"z":-0.00013542173837777227},"speed_mps":9.677429643290093,"speed_kph":34.83874671584434,"speed_limit_kph":30.0,"collisions_this_frame":[],"waypoint":{"x":-99.716064453125,"y":9.072867393493652,"z":0.0},"lane_deviation_m":0.16684956848621368,"lane_width":3.5,"goal":{"x":-68.73516845703125,"y":129.30384826660156,"z":0.5999999642372131},"fault":{"name":"camera_blackout","severity":1.0},"capture_flags":{"save_rgb":true,"save_depth":false,"video_rgb":true,"video_depth":false}}
{"frame":74,"timestamp":{"delta_seconds":0.05000000074505806,"elapsed_seconds":6.209465733729303},"control":{"throttle":0.3325362205505371,"steer":0.12200000137090683,"brake":0.0,"hand_brake":false,"reverse":false,"manual_gear_shift":false,"gear":0},"transform":{"location":{"x":-100.02457427978516,"y":8.629528999328613,"z":0.002225685166195035},"rotation":{"pitch":-0.031002227216959,"yaw":-143.11474609375,"roll":-0.20059199631214142}},"velocity":{"x":-7.465489864349365,"y":-6.030971050262451,"z":9.126662916969508e-06},"angular_velocity":{"x":0.16849929094314575,"y":0.1638055294752121,"z":25.8250732421875},"acceleration":{"x":3.4733009338378906,"y":-1.7986202239990234,"z":-0.00010051726712845266},"speed_mps":9.597194940392228,"speed_kph":34.549901785412025,"speed_limit_kph":30.0,"collisions_this_frame":[],"waypoint":{"x":-100.09503173828125,"y":8.693692207336426,"z":0.0},"lane_deviation_m":0.0953211635351181,"lane_width":3.5,"goal":{"x":-68.73516845703125,"y":129.30384826660156,"z":0.5999999642372131},"fault":{"name":"camera_blackout","severity":1.0},"capture_flags":{"save_rgb":true,"save_depth":false,"video_rgb":true,"video_depth":false}}
{"frame":75,"timestamp":{"delta_seconds":0.05000000074505806,"elapsed_seconds":6.259465734474361},"control":{"throttle":0.28253620862960815,"steer":0.11999999731779099,"brake":0.0,"hand_brake":false,"reverse":false,"manual_gear_shift":false,"gear":0},"transform":{"location":{"x":-100.39697265625,"y":8.330745697021484,"z":0.0022142028901726007},"rotation":{"pitch":-0.029055623337626457,"yaw":-141.89083862304688,"roll":-0.1895141303539276}},"velocity":{"x":-7.288108825683594,"y":-6.131636619567871,"z":1.0194778042205144e-05},"angular_velocity":{"x":0.1303274929523468,"y":0.1542760133743286,"z":23.74608612060547},"acceleration":{"x":3.5476207733154297,"y":-2.0133113861083984,"z":2.1362302504712716e-05},"speed_mps":9.524363385000424,"speed_kph":34.287708186001524,"speed_limit_kph":30.0,"collisions_this_frame":[],"waypoint":{"x":-100.37126922607422,"y":8.393455505371094,"z":0.0},"lane_deviation_m":0.06780920922756195,"lane_width":3.5,"goal":{"x":-68.73516845703125,"y":129.30384826660156,"z":0.5999999642372131},"fault":{"name":"camera_blackout","severity":1.0},"capture_flags":{"save_rgb":true,"save_depth":false,"video_rgb":true,"video_depth":false}}
{"frame":76,"timestamp":{"delta_seconds":0.05000000074505806,"elapsed_seconds":6.309465735219419},"control":{"throttle":0.2325362265110016,"steer":0.125,"brake":0.0,"hand_brake":false,"reverse":false,"manual_gear_shift":false,"gear":0},"transform":{"location":{"x":-100.75997161865234,"y":8.026474952697754,"z":0.002203826792538166},"rotation":{"pitch":-0.027252452448010445,"yaw":-140.70510864257812,"roll":-0.1827697455883026}},"velocity":{"x":-7.095191478729248,"y":-6.235545635223389,"z":1.0576248314464465e-05},"angular_velocity":{"x":0.07028980553150177,"y":0.09809450805187225,"z":23.71109962463379},"acceleration":{"x":3.858346939086914,"y":-2.0781803131103516,"z":7.629405445186421e-06},"speed_mps":9.445833551831063,"speed_kph":34.00500078659183,"speed_limit_kph":30.0,"collisions_this_frame":[],"waypoint":{"x":-100.7060317993164,"y":7.998614311218262,"z":0.0},"lane_deviation_m":0.06075011193752289,"lane_width":3.5,"goal":{"x":-68.73516845703125,"y":129.30384826660156,"z":0.5999999642372131},"fault":{"name":"camera_blackout","severity":1.0},"capture_flags":{"save_rgb":true,"save_depth":false,"video_rgb":true,"video_depth":false}}
{"frame":77,"timestamp":{"delta_seconds":0.05000000074505806,"elapsed_seconds":6.359465735964477},"control":{"throttle":0.5098742246627808,"steer":0.1120000034570694,"brake":0.0,"hand_brake":false,"reverse":false,"manual_gear_shift":false,"gear":0},"transform":{"location":{"x":-101.11402130126953,"y":7.717540740966797,"z":0.0021945571061223745},"rotation":{"pitch":-0.02566101960837841,"yaw":-139.58058166503906,"roll":-0.1732177585363388}},"velocity":{"x":-6.930245876312256,"y":-6.314051151275635,"z":7.286071650014492e-06},"angular_velocity":{"x":0.123570017516613,"y":0.1492154896259308,"z":21.815040588378906},"acceleration":{"x":3.2989120483398438,"y":-1.5701103210449219,"z":-6.580353510798886e-05},"speed_mps":9.375262654833799,"speed_kph":33.75094555740168,"speed_limit_kph":30.0,"collisions_this_frame":[],"waypoint":{"x":-100.95156860351562,"y":7.684253215789795,"z":0.0},"lane_deviation_m":0.16584256291389465,"lane_width":3.5,"goal":{"x":-68.73516845703125,"y":129.30384826660156,"z":0.5999999642372131},"fault":{"name":"camera_blackout","severity":1.0},"capture_flags":{"save_rgb":true,"save_depth":false,"video_rgb":true,"video_depth":false}}
{"frame":78,"timestamp":{"delta_seconds":0.05000000074505806,"elapsed_seconds":6.409465736709535},"control":{"throttle":1.0,"steer":0.13099999725818634,"brake":0.0,"hand_brake":false,"reverse":false,"manual_gear_shift":false,"gear":0},"transform":{"location":{"x":-101.45933532714844,"y":7.40299129486084,"z":0.002181358402594924},"rotation":{"pitch":-0.02337290532886982,"yaw":-138.44229125976562,"roll":-0.1714172214269638}},"velocity":{"x":-6.751088619232178,"y":-6.4470367431640625,"z":5.884170604986139e-06},"angular_velocity":{"x":-0.03522951528429985,"y":0.05028645694255829,"z":23.269224166870117},"acceleration":{"x":3.5831451416015625,"y":-2.6597118377685547,"z":-2.8038020900567062e-05},"speed_mps":9.334960113062527,"speed_kph":33.6058564070251,"speed_limit_kph":30.0,"collisions_this_frame":[],"waypoint":{"x":-101.24207305908203,"y":7.280624866485596,"z":0.0},"lane_deviation_m":0.2493615746498108,"lane_width":3.5,"goal":{"x":-68.73516845703125,"y":129.30384826660156,"z":0.5999999642372131},"fault":{"name":"camera_blackout","severity":1.0},"capture_flags":{"save_rgb":true,"save_depth":false,"video_rgb":true,"video_depth":false}}
{"frame":79,"timestamp":{"delta_seconds":0.05000000074505806,"elapsed_seconds":6.459465737454593},"control":{"throttle":0.939507007598877,"steer":0.12300000339746475,"brake":0.0,"hand_brake":false,"reverse":false,"manual_gear_shift":false,"gear":0},"transform":{"location":{"x":-101.79801177978516,"y":7.081042289733887,"z":0.0021520613227039576},"rotation":{"pitch":-0.01837320812046528,"yaw":-137.29786682128906,"roll":-0.1683349311351776}},"velocity":{"x":-6.644636631011963,"y":-6.607832908630371,"z":3.4236907140439143e-06},"angular_velocity":{"x":-0.038186296820640564,"y":0.13902683556079865,"z":22.64621925354004},"acceleration":{"x":2.129039764404297,"y":-3.215923309326172,"z":-4.9209596909349784e-05},"speed_mps":9.370947215013873,"speed_kph":33.735409974049944,"speed_limit_kph":30.0,"collisions_this_frame":[],"waypoint":{"x":-101.45941925048828,"y":6.952338218688965,"z":0.0},"lane_deviation_m":0.36223509907722473,"lane_width":3.5,"goal":{"x":-68.73516845703125,"y":129.30384826660156,"z":0.5999999642372131},"fault":{"name":"camera_blackout","severity":1.0},"capture_flags":{"save_rgb":true,"save_depth":false,"video_rgb":true,"video_depth":false}}
