{"frame":279,"timestamp":{"delta_seconds":0.05000000074505806,"elapsed_seconds":6.761705985292792},"control":{"throttle":0.75,"steer":0.0,"brake":0.0,"hand_brake":false,"reverse":false,"manual_gear_shift":false,"gear":0},"transform":{"location":{"x":-87.6230239868164,"y":12.967159271240234,"z":0.48239994049072266},"rotation":{"pitch":0.0,"yaw":-179.84078979492188,"roll":0.0}},"velocity":{"x":0.0,"y":0.0,"z":-1.470000147819519},"angular_velocity":{"x":0.0,"y":0.0,"z":0.0},"acceleration":{"x":0.0,"y":0.0,"z":-9.80000114440918},"speed_mps":1.470000147819519,"speed_kph":5.2920005321502686,"speed_limit_kph":30.0,"collisions_this_frame":[],"waypoint":{"x":-87.62295532226562,"y":12.94051742553711,"z":0.0},"lane_deviation_m":0.48313507437705994,"lane_width":3.5,"goal":{"x":-15.448323249816895,"y":-68.00706481933594,"z":0.6000048518180847},"fault":{"name":"camera_blackout","severity":1.0},"capture_flags":{"save_rgb":true,"save_depth":false,"video_rgb":true,"video_depth":false}}
{"frame":280,"timestamp":{"delta_seconds":0.05000000074505806,"elapsed_seconds":6.81170598603785},"control":{"throttle":0.75,"steer":0.0,"brake":0.0,"hand_brake":false,"reverse":false,"manual_gear_shift":false,"gear":0},"transform":{"location":{"x":-87.6230239868164,"y":12.967159271240234,"z":0.394199937582016},"rotation":{"pitch":0.0,"yaw":-179.84078979492188,"roll":0.0}},"velocity":{"x":0.0,"y":0.0,"z":-1.9600002765655518},"angular_velocity":{"x":0.0,"y":0.0,"z":0.0},"acceleration":{"x":0.0,"y":0.0,"z":-9.800003051757812},"speed_mps":1.9600002765655518,"speed_kph":7.056000995635986,"speed_limit_kph":30.0,"collisions_this_frame":[],"waypoint":{"x":-87.62295532226562,"y":12.94051742553711,"z":0.0},"lane_deviation_m":0.3950991928577423,"lane_width":3.5,"goal":{"x":-15.448323249816895,"y":-68.00706481933594,"z":0.6000048518180847},"fault":{"name":"camera_blackout","severity":1.0},"capture_flags":{"save_rgb":true,"save_depth":false,"video_rgb":true,"video_depth":false}}
{"frame":281,"timestamp":{"delta_seconds":0.05000000074505806,"elapsed_seconds":6.861705986782908},"control":{"throttle":0.75,"steer":0.0,"brake":0.0,"hand_brake":false,"reverse":false,"manual_gear_shift":false,"gear":0},"transform":{"location":{"x":-87.6230239868164,"y":12.967159271240234,"z":0.281499981880188},"rotation":{"pitch":0.0,"yaw":-179.84078979492188,"roll":0.0}},"velocity":{"x":0.0,"y":0.0,"z":-2.450000286102295},"angular_velocity":{"x":0.0,"y":0.0,"z":0.0},"acceleration":{"x":0.0,"y":0.0,"z":-9.800000190734863},"speed_mps":2.450000286102295,"speed_kph":8.820001029968262,"speed_limit_kph":30.0,"collisions_this_frame":[],"waypoint":{"x":-87.62295532226562,"y":12.94051742553711,"z":0.0},"lane_deviation_m":0.2827579081058502,"lane_width":3.5,"goal":{"x":-15.448323249816895,"y":-68.00706481933594,"z":0.6000048518180847},"fault":{"name":"camera_blackout","severity":1.0},"capture_flags":{"save_rgb":true,"save_depth":false,"video_rgb":true,"video_depth":false}}
{"frame":282,"timestamp":{"delta_seconds":0.05000000074505806,"elapsed_seconds":6.9117059875279665},"control":{"throttle":0.75,"steer":0.0,"brake":0.0,"hand_brake":false,"reverse":false,"manual_gear_shift":false,"gear":0},"transform":{"location":{"x":-87.6230239868164,"y":12.967159271240234,"z":0.14429987967014313},"rotation":{"pitch":0.0,"yaw":-179.84078979492188,"roll":0.0}},"velocity":{"x":0.0,"y":0.0,"z":-2.93999981880188},"angular_velocity":{"x":0.0,"y":0.0,"z":0.0},"acceleration":{"x":0.0,"y":0.0,"z":-9.7999906539917},"speed_mps":2.93999981880188,"speed_kph":10.583999347686769,"speed_limit_kph":30.0,"collisions_this_frame":[],"waypoint":{"x":-87.62295532226562,"y":12.94051742553711,"z":0.0},"lane_deviation_m":0.1467387080192566,"lane_width":3.5,"goal":{"x":-15.448323249816895,"y":-68.00706481933594,"z":0.6000048518180847},"fault":{"name":"camera_blackout","severity":1.0},"capture_flags":{"save_rgb":true,"save_depth":false,"video_rgb":true,"video_depth":false}}
{"frame":283,"timestamp":{"delta_seconds":0.05000000074505806,"elapsed_seconds":6.961705988273025},"control":{"throttle":0.75,"steer":0.0,"brake":0.0,"hand_brake":false,"reverse":false,"manual_gear_shift":false,"gear":0},"transform":{"location":{"x":-87.62357330322266,"y":12.96517276763916,"z":0.009365997277200222},"rotation":{"pitch":0.07286445051431656,"yaw":-179.8075408935547,"roll":-0.1875305026769638}},"velocity":{"x":0.0027095067780464888,"y":-0.022531399503350258,"z":-2.008272886276245},"angular_velocity":{"x":-5.179205417633057,"y":2.2222490310668945,"z":0.21223808825016022},"acceleration":{"x":0.05419013649225235,"y":-0.45062798261642456,"z":18.634538650512695},"speed_mps":2.0084011031521767,"speed_kph":7.230243971347837,"speed_limit_kph":30.0,"collisions_this_frame":[],"waypoint":{"x":-87.62350463867188,"y":12.940515518188477,"z":0.0},"lane_deviation_m":0.026376251131296158,"lane_width":3.5,"goal":{"x":-15.448323249816895,"y":-68.00706481933594,"z":0.6000048518180847},"fault":{"name":"camera_blackout","severity":1.0},"capture_flags":{"save_rgb":true,"save_depth":false,"video_rgb":true,"video_depth":false}}
{"frame":284,"timestamp":{"delta_seconds":0.05000000074505806,"elapsed_seconds":7.011705989018083},"control":{"throttle":0.75,"steer":0.0,"brake":0.0,"hand_brake":false,"reverse":false,"manual_gear_shift":false,"gear":0},"transform":{"location":{"x":-87.62406921386719,"y":12.96351146697998,"z":-0.04846011847257614},"rotation":{"pitch":0.15083788335323334,"yaw":-179.8032989501953,"roll":-0.33303821086883545}},"velocity":{"x":-0.0006389307673089206,"y":-0.006589831784367561,"z":-0.7027705311775208},"angular_velocity":{"x":-1.4378985166549683,"y":1.0056092739105225,"z":-0.048369329422712326},"acceleration":{"x":-0.06696875393390656,"y":0.31883135437965393,"z":26.110048294067383},"speed_mps":0.702801717134361,"speed_kph":2.5300861816837,"speed_limit_kph":30.0,"collisions_this_frame":[],"waypoint":{"x":-87.62400817871094,"y":12.940513610839844,"z":0.0},"lane_deviation_m":0.05364036187529564,"lane_width":3.5,"goal":{"x":-15.448323249816895,"y":-68.00706481933594,"z":0.6000048518180847},"fault":{"name":"camera_blackout","severity":1.0},"capture_flags":{"save_rgb":true,"save_depth":false,"video_rgb":true,"video_depth":false}}
{"frame":285,"timestamp":{"delta_seconds":0.05000000074505806,"elapsed_seconds":7.061705989763141},"control":{"throttle":0.75,"steer":0.0,"brake":0.0,"hand_brake":false,"reverse":false,"manual_gear_shift":false,"gear":0},"transform":{"location":{"x":-87.62419128417969,"y":12.963289260864258,"z":-0.06371334195137024},"rotation":{"pitch":0.17248958349227905,"yaw":-179.8021240234375,"roll":-0.34954833984375}},"velocity":{"x":0.0011277806479483843,"y":-0.00022247667948249727,"z":-0.1011342778801918},"angular_velocity":{"x":0.21106195449829102,"y":0.11070902645587921,"z":0.06372814625501633},"acceleration":{"x":0.035334229469299316,"y":0.12734709680080414,"z":12.032724380493164},"speed_mps":0.10114081049413562,"speed_kph":0.36410691777888826,"speed_limit_kph":30.0,"collisions_this_frame":[],"waypoint":{"x":-87.62413024902344,"y":12.940513610839844,"z":0.0},"lane_deviation_m":0.0676618367433548,"lane_width":3.5,"goal":{"x":-15.448323249816895,"y":-68.00706481933594,"z":0.6000048518180847},"fault":{"name":"camera_blackout","severity":1.0},"capture_flags":{"save_rgb":true,"save_depth":false,"video_rgb":true,"video_depth":false}}
{"frame":286,"timestamp":{"delta_seconds":0.05000000074505806,"elapsed_seconds":7.111705990508199},"control":{"throttle":0.75,"steer":0.0,"brake":0.0,"hand_brake":false,"reverse":false,"manual_gear_shift":false,"gear":0},"transform":{"location":{"x":-87.62409973144531,"y":12.96371078491211,"z":-0.06023666262626648},"rotation":{"pitch":0.15232686698436737,"yaw":-179.80409240722656,"roll":-0.29660025238990784}},"velocity":{"x":-0.001690506935119629,"y":0.0026213484816253185,"z":0.14474524557590485},"angular_velocity":{"x":1.149038314819336,"y":-0.4998834431171417,"z":-0.0935584306716919},"acceleration":{"x":-0.05636575073003769,"y":0.05687650293111801,"z":4.917590618133545},"speed_mps":0.1447788499691471,"speed_kph":0.5212038598889296,"speed_limit_kph":30.0,"collisions_this_frame":[],"waypoint":{"x":-87.62403869628906,"y":12.940513610839844,"z":0.0},"lane_deviation_m":0.06454896181821823,"lane_width":3.5,"goal":{"x":-15.448323249816895,"y":-68.00706481933594,"z":0.6000048518180847},"fault":{"name":"camera_blackout","severity":1.0},"capture_flags":{"save_rgb":true,"save_depth":false,"video_rgb":true,"video_depth":false}}
{"frame":287,"timestamp":{"delta_seconds":0.05000000074505806,"elapsed_seconds":7.161705991253257},"control":{"throttle":0.75,"steer":0.0,"brake":0.0,"hand_brake":false,"reverse":false,"manual_gear_shift":false,"gear":0},"transform":{"location":{"x":-87.62395477294922,"y":12.964290618896484,"z":-0.050149381160736084},"rotation":{"pitch":0.12685710191726685,"yaw":-179.8055877685547,"roll":-0.245391845703125}},"velocity":{"x":5.244612566457363e-06,"y":0.005225048400461674,"z":0.2200310230255127},"angular_velocity":{"x":0.9269015789031982,"y":-0.49148479104042053,"z":-6.928906077519059e-05},"acceleration":{"x":0.03391503170132637,"y":0.05207400023937225,"z":1.5057156085968018},"speed_mps":0.22009305362038764,"speed_kph":0.7923349930333955,"speed_limit_kph":30.0,"collisions_this_frame":[],"waypoint":{"x":-87.62389373779297,"y":12.940513610839844,"z":0.0},"lane_deviation_m":0.05550054460763931,"lane_width":3.5,"goal":{"x":-15.448323249816895,"y":-68.00706481933594,"z":0.6000048518180847},"fault":{"name":"camera_blackout","severity":1.0},"capture_flags":{"save_rgb":true,"save_depth":false,"video_rgb":true,"video_depth":false}}
{"frame":288,"timestamp":{"delta_seconds":0.05000000074505806,"elapsed_seconds":7.211705991998315},"control":{"throttle":0.75,"steer":0.0,"brake":0.0,"hand_brake":false,"reverse":false,"manual_gear_shift":false,"gear":0},"transform":{"location":{"x":-87.62382507324219,"y":12.964905738830566,"z":-0.03888813033699989},"rotation":{"pitch":0.10226842015981674,"yaw":-179.80819702148438,"roll":-0.1998290717601776}},"velocity":{"x":-0.001454890938475728,"y":0.0064743999391794205,"z":0.21779030561447144},"angular_velocity":{"x":0.8898360133171082,"y":-0.47551146149635315,"z":-0.08678608387708664},"acceleration":{"x":-0.029202710837125778,"y":0.024987030774354935,"z":-0.044814348220825195},"speed_mps":0.2178913761071332,"speed_kph":0.7844089539856794,"speed_limit_kph":30.0,"collisions_this_frame":[],"waypoint":{"x":-87.62376403808594,"y":12.940513610839844,"z":0.0},"lane_deviation_m":0.0459049716591835,"lane_width":3.5,"goal":{"x":-15.448323249816895,"y":-68.00706481933594,"z":0.6000048518180847},"fault":{"name":"camera_blackout","severity":1.0},"capture_flags":{"save_rgb":true,"save_depth":false,"video_rgb":true,"video_depth":false}}
{"frame":289,"timestamp":{"delta_seconds":0.05000000074505806,"elapsed_seconds":7.261705992743373},"control":{"throttle":0.75,"steer":0.0,"brake":0.0,"hand_brake":false,"reverse":false,"manual_gear_shift":false,"gear":0},"transform":{"location":{"x":-87.62371063232422,"y":12.965472221374512,"z":-0.028712119907140732},"rotation":{"pitch":0.08295947313308716,"yaw":-179.80992126464844,"roll":-0.1660766452550888}},"velocity":{"x":7.454991282429546e-05,"y":0.006701248697936535,"z":0.18824395537376404},"angular_velocity":{"x":0.536929726600647,"y":-0.32188013195991516,"z":-0.0026958035305142403},"acceleration":{"x":0.030588816851377487,"y":0.004536975175142288,"z":-0.590927004814148},"speed_mps":0.1883632103850451,"speed_kph":0.6781075573861625,"speed_limit_kph":30.0,"collisions_this_frame":[],"waypoint":{"x":-87.62364196777344,"y":12.940515518188477,"z":0.0},"lane_deviation_m":0.03804244473576546,"lane_width":3.5,"goal":{"x":-15.448323249816895,"y":-68.00706481933594,"z":0.6000048518180847},"fault":{"name":"camera_blackout","severity":1.0},"capture_flags":{"save_rgb":true,"save_depth":false,"video_rgb":true,"video_depth":false}}
{"frame":290,"timestamp":{"delta_seconds":0.05000000074505806,"elapsed_seconds":7.311705993488431},"control":{"throttle":0.75,"steer":0.0,"brake":0.0,"hand_brake":false,"reverse":false,"manual_gear_shift":false,"gear":0},"transform":{"location":{"x":-87.63607025146484,"y":12.965995788574219,"z":-0.020585402846336365},"rotation":{"pitch":0.07563751190900803,"yaw":-179.82827758789062,"roll":-0.12274166941642761}},"velocity":{"x":-0.5698153972625732,"y":0.003159251529723406,"z":0.14755013585090637},"angular_velocity":{"x":0.4818536043167114,"y":0.2622916102409363,"z":-0.6147181391716003},"acceleration":{"x":-11.397799491882324,"y":-0.07083994150161743,"z":-0.8138763904571533},"speed_mps":0.5886175417173304,"speed_kph":2.1190231501823895,"speed_limit_kph":30.0,"collisions_this_frame":[],"waypoint":{"x":-87.63600158691406,"y":12.940481185913086,"z":0.0},"lane_deviation_m":0.03278350830078125,"lane_width":3.5,"goal":{"x":-15.448323249816895,"y":-68.00706481933594,"z":0.6000048518180847},"fault":{"name":"camera_blackout","severity":1.0},"capture_flags":{"save_rgb":true,"save_depth":false,"video_rgb":true,"video_depth":false}}
{"frame":291,"timestamp":{"delta_seconds":0.05000000074505806,"elapsed_seconds":7.361705994233489},"control":{"throttle":0.75,"steer":0.0005861782119609416,"brake":0.0,"hand_brake":false,"reverse":false,"manual_gear_shift":false,"gear":0},"transform":{"location":{"x":-87.68753814697266,"y":12.965694427490234,"z":-0.013951187022030354},"rotation":{"pitch":0.12227404117584229,"yaw":-179.8437042236328,"roll":-0.1655578464269638}},"velocity":{"x":-1.2920407056808472,"y":0.0024645745288580656,"z":0.13481099903583527},"angular_velocity":{"x":-1.8113526105880737,"y":1.3360785245895386,"z":-0.28828465938568115},"acceleration":{"x":-14.44450569152832,"y":-0.013893540017306805,"z":-0.2547827363014221},"speed_mps":1.299057067539725,"speed_kph":4.676605443143011,"speed_limit_kph":30.0,"collisions_this_frame":[],"waypoint":{"x":-87.68746948242188,"y":12.940338134765625,"z":0.0},"lane_deviation_m":0.02894100733101368,"lane_width":3.5,"goal":{"x":-15.448323249816895,"y":-68.00706481933594,"z":0.6000048518180847},"fault":{"name":"camera_blackout","severity":1.0},"capture_flags":{"save_rgb":true,"save_depth":false,"video_rgb":true,"video_depth":false}}
{"frame":292,"timestamp":{"delta_seconds":0.05000000074505806,"elapsed_seconds":7.411705994978547},"control":{"throttle":0.75,"steer":0.0005861782119609416,"brake":0.0,"hand_brake":false,"reverse":false,"manual_gear_shift":false,"gear":0},"transform":{"location":{"x":-87.76859283447266,"y":12.965869903564453,"z":-0.008587837219238281},"rotation":{"pitch":0.1694364994764328,"yaw":-179.85296630859375,"roll":-0.20501708984375}},"velocity":{"x":-1.8181557655334473,"y":0.012605937197804451,"z":0.09166370332241058},"angular_velocity":{"x":0.33716168999671936,"y":0.4139084219932556,"z":-1.1555076837539673},"acceleration":{"x":-10.522300720214844,"y":0.20282724499702454,"z":-0.8629459142684937},"speed_mps":1.820508591548507,"speed_kph":6.553830929574626,"speed_limit_kph":30.0,"collisions_this_frame":[],"waypoint":{"x":-87.76852416992188,"y":12.940113067626953,"z":0.0},"lane_deviation_m":0.02715088054537773,"lane_width":3.5,"goal":{"x":-15.448323249816895,"y":-68.00706481933594,"z":0.6000048518180847},"fault":{"name":"camera_blackout","severity":1.0},"capture_flags":{"save_rgb":true,"save_depth":false,"video_rgb":true,"video_depth":false}}
{"frame":293,"timestamp":{"delta_seconds":0.05000000074505806,"elapsed_seconds":7.461705995723605},"control":{"throttle":0.75,"steer":-0.01139551866799593,"brake":0.0,"hand_brake":false,"reverse":false,"manual_gear_shift":false,"gear":0},"transform":{"location":{"x":-87.87306213378906,"y":12.96658992767334,"z":-0.004942817613482475},"rotation":{"pitch":0.18220211565494537,"yaw":-179.88760375976562,"roll":-0.1962890475988388}},"velocity":{"x":-2.241187810897827,"y":0.019166184589266777,"z":0.07108566164970398},"angular_velocity":{"x":-0.7162225246429443,"y":0.45234307646751404,"z":-0.773866593837738},"acceleration":{"x":-8.460640907287598,"y":0.13120494782924652,"z":-0.4115608334541321},"speed_mps":2.242396779707124,"speed_kph":8.072628406945647,"speed_limit_kph":30.0,"collisions_this_frame":[],"waypoint":{"x":-87.87299346923828,"y":12.939821243286133,"z":0.0},"lane_deviation_m":0.02722128853201866,"lane_width":3.5,"goal":{"x":-15.448323249816895,"y":-68.00706481933594,"z":0.6000048518180847},"fault":{"name":"camera_blackout","severity":1.0},"capture_flags":{"save_rgb":true,"save_depth":false,"video_rgb":true,"video_depth":false}}
{"frame":294,"timestamp":{"delta_seconds":0.05000000074505806,"elapsed_seconds":7.511705996468663},"control":{"throttle":0.75,"steer":-0.01139551866799593,"brake":0.0,"hand_brake":false,"reverse":false,"manual_gear_shift":false,"gear":0},"transform":{"location":{"x":-87.99507904052734,"y":12.967086791992188,"z":-0.0019306945614516735},"rotation":{"pitch":0.20499445497989655,"yaw":-179.91856384277344,"roll":-0.2383117377758026}},"velocity":{"x":-2.564953565597534,"y":0.020041843876242638,"z":0.05395995080471039},"angular_velocity":{"x":-0.46602606773376465,"y":0.2905322313308716,"z":-0.4560605585575104},"acceleration":{"x":-6.475315093994141,"y":0.017513185739517212,"z":-0.3425142168998718},"speed_mps":2.5655993735321014,"speed_kph":9.236157744715566,"speed_limit_kph":30.0,"collisions_this_frame":[],"waypoint":{"x":-87.99500274658203,"y":12.939483642578125,"z":0.0},"lane_deviation_m":0.027670692652463913,"lane_width":3.5,"goal":{"x":-15.448323249816895,"y":-68.00706481933594,"z":0.6000048518180847},"fault":{"name":"camera_blackout","severity":1.0},"capture_flags":{"save_rgb":true,"save_depth":false,"video_rgb":true,"video_depth":false}}
{"frame":295,"timestamp":{"delta_seconds":0.05000000074505806,"elapsed_seconds":7.561705997213721},"control":{"throttle":0.75,"steer":0.00850018672645092,"brake":0.0,"hand_brake":false,"reverse":false,"manual_gear_shift":false,"gear":0},"transform":{"location":{"x":-88.13228607177734,"y":12.967592239379883,"z":-0.0007497787592001259},"rotation":{"pitch":0.15809838473796844,"yaw":-179.91075134277344,"roll":-0.11587522178888321}},"velocity":{"x":-2.8740170001983643,"y":-0.036197736859321594,"z":-0.019410328939557076},"angular_velocity":{"x":5.3166728019714355,"y":-2.244938373565674,"z":0.363504558801651},"acceleration":{"x":-6.181268692016602,"y":-1.1247916221618652,"z":-1.4674055576324463},"speed_mps":2.8743104833076893,"speed_kph":10.347517739907682,"speed_limit_kph":30.0,"collisions_this_frame":[],"waypoint":{"x":-88.13220977783203,"y":12.939102172851562,"z":0.0},"lane_deviation_m":0.028500033542513847,"lane_width":3.5,"goal":{"x":-15.448323249816895,"y":-68.00706481933594,"z":0.6000048518180847},"fault":{"name":"camera_blackout","severity":1.0},"capture_flags":{"save_rgb":true,"save_depth":false,"video_rgb":true,"video_depth":false}}
{"frame":296,"timestamp":{"delta_seconds":0.05000000074505806,"elapsed_seconds":7.611705997958779},"control":{"throttle":0.75,"steer":0.00850018672645092,"brake":0.0,"hand_brake":false,"reverse":false,"manual_gear_shift":false,"gear":0},"transform":{"location":{"x":-88.28372955322266,"y":12.96644401550293,"z":-0.0007814025739207864},"rotation":{"pitch":0.09560897946357727,"yaw":-179.88497924804688,"roll":-0.004516600631177425}},"velocity":{"x":-3.146854877471924,"y":-0.039263248443603516,"z":-0.002120494842529297},"angular_velocity":{"x":1.0511493682861328,"y":-0.7792063355445862,"z":0.5608832240104675},"acceleration":{"x":-5.456757545471191,"y":-0.06131023168563843,"z":0.345796674489975},"speed_mps":3.1471005257292877,"speed_kph":11.329561892625437,"speed_limit_kph":30.0,"collisions_this_frame":[],"waypoint":{"x":-88.28365325927734,"y":12.938680648803711,"z":0.0},"lane_deviation_m":0.027774466201663017,"lane_width":3.5,"goal":{"x":-15.448323249816895,"y":-68.00706481933594,"z":0.6000048518180847},"fault":{"name":"camera_blackout","severity":1.0},"capture_flags":{"save_rgb":true,"save_depth":false,"video_rgb":true,"video_depth":false}}
{"frame":297,"timestamp":{"delta_seconds":0.05000000074505806,"elapsed_seconds":7.661705998703837},"control":{"throttle":0.75,"steer":-0.02516346238553524,"brake":0.0,"hand_brake":false,"reverse":false,"manual_gear_shift":false,"gear":0},"transform":{"location":{"x":-88.44938659667969,"y":12.966840744018555,"z":-0.0005238341982476413},"rotation":{"pitch":0.07470860332250595,"yaw":-179.93894958496094,"roll":0.023779379203915596}},"velocity":{"x":-3.4289300441741943,"y":0.03110608458518982,"z":0.004982938524335623},"angular_velocity":{"x":0.30007871985435486,"y":-0.24638187885284424,"z":-1.6246730089187622},"acceleration":{"x":-5.64150333404541,"y":1.4073866605758667,"z":0.14206866919994354},"speed_mps":3.4290747536347177,"speed_kph":12.344669113084985,"speed_limit_kph":30.0,"collisions_this_frame":[],"waypoint":{"x":-88.44931030273438,"y":12.938220977783203,"z":0.0},"lane_deviation_m":0.02862466126680374,"lane_width":3.5,"goal":{"x":-15.448323249816895,"y":-68.00706481933594,"z":0.6000048518180847},"fault":{"name":"camera_blackout","severity":1.0},"capture_flags":{"save_rgb":true,"save_depth":false,"video_rgb":true,"video_depth":false}}
{"frame":298,"timestamp":{"delta_seconds":0.05000000074505806,"elapsed_seconds":7.7117059994488955},"control":{"throttle":0.75,"steer":-0.02516346238553524,"brake":0.0,"hand_brake":false,"reverse":false,"manual_gear_shift":false,"gear":0},"transform":{"location":{"x":-88.62870788574219,"y":12.968643188476562,"z":-0.00015975951100699604},"rotation":{"pitch":0.068144790828228,"yaw":179.96702575683594,"roll":0.028556866571307182}},"velocity":{"x":-3.6921234130859375,"y":0.05414809659123421,"z":0.007094001397490501},"angular_velocity":{"x":0.005985611584037542,"y":-0.07973413169384003,"z":-1.9941015243530273},"acceleration":{"x":-5.263867378234863,"y":0.46084022521972656,"z":0.04222125560045242},"speed_mps":3.6925272698624223,"speed_kph":13.29309817150472,"speed_limit_kph":30.0,"collisions_this_frame":[],"waypoint":{"x":-88.62862396240234,"y":12.937723159790039,"z":0.0},"lane_deviation_m":0.03092055581510067,"lane_width":3.5,"goal":{"x":-15.448323249816895,"y":-68.00706481933594,"z":0.6000048518180847},"fault":{"name":"camera_blackout","severity":1.0},"capture_flags":{"save_rgb":true,"save_depth":false,"video_rgb":true,"video_depth":false}}
{"frame":299,"timestamp":{"delta_seconds":0.05000000074505806,"elapsed_seconds":7.7617060001939535},"control":{"throttle":0.75,"steer":-0.010651043616235256,"brake":0.0,"hand_brake":false,"reverse":false,"manual_gear_shift":false,"gear":0},"transform":{"location":{"x":-88.82097625732422,"y":12.970298767089844,"z":0.00020881652017123997},"rotation":{"pitch":0.06594547629356384,"yaw":179.9036865234375,"roll":0.022501155734062195}},"velocity":{"x":-3.945366144180298,"y":0.03775542601943016,"z":0.006941528059542179},"angular_velocity":{"x":-0.13409708440303802,"y":-0.03028540313243866,"z":-1.044806957244873},"acceleration":{"x":-5.064854621887207,"y":-0.32785341143608093,"z":-0.003049466758966446},"speed_mps":3.945552897712793,"speed_kph":14.203990431766055,"speed_limit_kph":30.0,"collisions_this_frame":[],"waypoint":{"x":-88.82069396972656,"y":12.937187194824219,"z":0.0},"lane_deviation_m":0.03311343491077423,"lane_width":3.5,"goal":{"x":-15.448323249816895,"y":-68.00706481933594,"z":0.6000048518180847},"fault":{"name":"camera_blackout","severity":1.0},"capture_flags":{"save_rgb":true,"save_depth":false,"video_rgb":true,"video_depth":false}}
{"frame":300,"timestamp":{"delta_seconds":0.05000000074505806,"elapsed_seconds":7.811706000939012},"control":{"throttle":0.75,"steer":-0.010651043616235256,"brake":0.0,"hand_brake":false,"reverse":false,"manual_gear_shift":false,"gear":0},"transform":{"location":{"x":-89.0254898071289,"y":12.971864700317383,"z":0.0005342483636923134},"rotation":{"pitch":0.06473653018474579,"yaw":179.85409545898438,"roll":0.017028890550136566}},"velocity":{"x":-4.186014175415039,"y":0.038845501840114594,"z":0.005923309363424778},"angular_velocity":{"x":-0.09213986992835999,"y":-0.02167317643761635,"z":-0.9812003970146179},"acceleration":{"x":-4.812960624694824,"y":0.02180151641368866,"z":-0.020364373922348022},"speed_mps":4.1861986019995125,"speed_kph":15.070314967198245,"speed_limit_kph":30.0,"collisions_this_frame":[],"waypoint":{"x":-89.02519226074219,"y":12.936619758605957,"z":0.0},"lane_deviation_m":0.03525024652481079,"lane_width":3.5,"goal":{"x":-15.448323249816895,"y":-68.00706481933594,"z":0.6000048518180847},"fault":{"name":"camera_blackout","severity":1.0},"capture_flags":{"save_rgb":true,"save_depth":false,"video_rgb":true,"video_depth":false}}
{"frame":301,"timestamp":{"delta_seconds":0.05000000074505806,"elapsed_seconds":7.86170600168407},"control":{"throttle":0.75,"steer":-0.019919149577617645,"brake":0.0,"hand_brake":false,"reverse":false,"manual_gear_shift":false,"gear":0},"transform":{"location":{"x":-89.2417984008789,"y":12.974190711975098,"z":0.0008000183152034879},"rotation":{"pitch":0.06365052610635757,"yaw":179.7766571044922,"roll":0.015980025753378868}},"velocity":{"x":-4.419229507446289,"y":0.06395669281482697,"z":0.00469861039891839},"angular_velocity":{"x":-0.012689860537648201,"y":-0.021757343783974648,"z":-1.7602906227111816},"acceleration":{"x":-4.664306640625,"y":0.5022238492965698,"z":-0.024493979290127754},"speed_mps":4.419694783011544,"speed_kph":15.910901218841559,"speed_limit_kph":30.0,"collisions_this_frame":[],"waypoint":{"x":-89.24147033691406,"y":12.936017990112305,"z":0.0},"lane_deviation_m":0.038182515650987625,"lane_width":3.5,"goal":{"x":-15.448323249816895,"y":-68.00706481933594,"z":0.6000048518180847},"fault":{"name":"camera_blackout","severity":1.0},"capture_flags":{"save_rgb":true,"save_depth":false,"video_rgb":true,"video_depth":false}}
{"frame":302,"timestamp":{"delta_seconds":0.05000000074505806,"elapsed_seconds":7.911706002429128},"control":{"throttle":0.75,"steer":-0.019919149577617645,"brake":0.0,"hand_brake":false,"reverse":false,"manual_gear_shift":false,"gear":0},"transform":{"location":{"x":-89.4696273803711,"y":12.97726058959961,"z":0.0010066223330795765},"rotation":{"pitch":0.06257136166095734,"yaw":179.68215942382812,"roll":0.014990463852882385}},"velocity":{"x":-4.648006916046143,"y":0.07787785679101944,"z":0.003563852282240987},"angular_velocity":{"x":-0.024111462756991386,"y":-0.021715311333537102,"z":-1.9524641036987305},"acceleration":{"x":-4.57554817199707,"y":0.2784232795238495,"z":-0.022695161402225494},"speed_mps":4.648660662302017,"speed_kph":16.735178384287263,"speed_limit_kph":30.0,"collisions_this_frame":[],"waypoint":{"x":-89.46926879882812,"y":12.935385704040527,"z":0.0},"lane_deviation_m":0.0418885163962841,"lane_width":3.5,"goal":{"x":-15.448323249816895,"y":-68.00706481933594,"z":0.6000048518180847},"fault":{"name":"camera_blackout","severity":1.0},"capture_flags":{"save_rgb":true,"save_depth":false,"video_rgb":true,"video_depth":false}}
{"frame":303,"timestamp":{"delta_seconds":0.05000000074505806,"elapsed_seconds":7.961706003174186},"control":{"throttle":0.75,"steer":-0.025565024465322495,"brake":0.0,"hand_brake":false,"reverse":false,"manual_gear_shift":false,"gear":0},"transform":{"location":{"x":-89.70877838134766,"y":12.981289863586426,"z":0.0011619948782026768},"rotation":{"pitch":0.06147852912545204,"yaw":179.5638427734375,"roll":0.015330343507230282}},"velocity":{"x":-4.872933864593506,"y":0.10349570959806442,"z":0.0026184367015957832},"angular_velocity":{"x":0.005818206816911697,"y":-0.021271303296089172,"z":-2.5365612506866455},"acceleration":{"x":-4.498538970947266,"y":0.5123570561408997,"z":-0.018908310681581497},"speed_mps":4.874033511047926,"speed_kph":17.54652063977253,"speed_limit_kph":30.0,"collisions_this_frame":[],"waypoint":{"x":-89.7083740234375,"y":12.934720993041992,"z":0.0},"lane_deviation_m":0.046585120260715485,"lane_width":3.5,"goal":{"x":-15.448323249816895,"y":-68.00706481933594,"z":0.6000048518180847},"fault":{"name":"camera_blackout","severity":1.0},"capture_flags":{"save_rgb":true,"save_depth":false,"video_rgb":true,"video_depth":false}}
{"frame":304,"timestamp":{"delta_seconds":0.05000000074505806,"elapsed_seconds":8.011706003919244},"control":{"throttle":0.75,"steer":-0.025565024465322495,"brake":0.0,"hand_brake":false,"reverse":false,"manual_gear_shift":false,"gear":0},"transform":{"location":{"x":-89.9591064453125,"y":12.986251831054688,"z":0.0014104079455137253},"rotation":{"pitch":0.060399360954761505,"yaw":179.4306640625,"roll":0.015168755315244198}},"velocity":{"x":-5.095175266265869,"y":0.12215762585401535,"z":0.00791369378566742},"angular_velocity":{"x":-0.008743507787585258,"y":-0.022895071655511856,"z":-2.7296993732452393},"acceleration":{"x":-4.444828033447266,"y":0.37323832511901855,"z":0.10590514540672302},"speed_mps":5.0966455739114425,"speed_kph":18.347924066081195,"speed_limit_kph":30.0,"collisions_this_frame":[],"waypoint":{"x":-89.95864868164062,"y":12.934025764465332,"z":0.0},"lane_deviation_m":0.05224711447954178,"lane_width":3.5,"goal":{"x":-15.448323249816895,"y":-68.00706481933594,"z":0.6000048518180847},"fault":{"name":"camera_blackout","severity":1.0},"capture_flags":{"save_rgb":true,"save_depth":false,"video_rgb":true,"video_depth":false}}
{"frame":305,"timestamp":{"delta_seconds":0.05000000074505806,"elapsed_seconds":8.061706004664302},"control":{"throttle":0.0,"steer":-0.052360545843839645,"brake":0.0,"hand_brake":false,"reverse":false,"manual_gear_shift":false,"gear":0},"transform":{"location":{"x":-90.21939086914062,"y":12.993818283081055,"z":0.0016648864839226007},"rotation":{"pitch":0.057940490543842316,"yaw":179.2005157470703,"roll":0.02334693633019924}},"velocity":{"x":-5.241976261138916,"y":0.1987179070711136,"z":0.0032070064917206764},"angular_velocity":{"x":0.09927225857973099,"y":-0.11838985234498978,"z":-5.469788074493408},"acceleration":{"x":-2.9360198974609375,"y":1.531205654144287,"z":-0.09413374960422516},"speed_mps":5.245742484513064,"speed_kph":18.884672944247033,"speed_limit_kph":30.0,"collisions_this_frame":[],"waypoint":{"x":-90.19679260253906,"y":12.932234764099121,"z":0.0},"lane_deviation_m":0.06561999022960663,"lane_width":3.5,"goal":{"x":-15.448323249816895,"y":-68.00706481933594,"z":0.6000048518180847},"fault":{"name":"camera_blackout","severity":1.0},"capture_flags":{"save_rgb":true,"save_depth":false,"video_rgb":true,"video_depth":false}}
{"frame":306,"timestamp":{"delta_seconds":0.05000000074505806,"elapsed_seconds":8.11170600540936},"control":{"throttle":0.0,"steer":-0.052360545843839645,"brake":0.0,"hand_brake":false,"reverse":false,"manual_gear_shift":false,"gear":0},"transform":{"location":{"x":-90.47994995117188,"y":13.003188133239746,"z":0.0018241500947624445},"rotation":{"pitch":0.04606962203979492,"yaw":178.93336486816406,"roll":0.025039272382855415}},"velocity":{"x":-5.199309349060059,"y":0.23202018439769745,"z":0.0010809516534209251},"angular_velocity":{"x":0.028441479429602623,"y":-0.25967279076576233,"z":-5.47683048248291},"acceleration":{"x":0.8533382415771484,"y":0.6660455465316772,"z":-0.042521096765995026},"speed_mps":5.204483859293614,"speed_kph":18.73614189345701,"speed_limit_kph":30.0,"collisions_this_frame":[],"waypoint":{"x":-90.42864990234375,"y":12.926776885986328,"z":0.0},"lane_deviation_m":0.09205270558595657,"lane_width":3.5,"goal":{"x":-15.448323249816895,"y":-68.00706481933594,"z":0.6000048518180847},"fault":{"name":"camera_blackout","severity":1.0},"capture_flags":{"save_rgb":true,"save_depth":false,"video_rgb":true,"video_depth":false}}
{"frame":307,"timestamp":{"delta_seconds":0.05000000074505806,"elapsed_seconds":8.161706006154418},"control":{"throttle":0.11095524579286575,"steer":-0.07043083012104034,"brake":0.0,"hand_brake":false,"reverse":false,"manual_gear_shift":false,"gear":0},"transform":{"location":{"x":-90.73587036132812,"y":13.013925552368164,"z":0.002739219693467021},"rotation":{"pitch":-0.005436830222606659,"yaw":178.64016723632812,"roll":-0.04498291015625}},"velocity":{"x":-5.046296119689941,"y":0.2767316997051239,"z":0.022726276889443398},"angular_velocity":{"x":-2.09675931930542,"y":-1.5784109830856323,"z":-5.6546759605407715},"acceleration":{"x":3.0602645874023438,"y":0.894230306148529,"z":0.43290650844573975},"speed_mps":5.053929307467675,"speed_kph":18.194145506883633,"speed_limit_kph":30.0,"collisions_this_frame":[],"waypoint":{"x":-90.73481750488281,"y":12.931868553161621,"z":0.0},"lane_deviation_m":0.08210945874452591,"lane_width":3.5,"goal":{"x":-15.448323249816895,"y":-68.00706481933594,"z":0.6000048518180847},"fault":{"name":"camera_blackout","severity":1.0},"capture_flags":{"save_rgb":true,"save_depth":false,"video_rgb":true,"video_depth":false}}
{"frame":308,"timestamp":{"delta_seconds":0.05000000074505806,"elapsed_seconds":8.211706006899476},"control":{"throttle":0.11095524579286575,"steer":-0.07043083012104034,"brake":0.0,"hand_brake":false,"reverse":false,"manual_gear_shift":false,"gear":0},"transform":{"location":{"x":-90.9894790649414,"y":13.027321815490723,"z":0.004020385444164276},"rotation":{"pitch":-0.06259868294000626,"yaw":178.30398559570312,"roll":-0.1106567308306694}},"velocity":{"x":-5.101355075836182,"y":0.3425505757331848,"z":0.023686932399868965},"angular_velocity":{"x":-1.5122486352920532,"y":-1.1476128101348877,"z":-7.129276752471924},"acceleration":{"x":-1.1011791229248047,"y":1.3163775205612183,"z":0.019213110208511353},"speed_mps":5.112897962746883,"speed_kph":18.40643266588878,"speed_limit_kph":30.0,"collisions_this_frame":[],"waypoint":{"x":-90.98825073242188,"y":12.931164741516113,"z":0.0},"lane_deviation_m":0.09624891728162766,"lane_width":3.5,"goal":{"x":-15.448323249816895,"y":-68.00706481933594,"z":0.6000048518180847},"fault":{"name":"camera_blackout","severity":1.0},"capture_flags":{"save_rgb":true,"save_depth":false,"video_rgb":true,"video_depth":false}}
{"frame":309,"timestamp":{"delta_seconds":0.05000000074505806,"elapsed_seconds":8.261706007644534},"control":{"throttle":0.11095524579286575,"steer":-0.09546099603176117,"brake":0.0,"hand_brake":false,"reverse":false,"manual_gear_shift":false,"gear":0},"transform":{"location":{"x":-91.2425765991211,"y":13.045186042785645,"z":0.0024532699026167393},"rotation":{"pitch":0.006249622907489538,"yaw":177.89796447753906,"roll":0.05091892555356026}},"velocity":{"x":-5.030860424041748,"y":0.39830684661865234,"z":-0.0265630055218935},"angular_velocity":{"x":1.3165611028671265,"y":0.872770369052887,"z":-8.579591751098633},"acceleration":{"x":1.4098930358886719,"y":1.1151254177093506,"z":-1.004998803138733},"speed_mps":5.046673215447496,"speed_kph":18.168023575610984,"speed_limit_kph":30.0,"collisions_this_frame":[],"waypoint":{"x":-91.24111938476562,"y":12.930461883544922,"z":0.0},"lane_deviation_m":0.11475963890552521,"lane_width":3.5,"goal":{"x":-15.448323249816895,"y":-68.00706481933594,"z":0.6000048518180847},"fault":{"name":"camera_blackout","severity":1.0},"capture_flags":{"save_rgb":true,"save_depth":false,"video_rgb":true,"video_depth":false}}
{"frame":310,"timestamp":{"delta_seconds":0.05000000074505806,"elapsed_seconds":8.311706008389592},"control":{"throttle":0.11095524579286575,"steer":-0.09546099603176117,"brake":0.0,"hand_brake":false,"reverse":false,"manual_gear_shift":false,"gear":0},"transform":{"location":{"x":-91.49370574951172,"y":13.064629554748535,"z":0.0016782379243522882},"rotation":{"pitch":0.027983283624053,"yaw":177.4282684326172,"roll":0.07638804614543915}},"velocity":{"x":-4.975542068481445,"y":0.4545443654060364,"z":-0.008097724989056587},"angular_velocity":{"x":0.0032212077639997005,"y":0.07938361912965775,"z":-9.869412422180176},"acceleration":{"x":1.1063671112060547,"y":1.1247503757476807,"z":0.3693056106567383},"speed_mps":4.996268110149914,"speed_kph":17.98656519653969,"speed_limit_kph":30.0,"collisions_this_frame":[],"waypoint":{"x":-91.49199676513672,"y":12.929764747619629,"z":0.0},"lane_deviation_m":0.13488607108592987,"lane_width":3.5,"goal":{"x":-15.448323249816895,"y":-68.00706481933594,"z":0.6000048518180847},"fault":{"name":"camera_blackout","severity":1.0},"capture_flags":{"save_rgb":true,"save_depth":false,"video_rgb":true,"video_depth":false}}
{"frame":311,"timestamp":{"delta_seconds":0.05000000074505806,"elapsed_seconds":8.36170600913465},"control":{"throttle":0.16553819179534912,"steer":-0.1100754514336586,"brake":0.0,"hand_brake":false,"reverse":false,"manual_gear_shift":false,"gear":0},"transform":{"location":{"x":-91.7430419921875,"y":13.087117195129395,"z":0.0014093017671257257},"rotation":{"pitch":0.026330377906560898,"yaw":176.87229919433594,"roll":0.07649458944797516}},"velocity":{"x":-4.974196434020996,"y":0.5443880558013916,"z":-0.007266111206263304},"angular_velocity":{"x":-0.05497068166732788,"y":-0.07445472478866577,"z":-11.174280166625977},"acceleration":{"x":0.026912689208984375,"y":1.7968738079071045,"z":0.01663227565586567},"speed_mps":5.003902608554494,"speed_kph":18.014049390796178,"speed_limit_kph":30.0,"collisions_this_frame":[],"waypoint":{"x":-91.74105072021484,"y":12.929072380065918,"z":0.0},"lane_deviation_m":0.1580636352300644,"lane_width":3.5,"goal":{"x":-15.448323249816895,"y":-68.00706481933594,"z":0.6000048518180847},"fault":{"name":"camera_blackout","severity":1.0},"capture_flags":{"save_rgb":true,"save_depth":false,"video_rgb":true,"video_depth":false}}
{"frame":312,"timestamp":{"delta_seconds":0.05000000074505806,"elapsed_seconds":8.411706009879708},"control":{"throttle":0.16553819179534912,"steer":-0.1100754514336586,"brake":0.0,"hand_brake":false,"reverse":false,"manual_gear_shift":false,"gear":0},"transform":{"location":{"x":-91.99195098876953,"y":13.113216400146484,"z":0.0014290236867964268},"rotation":{"pitch":0.02099600061774254,"yaw":176.3072052001953,"roll":0.07245063036680222}},"velocity":{"x":-4.962121486663818,"y":0.61052006483078,"z":0.0029426859691739082},"angular_velocity":{"x":-0.1431024968624115,"y":-0.1258516013622284,"z":-11.398663520812988},"acceleration":{"x":0.2414989471435547,"y":1.3226401805877686,"z":0.2041759341955185},"speed_mps":4.999539284511368,"speed_kph":17.998341424240923,"speed_limit_kph":30.0,"collisions_this_frame":[],"waypoint":{"x":-91.98963928222656,"y":12.92838191986084,"z":0.0},"lane_deviation_m":0.18485446274280548,"lane_width":3.5,"goal":{"x":-15.448323249816895,"y":-68.00706481933594,"z":0.6000048518180847},"fault":{"name":"camera_blackout","severity":1.0},"capture_flags":{"save_rgb":true,"save_depth":false,"video_rgb":true,"video_depth":false}}
{"frame":313,"timestamp":{"delta_seconds":0.05000000074505806,"elapsed_seconds":8.461706010624766},"control":{"throttle":0.16086214780807495,"steer":-0.12003231048583984,"brake":0.0,"hand_brake":false,"reverse":false,"manual_gear_shift":false,"gear":0},"transform":{"location":{"x":-92.24003601074219,"y":13.142717361450195,"z":0.0013525772374123335},"rotation":{"pitch":0.01592116989195347,"yaw":175.71360778808594,"roll":0.06979981064796448}},"velocity":{"x":-4.9500532150268555,"y":0.6887868642807007,"z":-0.0007767677307128906},"angular_velocity":{"x":-0.06439383327960968,"y":-0.09620534628629684,"z":-12.087182998657227},"acceleration":{"x":0.2413654327392578,"y":1.565335988998413,"z":-0.07438907027244568},"speed_mps":4.997744969420855,"speed_kph":17.991881889915078,"speed_limit_kph":30.0,"collisions_this_frame":[],"waypoint":{"x":-92.23735809326172,"y":12.927693367004395,"z":0.0},"lane_deviation_m":0.21504493057727814,"lane_width":3.5,"goal":{"x":-15.448323249816895,"y":-68.00706481933594,"z":0.6000048518180847},"fault":{"name":"camera_blackout","severity":1.0},"capture_flags":{"save_rgb":true,"save_depth":false,"video_rgb":true,"video_depth":false}}
{"frame":314,"timestamp":{"delta_seconds":0.05000000074505806,"elapsed_seconds":8.511706011369824},"control":{"throttle":0.16086214780807495,"steer":-0.12003231048583984,"brake":0.0,"hand_brake":false,"reverse":false,"manual_gear_shift":false,"gear":0},"transform":{"location":{"x":-92.48696899414062,"y":13.175338745117188,"z":0.0013991164742037654},"rotation":{"pitch":0.011064905673265457,"yaw":175.1039581298828,"roll":0.06587623804807663}},"velocity":{"x":-4.921740531921387,"y":0.7465226054191589,"z":0.0009078788571059704},"angular_velocity":{"x":-0.09706632792949677,"y":-0.08629409968852997,"z":-12.217155456542969},"acceleration":{"x":0.566253662109375,"y":1.154714822769165,"z":0.03369293361902237},"speed_mps":4.978034420150552,"speed_kph":17.920923912541987,"speed_limit_kph":30.0,"collisions_this_frame":[],"waypoint":{"x":-92.48388671875,"y":12.927008628845215,"z":0.0},"lane_deviation_m":0.24835318326950073,"lane_width":3.5,"goal":{"x":-15.448323249816895,"y":-68.00706481933594,"z":0.6000048518180847},"fault":{"name":"camera_blackout","severity":1.0},"capture_flags":{"save_rgb":true,"save_depth":false,"video_rgb":true,"video_depth":false}}
{"frame":315,"timestamp":{"delta_seconds":0.05000000074505806,"elapsed_seconds":8.561706012114882},"control":{"throttle":0.29449334740638733,"steer":-0.10229673981666565,"brake":0.0,"hand_brake":false,"reverse":false,"manual_gear_shift":false,"gear":0},"transform":{"location":{"x":-92.73278045654297,"y":13.209555625915527,"z":0.0014871597522869706},"rotation":{"pitch":0.00707607576623559,"yaw":174.5465545654297,"roll":0.056349169462919235}},"velocity":{"x":-4.904085636138916,"y":0.7596228122711182,"z":0.001449213013984263},"angular_velocity":{"x":-0.19051676988601685,"y":-0.051307372748851776,"z":-10.756138801574707},"acceleration":{"x":0.35309791564941406,"y":0.26200413703918457,"z":0.010826682671904564},"speed_mps":4.9625683716927345,"speed_kph":17.865246138093845,"speed_limit_kph":30.0,"collisions_this_frame":[],"waypoint":{"x":-92.7292709350586,"y":12.926326751708984,"z":0.0},"lane_deviation_m":0.2832545340061188,"lane_width":3.5,"goal":{"x":-15.448323249816895,"y":-68.00706481933594,"z":0.6000048518180847},"fault":{"name":"camera_blackout","severity":1.0},"capture_flags":{"save_rgb":true,"save_depth":false,"video_rgb":true,"video_depth":false}}
{"frame":316,"timestamp":{"delta_seconds":0.05000000074505806,"elapsed_seconds":8.61170601285994},"control":{"throttle":0.29449334740638733,"steer":-0.10229673981666565,"brake":0.0,"hand_brake":false,"reverse":false,"manual_gear_shift":false,"gear":0},"transform":{"location":{"x":-92.9780044555664,"y":13.245474815368652,"z":0.0015762710245326161},"rotation":{"pitch":0.004501094575971365,"yaw":174.01788330078125,"roll":0.049428489059209824}},"velocity":{"x":-4.896334648132324,"y":0.796830952167511,"z":0.0014580058632418513},"angular_velocity":{"x":-0.1130559965968132,"y":-0.02899657003581524,"z":-10.507636070251465},"acceleration":{"x":0.15501976013183594,"y":0.7441627979278564,"z":0.00017585698515176773},"speed_mps":4.9607494069560065,"speed_kph":17.858697865041623,"speed_limit_kph":30.0,"collisions_this_frame":[],"waypoint":{"x":-92.97406005859375,"y":12.925646781921387,"z":0.0},"lane_deviation_m":0.3198562264442444,"lane_width":3.5,"goal":{"x":-15.448323249816895,"y":-68.00706481933594,"z":0.6000048518180847},"fault":{"name":"camera_blackout","severity":1.0},"capture_flags":{"save_rgb":true,"save_depth":false,"video_rgb":true,"video_depth":false}}
{"frame":317,"timestamp":{"delta_seconds":0.05000000074505806,"elapsed_seconds":8.661706013604999},"control":{"throttle":0.35073477029800415,"steer":-0.09611774235963821,"brake":0.0,"hand_brake":false,"reverse":false,"manual_gear_shift":false,"gear":0},"transform":{"location":{"x":-93.22332000732422,"y":13.28316593170166,"z":0.001650581369176507},"rotation":{"pitch":0.0033263019286096096,"yaw":173.51211547851562,"roll":0.04377257823944092}},"velocity":{"x":-4.90425968170166,"y":0.8276362419128418,"z":0.0012602328788489103},"angular_velocity":{"x":-0.09588506817817688,"y":-0.0020479075610637665,"z":-9.980581283569336},"acceleration":{"x":-0.15850067138671875,"y":0.6161057949066162,"z":-0.00395545968785882},"speed_mps":4.973604966488492,"speed_kph":17.904977879358572,"speed_limit_kph":30.0,"collisions_this_frame":[],"waypoint":{"x":-93.21553039550781,"y":12.924944877624512,"z":0.0},"lane_deviation_m":0.3583095371723175,"lane_width":3.5,"goal":{"x":-15.448323249816895,"y":-68.00706481933594,"z":0.6000048518180847},"fault":{"name":"camera_blackout","severity":1.0},"capture_flags":{"save_rgb":true,"save_depth":false,"video_rgb":true,"video_depth":false}}
{"frame":318,"timestamp":{"delta_seconds":0.05000000074505806,"elapsed_seconds":8.711706014350057},"control":{"throttle":0.35073477029800415,"steer":-0.09611774235963821,"brake":0.0,"hand_brake":false,"reverse":false,"manual_gear_shift":false,"gear":0},"transform":{"location":{"x":-93.46937561035156,"y":13.322890281677246,"z":0.0017063140403479338},"rotation":{"pitch":0.0032989811152219772,"yaw":173.0152587890625,"roll":0.04049799591302872}},"velocity":{"x":-4.922234058380127,"y":0.8704478740692139,"z":0.0010073280427604914},"angular_velocity":{"x":-0.047626327723264694,"y":0.01199197769165039,"z":-9.930777549743652},"acceleration":{"x":-0.35948753356933594,"y":0.8562326431274414,"z":-0.005058096721768379},"speed_mps":4.998606670029028,"speed_kph":17.994984012104503,"speed_limit_kph":30.0,"collisions_this_frame":[],"waypoint":{"x":-93.43751525878906,"y":12.922405242919922,"z":0.0},"lane_deviation_m":0.4017539620399475,"lane_width":3.5,"goal":{"x":-15.448323249816895,"y":-68.00706481933594,"z":0.6000048518180847},"fault":{"name":"camera_blackout","severity":1.0},"capture_flags":{"save_rgb":true,"save_depth":false,"video_rgb":true,"video_depth":false}}
{"frame":319,"timestamp":{"delta_seconds":0.05000000074505806,"elapsed_seconds":8.761706015095115},"control":{"throttle":0.12613897025585175,"steer":-0.06394900381565094,"brake":0.0,"hand_brake":false,"reverse":false,"manual_gear_shift":false,"gear":0},"transform":{"location":{"x":-93.7166519165039,"y":13.36282730102539,"z":0.0019261932466179132},"rotation":{"pitch":0.003715622704476118,"yaw":172.61927795410156,"roll":0.02829865925014019}},"velocity":{"x":-4.945744037628174,"y":0.8407077789306641,"z":0.005586051847785711},"angular_velocity":{"x":-0.2237207591533661,"y":0.03250328451395035,"z":-7.075799942016602},"acceleration":{"x":-0.4701995849609375,"y":-0.5948019027709961,"z":0.09157447516918182},"speed_mps":5.01669262156497,"speed_kph":18.060093437633892,"speed_limit_kph":30.0,"collisions_this_frame":[],"waypoint":{"x":-93.66055297851562,"y":12.916840553283691,"z":0.0},"lane_deviation_m":0.4495052695274353,"lane_width":3.5,"goal":{"x":-15.448323249816895,"y":-68.00706481933594,"z":0.6000048518180847},"fault":{"name":"camera_blackout","severity":1.0},"capture_flags":{"save_rgb":true,"save_depth":false,"video_rgb":true,"video_depth":false}}
{"frame":320,"timestamp":{"delta_seconds":0.05000000074505806,"elapsed_seconds":8.811706015840173},"control":{"throttle":0.12613897025585175,"steer":-0.06394900381565094,"brake":0.0,"hand_brake":false,"reverse":false,"manual_gear_shift":false,"gear":0},"transform":{"location":{"x":-93.96334075927734,"y":13.402857780456543,"z":0.0019729994237422943},"rotation":{"pitch":0.0024725282564759254,"yaw":172.24966430664062,"roll":0.02259313501417637}},"velocity":{"x":-4.916411876678467,"y":0.8500306010246277,"z":-0.003469228744506836},"angular_velocity":{"x":-0.05808403715491295,"y":-0.025939838960766792,"z":-6.75624418258667},"acceleration":{"x":0.5866432189941406,"y":0.18645644187927246,"z":-0.1811056137084961},"speed_mps":4.989355649717853,"speed_kph":17.96168033898427,"speed_limit_kph":30.0,"collisions_this_frame":[],"waypoint":{"x":-93.8829574584961,"y":12.908283233642578,"z":0.0},"lane_deviation_m":0.5010682344436646,"lane_width":3.5,"goal":{"x":-15.448323249816895,"y":-68.00706481933594,"z":0.6000048518180847},"fault":{"name":"camera_blackout","severity":1.0},"capture_flags":{"save_rgb":true,"save_depth":false,"video_rgb":true,"video_depth":false}}
{"frame":321,"timestamp":{"delta_seconds":0.05000000074505806,"elapsed_seconds":8.86170601658523},"control":{"throttle":0.1837238222360611,"steer":-0.007304670289158821,"brake":0.0,"hand_brake":false,"reverse":false,"manual_gear_shift":false,"gear":0},"transform":{"location":{"x":-94.20919799804688,"y":13.4406099319458,"z":0.0018731307936832309},"rotation":{"pitch":0.0008264528587460518,"yaw":172.08456420898438,"roll":0.005508564878255129}},"velocity":{"x":-4.910244464874268,"y":0.7450821399688721,"z":-0.0015102768084034324},"angular_velocity":{"x":-0.3259578049182892,"y":0.0120658278465271,"z":-1.9218467473983765},"acceleration":{"x":0.12334823608398438,"y":-2.0989692211151123,"z":0.039179034531116486},"speed_mps":4.966452494594609,"speed_kph":17.879228980540592,"speed_limit_kph":30.0,"collisions_this_frame":[],"waypoint":{"x":-94.10449981689453,"y":12.896766662597656,"z":0.0},"lane_deviation_m":0.5538327693939209,"lane_width":3.5,"goal":{"x":-15.448323249816895,"y":-68.00706481933594,"z":0.6000048518180847},"fault":{"name":"camera_blackout","severity":1.0},"capture_flags":{"save_rgb":true,"save_depth":false,"video_rgb":true,"video_depth":false}}
{"frame":322,"timestamp":{"delta_seconds":0.05000000074505806,"elapsed_seconds":8.911706017330289},"control":{"throttle":0.1837238222360611,"steer":-0.007304670289158821,"brake":0.0,"hand_brake":false,"reverse":false,"manual_gear_shift":false,"gear":0},"transform":{"location":{"x":-94.45417785644531,"y":13.47645378112793,"z":0.001839179894886911},"rotation":{"pitch":-0.0007308301865123212,"yaw":172.02357482910156,"roll":-0.004058837890625}},"velocity":{"x":-4.889621257781982,"y":0.7169119715690613,"z":-0.0005231571267358959},"angular_velocity":{"x":-0.11453709006309509,"y":-0.014072852209210396,"z":-0.9616918563842773},"acceleration":{"x":0.4124641418457031,"y":-0.5634033679962158,"z":0.019742395728826523},"speed_mps":4.941898328904175,"speed_kph":17.79083398405503,"speed_limit_kph":30.0,"collisions_this_frame":[],"waypoint":{"x":-94.32510375976562,"y":12.882325172424316,"z":0.0},"lane_deviation_m":0.6079903841018677,"lane_width":3.5,"goal":{"x":-15.448323249816895,"y":-68.00706481933594,"z":0.6000048518180847},"fault":{"name":"camera_blackout","severity":1.0},"capture_flags":{"save_rgb":true,"save_depth":false,"video_rgb":true,"video_depth":false}}
{"frame":323,"timestamp":{"delta_seconds":0.05000000074505806,"elapsed_seconds":8.961706018075347},"control":{"throttle":0.4082036316394806,"steer":0.16935651004314423,"brake":0.0,"hand_brake":false,"reverse":false,"manual_gear_shift":false,"gear":0},"transform":{"location":{"x":-94.69835662841797,"y":13.50607681274414,"z":0.0018384932773187757},"rotation":{"pitch":-0.0024725282564759254,"yaw":172.26101684570312,"roll":-0.0346069298684597}},"velocity":{"x":-4.886224746704102,"y":0.44938647747039795,"z":-6.450653017964214e-05},"angular_velocity":{"x":-0.8566550612449646,"y":0.0798182338476181,"z":9.104424476623535},"acceleration":{"x":0.06793022155761719,"y":-5.3505096435546875,"z":0.009173011407256126},"speed_mps":4.906846287137789,"speed_kph":17.66464663369604,"speed_limit_kph":30.0,"collisions_this_frame":[],"waypoint":{"x":-94.6146240234375,"y":12.858856201171875,"z":0.0},"lane_deviation_m":0.6526170969009399,"lane_width":3.5,"goal":{"x":-15.448323249816895,"y":-68.00706481933594,"z":0.6000048518180847},"fault":{"name":"camera_blackout","severity":1.0},"capture_flags":{"save_rgb":true,"save_depth":false,"video_rgb":true,"video_depth":false}}
{"frame":324,"timestamp":{"delta_seconds":0.05000000074505806,"elapsed_seconds":9.011706018820405},"control":{"throttle":0.4082036316394806,"steer":0.16935651004314423,"brake":0.0,"hand_brake":false,"reverse":false,"manual_gear_shift":false,"gear":0},"transform":{"location":{"x":-94.94256591796875,"y":13.524690628051758,"z":0.0018470382783561945},"rotation":{"pitch":-0.003353622741997242,"yaw":172.9355010986328,"roll":-0.0715026780962944}},"velocity":{"x":-4.903972148895264,"y":0.2228681445121765,"z":0.00012108802184229717},"angular_velocity":{"x":-0.5401901006698608,"y":0.06871964782476425,"z":15.268159866333008},"acceleration":{"x":-0.3549480438232422,"y":-4.530366897583008,"z":0.003711890894919634},"speed_mps":4.909033821602886,"speed_kph":17.67252175777039,"speed_limit_kph":30.0,"collisions_this_frame":[],"waypoint":{"x":-94.8311996459961,"y":12.837936401367188,"z":0.0},"lane_deviation_m":0.6957278251647949,"lane_width":3.5,"goal":{"x":-15.448323249816895,"y":-68.00706481933594,"z":0.6000048518180847},"fault":{"name":"camera_blackout","severity":1.0},"capture_flags":{"save_rgb":true,"save_depth":false,"video_rgb":true,"video_depth":false}}
{"frame":325,"timestamp":{"delta_seconds":0.05000000074505806,"elapsed_seconds":9.061706019565463},"control":{"throttle":0.6240387558937073,"steer":0.08424694836139679,"brake":0.0,"hand_brake":false,"reverse":false,"manual_gear_shift":false,"gear":0},"transform":{"location":{"x":-95.1888656616211,"y":13.54139232635498,"z":0.001842079102061689},"rotation":{"pitch":-0.0010996604105457664,"yaw":173.52651977539062,"roll":-0.0638732835650444}},"velocity":{"x":-4.960184097290039,"y":0.28627845644950867,"z":0.00018445968453306705},"angular_velocity":{"x":0.3380666673183441,"y":0.0293270293623209,"z":10.112250328063965},"acceleration":{"x":-1.1242389678955078,"y":1.268206238746643,"z":0.001267433282919228},"speed_mps":4.968438554280559,"speed_kph":17.886378795410014,"speed_limit_kph":30.0,"collisions_this_frame":[],"waypoint":{"x":-95.04953002929688,"y":12.813920974731445,"z":0.0},"lane_deviation_m":0.7406972050666809,"lane_width":3.5,"goal":{"x":-15.448323249816895,"y":-68.00706481933594,"z":0.6000048518180847},"fault":{"name":"camera_blackout","severity":1.0},"capture_flags":{"save_rgb":true,"save_depth":false,"video_rgb":true,"video_depth":false}}
{"frame":326,"timestamp":{"delta_seconds":0.05000000074505806,"elapsed_seconds":9.111706020310521},"control":{"throttle":0.6240387558937073,"steer":0.08424694836139679,"brake":0.0,"hand_brake":false,"reverse":false,"manual_gear_shift":false,"gear":0},"transform":{"location":{"x":-95.439453125,"y":13.558647155761719,"z":0.0019523620139807463},"rotation":{"pitch":0.0037361131981015205,"yaw":173.99325561523438,"roll":-0.049224842339754105}},"velocity":{"x":-5.060705184936523,"y":0.2850535213947296,"z":0.006025037728250027},"angular_velocity":{"x":0.25748252868652344,"y":0.09069491177797318,"z":9.069933891296387},"acceleration":{"x":-2.0104217529296875,"y":-0.024498701095581055,"z":0.11681155860424042},"speed_mps":5.068730489973063,"speed_kph":18.24742976390303,"speed_limit_kph":30.0,"collisions_this_frame":[],"waypoint":{"x":-95.27128601074219,"y":12.786505699157715,"z":0.0},"lane_deviation_m":0.7902445197105408,"lane_width":3.5,"goal":{"x":-15.448323249816895,"y":-68.00706481933594,"z":0.6000048518180847},"fault":{"name":"camera_blackout","severity":1.0},"capture_flags":{"save_rgb":true,"save_depth":false,"video_rgb":true,"video_depth":false}}
{"frame":327,"timestamp":{"delta_seconds":0.05000000074505806,"elapsed_seconds":9.16170602105558},"control":{"throttle":0.03929397463798523,"steer":-0.010870995000004768,"brake":0.0,"hand_brake":false,"reverse":false,"manual_gear_shift":false,"gear":0},"transform":{"location":{"x":-95.69469451904297,"y":13.58028507232666,"z":0.0020917130168527365},"rotation":{"pitch":0.008599207736551762,"yaw":174.1734161376953,"roll":-0.013580322265625}},"velocity":{"x":-5.1119537353515625,"y":0.46847498416900635,"z":0.002019815379753709},"angular_velocity":{"x":0.6684004664421082,"y":-0.030087515711784363,"z":0.7475210428237915},"acceleration":{"x":-1.0249710083007812,"y":3.668429374694824,"z":-0.08010445535182953},"speed_mps":5.133375486248898,"speed_kph":18.480151750496034,"speed_limit_kph":30.0,"collisions_this_frame":[],"waypoint":{"x":-95.54090881347656,"y":12.749052047729492,"z":0.0},"lane_deviation_m":0.8453418016433716,"lane_width":3.5,"goal":{"x":-15.448323249816895,"y":-68.00706481933594,"z":0.6000048518180847},"fault":{"name":"camera_blackout","severity":1.0},"capture_flags":{"save_rgb":true,"save_depth":false,"video_rgb":true,"video_depth":false}}
{"frame":328,"timestamp":{"delta_seconds":0.05000000074505806,"elapsed_seconds":9.211706021800637},"control":{"throttle":0.03929397463798523,"steer":-0.010870995000004768,"brake":0.0,"hand_brake":false,"reverse":false,"manual_gear_shift":false,"gear":0},"transform":{"location":{"x":-95.94786071777344,"y":13.605148315429688,"z":0.0021527481731027365},"rotation":{"pitch":0.0056622265838086605,"yaw":174.1817169189453,"roll":0.0034846654161810875}},"velocity":{"x":-5.040291786193848,"y":0.5076537728309631,"z":0.0003144073416478932},"angular_velocity":{"x":0.20184606313705444,"y":-0.09596721827983856,"z":-0.2690984904766083},"acceleration":{"x":1.4332389831542969,"y":0.7835757732391357,"z":-0.03410816192626953},"speed_mps":5.065792508768461,"speed_kph":18.23685303156646,"speed_limit_kph":30.0,"collisions_this_frame":[],"waypoint":{"x":-95.7603759765625,"y":12.715204238891602,"z":0.0},"lane_deviation_m":0.9094809889793396,"lane_width":3.5,"goal":{"x":-15.448323249816895,"y":-68.00706481933594,"z":0.6000048518180847},"fault":{"name":"camera_blackout","severity":1.0},"capture_flags":{"save_rgb":true,"save_depth":false,"video_rgb":true,"video_depth":false}}
{"frame":329,"timestamp":{"delta_seconds":0.05000000074505806,"elapsed_seconds":9.261706022545695},"control":{"throttle":0.06970930844545364,"steer":0.1838691681623459,"brake":0.0,"hand_brake":false,"reverse":false,"manual_gear_shift":false,"gear":0},"transform":{"location":{"x":-96.19723510742188,"y":13.626543998718262,"z":0.0021252059377729893},"rotation":{"pitch":0.000655698124319315,"yaw":174.38475036621094,"roll":-0.0174560509622097}},"velocity":{"x":-4.986896991729736,"y":0.29435670375823975,"z":0.0007728862692601979},"angular_velocity":{"x":-0.9804948568344116,"y":0.016765061765909195,"z":8.715818405151367},"acceleration":{"x":1.0678958892822266,"y":-4.265941619873047,"z":0.009169578552246094},"speed_mps":4.99557685082751,"speed_kph":17.984076662979035,"speed_limit_kph":30.0,"collisions_this_frame":[],"waypoint":{"x":-95.97654724121094,"y":12.6788969039917,"z":0.0},"lane_deviation_m":0.9730070233345032,"lane_width":3.5,"goal":{"x":-15.448323249816895,"y":-68.00706481933594,"z":0.6000048518180847},"fault":{"name":"camera_blackout","severity":1.0},"capture_flags":{"save_rgb":true,"save_depth":false,"video_rgb":true,"video_depth":false}}
{"frame":330,"timestamp":{"delta_seconds":0.05000000074505806,"elapsed_seconds":9.311706023290753},"control":{"throttle":0.06970930844545364,"steer":0.1838691681623459,"brake":0.0,"hand_brake":false,"reverse":false,"manual_gear_shift":false,"gear":0},"transform":{"location":{"x":-96.4464111328125,"y":13.636210441589355,"z":0.001923370291478932},"rotation":{"pitch":-0.0014070188626646996,"yaw":175.08473205566406,"roll":-0.0588989183306694}},"velocity":{"x":-4.985841751098633,"y":0.02495484985411167,"z":-0.0030113791581243277},"angular_velocity":{"x":-0.698173463344574,"y":0.025197245180606842,"z":16.281370162963867},"acceleration":{"x":0.021104812622070312,"y":-5.388036727905273,"z":-0.07568530738353729},"speed_mps":4.985905111404945,"speed_kph":17.9492584010578,"speed_limit_kph":30.0,"collisions_this_frame":[],"waypoint":{"x":-96.1937484741211,"y":12.63942813873291,"z":0.0},"lane_deviation_m":1.0283077955245972,"lane_width":3.5,"goal":{"x":-15.448323249816895,"y":-68.00706481933594,"z":0.6000048518180847},"fault":{"name":"camera_blackout","severity":1.0},"capture_flags":{"save_rgb":true,"save_depth":false,"video_rgb":true,"video_depth":false}}
