{"frame":581,"timestamp":{"delta_seconds":0.05000000074505806,"elapsed_seconds":9.882535113021731},"control":{"throttle":0.75,"steer":0.0,"brake":0.0,"hand_brake":false,"reverse":false,"manual_gear_shift":false,"gear":0},"transform":{"location":{"x":-27.022132873535156,"y":69.71400451660156,"z":0.4823998808860779},"rotation":{"pitch":0.0,"yaw":0.07327298820018768,"roll":0.0}},"velocity":{"x":0.0,"y":0.0,"z":-1.470000147819519},"angular_velocity":{"x":0.0,"y":0.0,"z":0.0},"acceleration":{"x":0.0,"y":0.0,"z":-9.80000114440918},"speed_mps":1.470000147819519,"speed_kph":5.2920005321502686,"speed_limit_kph":30.0,"collisions_this_frame":[],"waypoint":{"x":-27.02213478088379,"y":69.71400451660156,"z":0.0},"lane_deviation_m":0.4823998808860779,"lane_width":3.5,"goal":{"x":29.89404296875,"y":-64.39876556396484,"z":0.5999999642372131},"fault":{"name":"camera_blackout","severity":1.0},"capture_flags":{"save_rgb":true,"save_depth":false,"video_rgb":true,"video_depth":false}}
{"frame":582,"timestamp":{"delta_seconds":0.05000000074505806,"elapsed_seconds":9.93253511376679},"control":{"throttle":0.75,"steer":0.0,"brake":0.0,"hand_brake":false,"reverse":false,"manual_gear_shift":false,"gear":0},"transform":{"location":{"x":-27.022132873535156,"y":69.71400451660156,"z":0.3941999077796936},"rotation":{"pitch":0.0,"yaw":0.07327298820018768,"roll":0.0}},"velocity":{"x":0.0,"y":0.0,"z":-1.9600002765655518},"angular_velocity":{"x":0.0,"y":0.0,"z":0.0},"acceleration":{"x":0.0,"y":0.0,"z":-9.800003051757812},"speed_mps":1.9600002765655518,"speed_kph":7.056000995635986,"speed_limit_kph":30.0,"collisions_this_frame":[],"waypoint":{"x":-27.02213478088379,"y":69.71400451660156,"z":0.0},"lane_deviation_m":0.3941999077796936,"lane_width":3.5,"goal":{"x":29.89404296875,"y":-64.39876556396484,"z":0.5999999642372131},"fault":{"name":"camera_blackout","severity":1.0},"capture_flags":{"save_rgb":true,"save_depth":false,"video_rgb":true,"video_depth":false}}
{"frame":583,"timestamp":{"delta_seconds":0.05000000074505806,"elapsed_seconds":9.982535114511847},"control":{"throttle":0.75,"steer":0.0,"brake":0.0,"hand_brake":false,"reverse":false,"manual_gear_shift":false,"gear":0},"transform":{"location":{"x":-27.022132873535156,"y":69.71400451660156,"z":0.2815000116825104},"rotation":{"pitch":0.0,"yaw":0.07327298820018768,"roll":0.0}},"velocity":{"x":0.0,"y":0.0,"z":-2.450000286102295},"angular_velocity":{"x":0.0,"y":0.0,"z":0.0},"acceleration":{"x":0.0,"y":0.0,"z":-9.800000190734863},"speed_mps":2.450000286102295,"speed_kph":8.820001029968262,"speed_limit_kph":30.0,"collisions_this_frame":[],"waypoint":{"x":-27.02213478088379,"y":69.71400451660156,"z":0.0},"lane_deviation_m":0.2815000116825104,"lane_width":3.5,"goal":{"x":29.89404296875,"y":-64.39876556396484,"z":0.5999999642372131},"fault":{"name":"camera_blackout","severity":1.0},"capture_flags":{"save_rgb":true,"save_depth":false,"video_rgb":true,"video_depth":false}}
{"frame":584,"timestamp":{"delta_seconds":0.05000000074505806,"elapsed_seconds":10.032535115256906},"control":{"throttle":0.75,"steer":0.0,"brake":0.0,"hand_brake":false,"reverse":false,"manual_gear_shift":false,"gear":0},"transform":{"location":{"x":-27.022132873535156,"y":69.71400451660156,"z":0.1442999243736267},"rotation":{"pitch":0.0,"yaw":0.07327298820018768,"roll":0.0}},"velocity":{"x":0.0,"y":0.0,"z":-2.93999981880188},"angular_velocity":{"x":0.0,"y":0.0,"z":0.0},"acceleration":{"x":0.0,"y":0.0,"z":-9.7999906539917},"speed_mps":2.93999981880188,"speed_kph":10.583999347686769,"speed_limit_kph":30.0,"collisions_this_frame":[],"waypoint":{"x":-27.02213478088379,"y":69.71400451660156,"z":0.0},"lane_deviation_m":0.1442999243736267,"lane_width":3.5,"goal":{"x":29.89404296875,"y":-64.39876556396484,"z":0.5999999642372131},"fault":{"name":"camera_blackout","severity":1.0},"capture_flags":{"save_rgb":true,"save_depth":false,"video_rgb":true,"video_depth":false}}
{"frame":585,"timestamp":{"delta_seconds":0.05000000074505806,"elapsed_seconds":10.082535116001964},"control":{"throttle":0.75,"steer":0.0,"brake":0.0,"hand_brake":false,"reverse":false,"manual_gear_shift":false,"gear":0},"transform":{"location":{"x":-27.022132873535156,"y":69.71400451660156,"z":0.008085518144071102},"rotation":{"pitch":0.0,"yaw":0.07327298820018768,"roll":0.0}},"velocity":{"x":-5.528966084966669e-07,"y":-8.941772648540791e-06,"z":-2.0645952224731445},"angular_velocity":{"x":0.0009713059989735484,"y":-0.0008257639710791409,"z":-1.2686901307290555e-08},"acceleration":{"x":-1.1057932169933338e-05,"y":-0.00017883545660879463,"z":17.50809097290039},"speed_mps":2.064595222492582,"speed_kph":7.432542800973295,"speed_limit_kph":30.0,"collisions_this_frame":[],"waypoint":{"x":-27.02213478088379,"y":69.71400451660156,"z":0.0},"lane_deviation_m":0.008085519075393677,"lane_width":3.5,"goal":{"x":29.89404296875,"y":-64.39876556396484,"z":0.5999999642372131},"fault":{"name":"camera_blackout","severity":1.0},"capture_flags":{"save_rgb":true,"save_depth":false,"video_rgb":true,"video_depth":false}}
{"frame":586,"timestamp":{"delta_seconds":0.05000000074505806,"elapsed_seconds":10.132535116747022},"control":{"throttle":0.75,"steer":0.0,"brake":0.0,"hand_brake":false,"reverse":false,"manual_gear_shift":false,"gear":0},"transform":{"location":{"x":-27.022132873535156,"y":69.71400451660156,"z":-0.05158813297748566},"rotation":{"pitch":0.0,"yaw":0.07327298820018768,"roll":0.0}},"velocity":{"x":-1.6525254409316403e-07,"y":-1.5550864418401034e-06,"z":-0.738086998462677},"angular_velocity":{"x":0.00023887994757387787,"y":-0.0002400364028289914,"z":-4.62261784406337e-09},"acceleration":{"x":7.75288117438322e-06,"y":0.0001477337209507823,"z":26.530166625976562},"speed_mps":0.7380869984643337,"speed_kph":2.6571131944716013,"speed_limit_kph":30.0,"collisions_this_frame":[],"waypoint":{"x":-27.02213478088379,"y":69.71400451660156,"z":0.0},"lane_deviation_m":0.05158813297748566,"lane_width":3.5,"goal":{"x":29.89404296875,"y":-64.39876556396484,"z":0.5999999642372131},"fault":{"name":"camera_blackout","severity":1.0},"capture_flags":{"save_rgb":true,"save_depth":false,"video_rgb":true,"video_depth":false}}
{"frame":587,"timestamp":{"delta_seconds":0.05000000074505806,"elapsed_seconds":10.18253511749208},"control":{"throttle":0.75,"steer":0.0,"brake":0.0,"hand_brake":false,"reverse":false,"manual_gear_shift":false,"gear":0},"transform":{"location":{"x":-27.022132873535156,"y":69.71400451660156,"z":-0.06773178279399872},"rotation":{"pitch":0.0,"yaw":0.07327298820018768,"roll":0.0}},"velocity":{"x":-4.8373294703196734e-08,"y":-1.6557476101297652e-07,"z":-0.11209877580404282},"angular_velocity":{"x":-8.965784218162298e-05,"y":-6.857603875687346e-05,"z":-2.6632882565991167e-09},"acceleration":{"x":2.3375851014861837e-06,"y":2.7790232707047835e-05,"z":12.51976490020752},"speed_mps":0.11209877580417554,"speed_kph":0.40355559289503196,"speed_limit_kph":30.0,"collisions_this_frame":[],"waypoint":{"x":-27.02213478088379,"y":69.71400451660156,"z":0.0},"lane_deviation_m":0.06773178279399872,"lane_width":3.5,"goal":{"x":29.89404296875,"y":-64.39876556396484,"z":0.5999999642372131},"fault":{"name":"camera_blackout","severity":1.0},"capture_flags":{"save_rgb":true,"save_depth":false,"video_rgb":true,"video_depth":false}}
{"frame":588,"timestamp":{"delta_seconds":0.05000000074505806,"elapsed_seconds":10.232535118237138},"control":{"throttle":0.75,"steer":0.0,"brake":0.0,"hand_brake":false,"reverse":false,"manual_gear_shift":false,"gear":0},"transform":{"location":{"x":-27.022132873535156,"y":69.71400451660156,"z":-0.06445316225290298},"rotation":{"pitch":0.0,"yaw":0.07327298820018768,"roll":0.0}},"velocity":{"x":3.891354793950086e-09,"y":-2.8243270833172573e-08,"z":0.15056180953979492},"angular_velocity":{"x":-2.8935917725902982e-05,"y":4.989642548025586e-06,"z":3.2973603847352706e-09},"acceleration":{"x":1.0452929473103723e-06,"y":2.746629661487532e-06,"z":5.253211975097656},"speed_mps":0.15056180953979761,"speed_kph":0.5420225143432714,"speed_limit_kph":30.0,"collisions_this_frame":[],"waypoint":{"x":-27.02213478088379,"y":69.71400451660156,"z":0.0},"lane_deviation_m":0.06445316225290298,"lane_width":3.5,"goal":{"x":29.89404296875,"y":-64.39876556396484,"z":0.5999999642372131},"fault":{"name":"camera_blackout","severity":1.0},"capture_flags":{"save_rgb":true,"save_depth":false,"video_rgb":true,"video_depth":false}}
{"frame":589,"timestamp":{"delta_seconds":0.05000000074505806,"elapsed_seconds":10.282535118982196},"control":{"throttle":0.75,"steer":0.0,"brake":0.0,"hand_brake":false,"reverse":false,"manual_gear_shift":false,"gear":0},"transform":{"location":{"x":-27.022132873535156,"y":69.71400451660156,"z":-0.05396198108792305},"rotation":{"pitch":0.0,"yaw":0.07327298820018768,"roll":0.0}},"velocity":{"x":-1.7084397230249238e-09,"y":1.0868820510268051e-07,"z":0.2333715260028839},"angular_velocity":{"x":3.7463825719896704e-05,"y":-1.3918607919549686e-06,"z":-1.0556172602704805e-09},"acceleration":{"x":-1.1199588811905414e-07,"y":2.7386295187170617e-06,"z":1.6561943292617798},"speed_mps":0.23337152600290922,"speed_kph":0.8401374936104732,"speed_limit_kph":30.0,"collisions_this_frame":[],"waypoint":{"x":-27.02213478088379,"y":69.71400451660156,"z":0.0},"lane_deviation_m":0.05396198108792305,"lane_width":3.5,"goal":{"x":29.89404296875,"y":-64.39876556396484,"z":0.5999999642372131},"fault":{"name":"camera_blackout","severity":1.0},"capture_flags":{"save_rgb":true,"save_depth":false,"video_rgb":true,"video_depth":false}}
{"frame":590,"timestamp":{"delta_seconds":0.05000000074505806,"elapsed_seconds":10.332535119727254},"control":{"throttle":0.75,"steer":0.0,"brake":0.0,"hand_brake":false,"reverse":false,"manual_gear_shift":false,"gear":0},"transform":{"location":{"x":-27.022132873535156,"y":69.71400451660156,"z":-0.042078208178281784},"rotation":{"pitch":0.0,"yaw":0.07327298820018768,"roll":0.0}},"velocity":{"x":2.009821287174418e-08,"y":1.529412685385978e-08,"z":0.23370583355426788},"angular_velocity":{"x":6.619217401748756e-06,"y":2.6962323318002746e-05,"z":2.7784354816873247e-09},"acceleration":{"x":4.3613306388579076e-07,"y":-1.8678815649764147e-06,"z":0.006686151027679443},"speed_mps":0.23370583355426924,"speed_kph":0.8413410007953693,"speed_limit_kph":30.0,"collisions_this_frame":[],"waypoint":{"x":-27.02213478088379,"y":69.71400451660156,"z":0.0},"lane_deviation_m":0.042078208178281784,"lane_width":3.5,"goal":{"x":29.89404296875,"y":-64.39876556396484,"z":0.5999999642372131},"fault":{"name":"camera_blackout","severity":1.0},"capture_flags":{"save_rgb":true,"save_depth":false,"video_rgb":true,"video_depth":false}}
{"frame":591,"timestamp":{"delta_seconds":0.05000000074505806,"elapsed_seconds":10.382535120472312},"control":{"throttle":0.75,"steer":0.0,"brake":0.0,"hand_brake":false,"reverse":false,"manual_gear_shift":false,"gear":0},"transform":{"location":{"x":-27.009765625,"y":69.71401977539062,"z":-0.031377144157886505},"rotation":{"pitch":0.014541472308337688,"yaw":0.07299505174160004,"roll":-6.103515625e-05}},"velocity":{"x":0.6032153367996216,"y":0.0007885806844569743,"z":0.2014344185590744},"angular_velocity":{"x":0.0008387125562876463,"y":-0.6498701572418213,"z":0.0004663654835894704},"acceleration":{"x":12.064306259155273,"y":0.015771307051181793,"z":-0.6454282999038696},"speed_mps":0.6359600532973821,"speed_kph":2.289456191870576,"speed_limit_kph":30.0,"collisions_this_frame":[],"waypoint":{"x":-27.009767532348633,"y":69.71401977539062,"z":0.0},"lane_deviation_m":0.031377144157886505,"lane_width":3.5,"goal":{"x":29.89404296875,"y":-64.39876556396484,"z":0.5999999642372131},"fault":{"name":"camera_blackout","severity":1.0},"capture_flags":{"save_rgb":true,"save_depth":false,"video_rgb":true,"video_depth":false}}
{"frame":592,"timestamp":{"delta_seconds":0.05000000074505806,"elapsed_seconds":10.43253512121737},"control":{"throttle":0.75,"steer":0.0,"brake":0.0,"hand_brake":false,"reverse":false,"manual_gear_shift":false,"gear":0},"transform":{"location":{"x":-26.9599552154541,"y":69.7140884399414,"z":-0.022708091884851456},"rotation":{"pitch":0.04654773697257042,"yaw":0.07297081500291824,"roll":-6.103515261202119e-05}},"velocity":{"x":1.2325787544250488,"y":0.0015714067267253995,"z":0.16076302528381348},"angular_velocity":{"x":0.0006386383320204914,"y":-0.5741002559661865,"z":0.00011201296729268506},"acceleration":{"x":12.587268829345703,"y":0.015656521543860435,"z":-0.8134278655052185},"speed_mps":1.2430195515266482,"speed_kph":4.474870385495934,"speed_limit_kph":30.0,"collisions_this_frame":[],"waypoint":{"x":-26.9599552154541,"y":69.7140884399414,"z":0.0},"lane_deviation_m":0.022708091884851456,"lane_width":3.5,"goal":{"x":29.89404296875,"y":-64.39876556396484,"z":0.5999999642372131},"fault":{"name":"camera_blackout","severity":1.0},"capture_flags":{"save_rgb":true,"save_depth":false,"video_rgb":true,"video_depth":false}}
{"frame":593,"timestamp":{"delta_seconds":0.05000000074505806,"elapsed_seconds":10.482535121962428},"control":{"throttle":0.75,"steer":0.09920019656419754,"brake":0.0,"hand_brake":false,"reverse":false,"manual_gear_shift":false,"gear":0},"transform":{"location":{"x":-26.87919044494629,"y":69.7162857055664,"z":-0.015994949266314507},"rotation":{"pitch":0.07287811487913132,"yaw":0.1726861596107483,"roll":-0.010437010787427425}},"velocity":{"x":1.7957768440246582,"y":0.09560388326644897,"z":0.12241725623607635},"angular_velocity":{"x":0.2857779562473297,"y":-0.38748326897621155,"z":3.4044125080108643},"acceleration":{"x":11.263961791992188,"y":1.880649447441101,"z":-0.7669153809547424},"speed_mps":1.8024817781756228,"speed_kph":6.4889344014322425,"speed_limit_kph":30.0,"collisions_this_frame":[],"waypoint":{"x":-26.87919044494629,"y":69.71418762207031,"z":0.0},"lane_deviation_m":0.016131967306137085,"lane_width":3.5,"goal":{"x":29.89404296875,"y":-64.39876556396484,"z":0.5999999642372131},"fault":{"name":"camera_blackout","severity":1.0},"capture_flags":{"save_rgb":true,"save_depth":false,"video_rgb":true,"video_depth":false}}
{"frame":594,"timestamp":{"delta_seconds":0.05000000074505806,"elapsed_seconds":10.532535122707486},"control":{"throttle":0.75,"steer":0.09920019656419754,"brake":0.0,"hand_brake":false,"reverse":false,"manual_gear_shift":false,"gear":0},"transform":{"location":{"x":-26.774728775024414,"y":69.72167205810547,"z":-0.010950354859232903},"rotation":{"pitch":0.08741958439350128,"yaw":0.3972034752368927,"roll":-0.02026367001235485}},"velocity":{"x":2.2414121627807617,"y":0.15138264000415802,"z":0.09030534327030182},"angular_velocity":{"x":0.13313336670398712,"y":-0.19000940024852753,"z":4.785218238830566},"acceleration":{"x":8.91270637512207,"y":1.1155750751495361,"z":-0.6422382593154907},"speed_mps":2.2483327694492483,"speed_kph":8.093997970017295,"speed_limit_kph":30.0,"collisions_this_frame":[],"waypoint":{"x":-26.774721145629883,"y":69.71432495117188,"z":0.0},"lane_deviation_m":0.013186747208237648,"lane_width":3.5,"goal":{"x":29.89404296875,"y":-64.39876556396484,"z":0.5999999642372131},"fault":{"name":"camera_blackout","severity":1.0},"capture_flags":{"save_rgb":true,"save_depth":false,"video_rgb":true,"video_depth":false}}
{"frame":595,"timestamp":{"delta_seconds":0.05000000074505806,"elapsed_seconds":10.582535123452544},"control":{"throttle":0.75,"steer":0.07931570708751678,"brake":0.0,"hand_brake":false,"reverse":false,"manual_gear_shift":false,"gear":0},"transform":{"location":{"x":-26.65275764465332,"y":69.72795104980469,"z":-0.00724170682951808},"rotation":{"pitch":0.09149721264839172,"yaw":0.618621826171875,"roll":-0.019683837890625}},"velocity":{"x":2.5646109580993652,"y":0.1565801054239273,"z":0.06510858237743378},"angular_velocity":{"x":-0.03897973522543907,"y":-0.024086419492959976,"z":4.3063249588012695},"acceleration":{"x":6.46397590637207,"y":0.10394930839538574,"z":-0.5039352178573608},"speed_mps":2.5702112409911195,"speed_kph":9.25276046756803,"speed_limit_kph":30.0,"collisions_this_frame":[],"waypoint":{"x":-26.652742385864258,"y":69.7144775390625,"z":0.0},"lane_deviation_m":0.01529634092003107,"lane_width":3.5,"goal":{"x":29.89404296875,"y":-64.39876556396484,"z":0.5999999642372131},"fault":{"name":"camera_blackout","severity":1.0},"capture_flags":{"save_rgb":true,"save_depth":false,"video_rgb":true,"video_depth":false}}
{"frame":596,"timestamp":{"delta_seconds":0.05000000074505806,"elapsed_seconds":10.632535124197602},"control":{"throttle":0.75,"steer":0.07931570708751678,"brake":0.0,"hand_brake":false,"reverse":false,"manual_gear_shift":false,"gear":0},"transform":{"location":{"x":-26.51535415649414,"y":69.73516082763672,"z":-0.0045719146728515625},"rotation":{"pitch":0.09042487293481827,"yaw":0.8573812246322632,"roll":-0.01889037899672985}},"velocity":{"x":2.867231607437134,"y":0.18386152386665344,"z":0.04613408073782921},"angular_velocity":{"x":-0.0007238248945213854,"y":0.0422525554895401,"z":4.962116718292236},"acceleration":{"x":6.052412986755371,"y":0.5456283688545227,"z":-0.3794900178909302},"speed_mps":2.8734909959926136,"speed_kph":10.34456758557341,"speed_limit_kph":30.0,"collisions_this_frame":[],"waypoint":{"x":-26.515329360961914,"y":69.71465301513672,"z":0.0},"lane_deviation_m":0.021011268720030785,"lane_width":3.5,"goal":{"x":29.89404296875,"y":-64.39876556396484,"z":0.5999999642372131},"fault":{"name":"camera_blackout","severity":1.0},"capture_flags":{"save_rgb":true,"save_depth":false,"video_rgb":true,"video_depth":false}}
{"frame":597,"timestamp":{"delta_seconds":0.05000000074505806,"elapsed_seconds":10.68253512494266},"control":{"throttle":0.0,"steer":-0.006742110941559076,"brake":1.0,"hand_brake":false,"reverse":false,"manual_gear_shift":false,"gear":0},"transform":{"location":{"x":-26.36482048034668,"y":69.7400131225586,"z":-0.0026728056836873293},"rotation":{"pitch":0.08584181219339371,"yaw":0.9437271952629089,"roll":-0.0022888178937137127}},"velocity":{"x":3.0879955291748047,"y":0.07365404069423676,"z":0.032250918447971344},"angular_velocity":{"x":-0.3422077000141144,"y":0.12968511879444122,"z":0.3367308974266052},"acceleration":{"x":4.415278434753418,"y":-2.2041497230529785,"z":-0.2776632308959961},"speed_mps":3.0890421537516946,"speed_kph":11.120551753506101,"speed_limit_kph":30.0,"collisions_this_frame":[],"waypoint":{"x":-26.364789962768555,"y":69.71484375,"z":0.0},"lane_deviation_m":0.025310909375548363,"lane_width":3.5,"goal":{"x":29.89404296875,"y":-64.39876556396484,"z":0.5999999642372131},"fault":{"name":"camera_blackout","severity":1.0},"capture_flags":{"save_rgb":true,"save_depth":false,"video_rgb":true,"video_depth":false}}
{"frame":598,"timestamp":{"delta_seconds":0.05000000074505806,"elapsed_seconds":10.732535125687718},"control":{"throttle":0.0,"steer":-0.006742110941559076,"brake":1.0,"hand_brake":false,"reverse":false,"manual_gear_shift":false,"gear":0},"transform":{"location":{"x":-26.207618713378906,"y":69.74273681640625,"z":-0.001310272142291069},"rotation":{"pitch":0.07524818927049637,"yaw":0.9343982934951782,"roll":0.0073672072030603886}},"velocity":{"x":3.162196397781372,"y":0.04710998386144638,"z":0.022299421951174736},"angular_velocity":{"x":-0.1130138486623764,"y":0.2630060315132141,"z":-0.36337366700172424},"acceleration":{"x":1.4840173721313477,"y":-0.5308811664581299,"z":-0.19902992248535156},"speed_mps":3.1626259141637774,"speed_kph":11.385453290989599,"speed_limit_kph":30.0,"collisions_this_frame":[],"waypoint":{"x":-26.20758628845215,"y":69.71504974365234,"z":0.0},"lane_deviation_m":0.02771807834506035,"lane_width":3.5,"goal":{"x":29.89404296875,"y":-64.39876556396484,"z":0.5999999642372131},"fault":{"name":"camera_blackout","severity":1.0},"capture_flags":{"save_rgb":true,"save_depth":false,"video_rgb":true,"video_depth":false}}
{"frame":599,"timestamp":{"delta_seconds":0.05000000074505806,"elapsed_seconds":10.782535126432776},"control":{"throttle":0.0,"steer":0.0023021940141916275,"brake":1.0,"hand_brake":false,"reverse":false,"manual_gear_shift":false,"gear":0},"transform":{"location":{"x":-26.051321029663086,"y":69.74533081054688,"z":-0.0003184127854183316},"rotation":{"pitch":0.05858252942562103,"yaw":0.9327164888381958,"roll":0.007373805623501539}},"velocity":{"x":3.0909347534179688,"y":0.052852749824523926,"z":0.015279092825949192},"angular_velocity":{"x":0.022791489958763123,"y":0.371968150138855,"z":0.07661270350217819},"acceleration":{"x":-1.4252328872680664,"y":0.1148553192615509,"z":-0.14040657877922058},"speed_mps":3.091424350316306,"speed_kph":11.129127661138702,"speed_limit_kph":30.0,"collisions_this_frame":[],"waypoint":{"x":-26.05128288269043,"y":69.71524810791016,"z":0.0},"lane_deviation_m":0.030084412544965744,"lane_width":3.5,"goal":{"x":29.89404296875,"y":-64.39876556396484,"z":0.5999999642372131},"fault":{"name":"camera_blackout","severity":1.0},"capture_flags":{"save_rgb":true,"save_depth":false,"video_rgb":true,"video_depth":false}}
{"frame":600,"timestamp":{"delta_seconds":0.05000000074505806,"elapsed_seconds":10.832535127177835},"control":{"throttle":0.0,"steer":0.0023021940141916275,"brake":1.0,"hand_brake":false,"reverse":false,"manual_gear_shift":false,"gear":0},"transform":{"location":{"x":-25.901046752929688,"y":69.74793243408203,"z":0.0004064559761900455},"rotation":{"pitch":0.03896622732281685,"yaw":0.9388992190361023,"roll":0.005662215873599052}},"velocity":{"x":2.947458028793335,"y":0.05197135731577873,"z":0.010387124493718147},"angular_velocity":{"x":0.02720007672905922,"y":0.3934922218322754,"z":0.139194518327713},"acceleration":{"x":-2.869534492492676,"y":-0.01762785017490387,"z":-0.0978393703699112},"speed_mps":2.9479344880500284,"speed_kph":10.612564156980103,"speed_limit_kph":30.0,"collisions_this_frame":[],"waypoint":{"x":-25.9010066986084,"y":69.71543884277344,"z":0.0},"lane_deviation_m":0.03249615803360939,"lane_width":3.5,"goal":{"x":29.89404296875,"y":-64.39876556396484,"z":0.5999999642372131},"fault":{"name":"camera_blackout","severity":1.0},"capture_flags":{"save_rgb":true,"save_depth":false,"video_rgb":true,"video_depth":false}}
{"frame":601,"timestamp":{"delta_seconds":0.05000000074505806,"elapsed_seconds":10.882535127922893},"control":{"throttle":0.0,"steer":0.0023021940141916275,"brake":1.0,"hand_brake":false,"reverse":false,"manual_gear_shift":false,"gear":0},"transform":{"location":{"x":-25.759328842163086,"y":69.75041961669922,"z":0.0009316253708675504},"rotation":{"pitch":0.019903169944882393,"yaw":0.9458504319190979,"roll":0.004233387298882008}},"velocity":{"x":2.7605340480804443,"y":0.049216318875551224,"z":0.0070203873328864574},"angular_velocity":{"x":0.018931139260530472,"y":0.3696041405200958,"z":0.13635282218456268},"acceleration":{"x":-3.7384796142578125,"y":-0.05510076880455017,"z":-0.06733474135398865},"speed_mps":2.7609816664536853,"speed_kph":9.939533999233268,"speed_limit_kph":30.0,"collisions_this_frame":[],"waypoint":{"x":-25.759286880493164,"y":69.71562194824219,"z":0.0},"lane_deviation_m":0.03481015935540199,"lane_width":3.5,"goal":{"x":29.89404296875,"y":-64.39876556396484,"z":0.5999999642372131},"fault":{"name":"camera_blackout","severity":1.0},"capture_flags":{"save_rgb":true,"save_depth":false,"video_rgb":true,"video_depth":false}}
{"frame":602,"timestamp":{"delta_seconds":0.05000000074505806,"elapsed_seconds":10.93253512866795},"control":{"throttle":0.0,"steer":0.0023021940141916275,"brake":1.0,"hand_brake":false,"reverse":false,"manual_gear_shift":false,"gear":0},"transform":{"location":{"x":-25.626983642578125,"y":69.75276184082031,"z":0.0013056945754215121},"rotation":{"pitch":0.003551698289811611,"yaw":0.9525673985481262,"roll":0.0031575860921293497}},"velocity":{"x":2.573906183242798,"y":0.046389464288949966,"z":0.004714450798928738},"angular_velocity":{"x":0.014526180922985077,"y":0.2970446050167084,"z":0.13263286650180817},"acceleration":{"x":-3.7325572967529297,"y":-0.056537091732025146,"z":-0.04611872881650925},"speed_mps":2.5743285044024313,"speed_kph":9.267582615848752,"speed_limit_kph":30.0,"collisions_this_frame":[],"waypoint":{"x":-25.62693977355957,"y":69.71578979492188,"z":0.0},"lane_deviation_m":0.03699512034654617,"lane_width":3.5,"goal":{"x":29.89404296875,"y":-64.39876556396484,"z":0.5999999642372131},"fault":{"name":"camera_blackout","severity":1.0},"capture_flags":{"save_rgb":true,"save_depth":false,"video_rgb":true,"video_depth":false}}
{"frame":603,"timestamp":{"delta_seconds":0.05000000074505806,"elapsed_seconds":10.982535129413009},"control":{"throttle":0.047892630100250244,"steer":0.09780457615852356,"brake":0.0,"hand_brake":false,"reverse":false,"manual_gear_shift":false,"gear":0},"transform":{"location":{"x":-25.504024505615234,"y":69.757080078125,"z":0.0015665816608816385},"rotation":{"pitch":-0.009125132113695145,"yaw":1.0639262199401855,"roll":-0.008331298828125}},"velocity":{"x":2.394336223602295,"y":0.1376211792230606,"z":0.0031493185088038445},"angular_velocity":{"x":0.29207050800323486,"y":0.22188952565193176,"z":3.7030410766601562},"acceleration":{"x":-3.5913991928100586,"y":1.824634313583374,"z":-0.031302645802497864},"speed_mps":2.3982901114819106,"speed_kph":8.633844401334878,"speed_limit_kph":30.0,"collisions_this_frame":[],"waypoint":{"x":-25.50397300720215,"y":69.71595001220703,"z":0.0},"lane_deviation_m":0.041159920394420624,"lane_width":3.5,"goal":{"x":29.89404296875,"y":-64.39876556396484,"z":0.5999999642372131},"fault":{"name":"camera_blackout","severity":1.0},"capture_flags":{"save_rgb":true,"save_depth":false,"video_rgb":true,"video_depth":false}}
{"frame":604,"timestamp":{"delta_seconds":0.05000000074505806,"elapsed_seconds":11.032535130158067},"control":{"throttle":0.047892630100250244,"steer":0.09780457615852356,"brake":0.0,"hand_brake":false,"reverse":false,"manual_gear_shift":false,"gear":0},"transform":{"location":{"x":-25.38725471496582,"y":69.76429748535156,"z":0.0017295837169513106},"rotation":{"pitch":-0.01575041562318802,"yaw":1.2918264865875244,"roll":-0.0181274376809597}},"velocity":{"x":2.307558536529541,"y":0.18388904631137848,"z":0.0020968723110854626},"angular_velocity":{"x":0.12256332486867905,"y":0.0790894404053688,"z":4.846860408782959},"acceleration":{"x":-1.7355537414550781,"y":0.9253573417663574,"z":-0.021048923954367638},"speed_mps":2.3148749378178413,"speed_kph":8.33354977614423,"speed_limit_kph":30.0,"collisions_this_frame":[],"waypoint":{"x":-25.38719367980957,"y":69.71609497070312,"z":0.0},"lane_deviation_m":0.04823357239365578,"lane_width":3.5,"goal":{"x":29.89404296875,"y":-64.39876556396484,"z":0.5999999642372131},"fault":{"name":"camera_blackout","severity":1.0},"capture_flags":{"save_rgb":true,"save_depth":false,"video_rgb":true,"video_depth":false}}
{"frame":605,"timestamp":{"delta_seconds":0.05000000074505806,"elapsed_seconds":11.082535130903125},"control":{"throttle":0.5279902815818787,"steer":0.08217126876115799,"brake":0.0,"hand_brake":false,"reverse":false,"manual_gear_shift":false,"gear":0},"transform":{"location":{"x":-25.27327537536621,"y":69.7719497680664,"z":0.0018197630997747183},"rotation":{"pitch":-0.017061810940504074,"yaw":1.5062296390533447,"roll":-0.01699829287827015}},"velocity":{"x":2.2641208171844482,"y":0.1772305965423584,"z":0.0013888931134715676},"angular_velocity":{"x":-0.06555553525686264,"y":-0.001273471862077713,"z":4.076003551483154},"acceleration":{"x":-0.8687543869018555,"y":-0.1331689953804016,"z":-0.014159584417939186},"speed_mps":2.2710472668314976,"speed_kph":8.175770160593391,"speed_limit_kph":30.0,"collisions_this_frame":[],"waypoint":{"x":-25.27320671081543,"y":69.71623992919922,"z":0.0},"lane_deviation_m":0.055739592760801315,"lane_width":3.5,"goal":{"x":29.89404296875,"y":-64.39876556396484,"z":0.5999999642372131},"fault":{"name":"camera_blackout","severity":1.0},"capture_flags":{"save_rgb":true,"save_depth":false,"video_rgb":true,"video_depth":false}}
{"frame":606,"timestamp":{"delta_seconds":0.05000000074505806,"elapsed_seconds":11.132535131648183},"control":{"throttle":0.5279902815818787,"steer":0.08217126876115799,"brake":0.0,"hand_brake":false,"reverse":false,"manual_gear_shift":false,"gear":0},"transform":{"location":{"x":-25.159868240356445,"y":69.7798843383789,"z":0.0018610763363540173},"rotation":{"pitch":-0.014801018871366978,"yaw":1.7120054960250854,"roll":-0.01461792178452015}},"velocity":{"x":2.277236223220825,"y":0.1879177838563919,"z":0.0009167575626634061},"angular_velocity":{"x":-0.027785710990428925,"y":-0.07591444998979568,"z":4.170231342315674},"acceleration":{"x":0.26230812072753906,"y":0.21374374628067017,"z":-0.009442711248993874},"speed_mps":2.284976750490686,"speed_kph":8.22591630176647,"speed_limit_kph":30.0,"collisions_this_frame":[],"waypoint":{"x":-25.159788131713867,"y":69.71638488769531,"z":0.0},"lane_deviation_m":0.06352677196264267,"lane_width":3.5,"goal":{"x":29.89404296875,"y":-64.39876556396484,"z":0.5999999642372131},"fault":{"name":"camera_blackout","severity":1.0},"capture_flags":{"save_rgb":true,"save_depth":false,"video_rgb":true,"video_depth":false}}
{"frame":607,"timestamp":{"delta_seconds":0.05000000074505806,"elapsed_seconds":11.182535132393241},"control":{"throttle":0.6423774361610413,"steer":0.08352472633123398,"brake":0.0,"hand_brake":false,"reverse":false,"manual_gear_shift":false,"gear":0},"transform":{"location":{"x":-25.04424476623535,"y":69.78837585449219,"z":0.0018666075775399804},"rotation":{"pitch":-0.009616905823349953,"yaw":1.9220906496047974,"roll":-0.013153076171875}},"velocity":{"x":2.3418943881988525,"y":0.19988730549812317,"z":0.0006028461502864957},"angular_velocity":{"x":-0.028569472953677177,"y":-0.12309692800045013,"z":4.224959850311279},"acceleration":{"x":1.2931632995605469,"y":0.23939043283462524,"z":-0.006278228014707565},"speed_mps":2.350409458753955,"speed_kph":8.461474051514237,"speed_limit_kph":30.0,"collisions_this_frame":[],"waypoint":{"x":-25.044153213500977,"y":69.71653747558594,"z":0.0},"lane_deviation_m":0.07186268270015717,"lane_width":3.5,"goal":{"x":29.89404296875,"y":-64.39876556396484,"z":0.5999999642372131},"fault":{"name":"camera_blackout","severity":1.0},"capture_flags":{"save_rgb":true,"save_depth":false,"video_rgb":true,"video_depth":false}}
{"frame":608,"timestamp":{"delta_seconds":0.05000000074505806,"elapsed_seconds":11.232535133138299},"control":{"throttle":0.6423774361610413,"steer":0.08352472633123398,"brake":0.0,"hand_brake":false,"reverse":false,"manual_gear_shift":false,"gear":0},"transform":{"location":{"x":-24.92334747314453,"y":69.79773712158203,"z":0.001845130929723382},"rotation":{"pitch":-0.00191928306594491,"yaw":2.1436798572540283,"roll":-0.012817381881177425}},"velocity":{"x":2.4709043502807617,"y":0.22270026803016663,"z":0.0003967094235122204},"angular_velocity":{"x":0.01553905289620161,"y":-0.17016606032848358,"z":4.574758529663086},"acceleration":{"x":2.5801992416381836,"y":0.45625925064086914,"z":-0.004122734535485506},"speed_mps":2.4809199654554495,"speed_kph":8.931311875639619,"speed_limit_kph":30.0,"collisions_this_frame":[],"waypoint":{"x":-24.923246383666992,"y":69.71669006347656,"z":0.0},"lane_deviation_m":0.08106812089681625,"lane_width":3.5,"goal":{"x":29.89404296875,"y":-64.39876556396484,"z":0.5999999642372131},"fault":{"name":"camera_blackout","severity":1.0},"capture_flags":{"save_rgb":true,"save_depth":false,"video_rgb":true,"video_depth":false}}
{"frame":609,"timestamp":{"delta_seconds":0.05000000074505806,"elapsed_seconds":11.282535133883357},"control":{"throttle":0.0,"steer":0.08105822652578354,"brake":0.0,"hand_brake":false,"reverse":false,"manual_gear_shift":false,"gear":0},"transform":{"location":{"x":-24.79563331604004,"y":69.8079833984375,"z":0.0018129348754882812},"rotation":{"pitch":0.006215471774339676,"yaw":2.3714709281921387,"roll":-0.01229858212172985}},"velocity":{"x":2.602083444595337,"y":0.23832178115844727,"z":0.0002593612589407712},"angular_velocity":{"x":-0.011997458525002003,"y":-0.14729547500610352,"z":4.5697197914123535},"acceleration":{"x":2.623581886291504,"y":0.3124302625656128,"z":-0.002746963407844305},"speed_mps":2.612974471991629,"speed_kph":9.406708099169864,"speed_limit_kph":30.0,"collisions_this_frame":[],"waypoint":{"x":-24.79551887512207,"y":69.71685028076172,"z":0.0},"lane_deviation_m":0.09115122258663177,"lane_width":3.5,"goal":{"x":29.89404296875,"y":-64.39876556396484,"z":0.5999999642372131},"fault":{"name":"camera_blackout","severity":1.0},"capture_flags":{"save_rgb":true,"save_depth":false,"video_rgb":true,"video_depth":false}}
{"frame":610,"timestamp":{"delta_seconds":0.05000000074505806,"elapsed_seconds":11.332535134628415},"control":{"throttle":0.0,"steer":0.08105822652578354,"brake":0.0,"hand_brake":false,"reverse":false,"manual_gear_shift":false,"gear":0},"transform":{"location":{"x":-24.661922454833984,"y":69.8192138671875,"z":0.0017873381730169058},"rotation":{"pitch":0.012287509627640247,"yaw":2.6081185340881348,"roll":-0.012329100631177425}},"velocity":{"x":2.709622859954834,"y":0.26096996665000916,"z":0.0001695537503110245},"angular_velocity":{"x":0.013803521171212196,"y":-0.09395690262317657,"z":4.825494289398193},"acceleration":{"x":2.1507883071899414,"y":0.4529637098312378,"z":-0.0017961501143872738},"speed_mps":2.7221611626484563,"speed_kph":9.799780185534443,"speed_limit_kph":30.0,"collisions_this_frame":[],"waypoint":{"x":-24.661794662475586,"y":69.71702575683594,"z":0.0},"lane_deviation_m":0.10220382362604141,"lane_width":3.5,"goal":{"x":29.89404296875,"y":-64.39876556396484,"z":0.5999999642372131},"fault":{"name":"camera_blackout","severity":1.0},"capture_flags":{"save_rgb":true,"save_depth":false,"video_rgb":true,"video_depth":false}}
{"frame":611,"timestamp":{"delta_seconds":0.05000000074505806,"elapsed_seconds":11.382535135373473},"control":{"throttle":0.0,"steer":-0.0016275253146886826,"brake":1.0,"hand_brake":false,"reverse":false,"manual_gear_shift":false,"gear":0},"transform":{"location":{"x":-24.526723861694336,"y":69.8281021118164,"z":0.0017930602189153433},"rotation":{"pitch":0.012458264827728271,"yaw":2.701430082321167,"roll":0.0019943672232329845}},"velocity":{"x":2.689709186553955,"y":0.15692412853240967,"z":0.00011098861432401463},"angular_velocity":{"x":-0.29105520248413086,"y":0.03461489826440811,"z":0.6222513914108276},"acceleration":{"x":-0.3982734680175781,"y":-2.0809168815612793,"z":-0.0011713027488440275},"speed_mps":2.6942829663320196,"speed_kph":9.69941867879527,"speed_limit_kph":30.0,"collisions_this_frame":[],"waypoint":{"x":-24.526582717895508,"y":69.71720123291016,"z":0.0},"lane_deviation_m":0.11091545969247818,"lane_width":3.5,"goal":{"x":29.89404296875,"y":-64.39876556396484,"z":0.5999999642372131},"fault":{"name":"camera_blackout","severity":1.0},"capture_flags":{"save_rgb":true,"save_depth":false,"video_rgb":true,"video_depth":false}}
{"frame":612,"timestamp":{"delta_seconds":0.05000000074505806,"elapsed_seconds":11.432535136118531},"control":{"throttle":0.0,"steer":-0.0016275253146886826,"brake":1.0,"hand_brake":false,"reverse":false,"manual_gear_shift":false,"gear":0},"transform":{"location":{"x":-24.39452362060547,"y":69.83486938476562,"z":0.0018262481316924095},"rotation":{"pitch":0.007533698342740536,"yaw":2.7086870670318604,"roll":0.009806354530155659}},"velocity":{"x":2.6060214042663574,"y":0.12832240760326385,"z":7.505416579078883e-05},"angular_velocity":{"x":-0.08537811040878296,"y":0.12168192118406296,"z":-0.010047710500657558},"acceleration":{"x":-1.6737556457519531,"y":-0.5720344185829163,"z":-0.0007186889415606856},"speed_mps":2.609178837377887,"speed_kph":9.393043814560393,"speed_limit_kph":30.0,"collisions_this_frame":[],"waypoint":{"x":-24.394372940063477,"y":69.71736907958984,"z":0.0},"lane_deviation_m":0.11751458793878555,"lane_width":3.5,"goal":{"x":29.89404296875,"y":-64.39876556396484,"z":0.5999999642372131},"fault":{"name":"camera_blackout","severity":1.0},"capture_flags":{"save_rgb":true,"save_depth":false,"video_rgb":true,"video_depth":false}}
{"frame":613,"timestamp":{"delta_seconds":0.05000000074505806,"elapsed_seconds":11.48253513686359},"control":{"throttle":0.05267385393381119,"steer":0.09696003049612045,"brake":0.0,"hand_brake":false,"reverse":false,"manual_gear_shift":false,"gear":0},"transform":{"location":{"x":-24.26771354675293,"y":69.84387969970703,"z":0.0018695449689403176},"rotation":{"pitch":0.0006283773691393435,"yaw":2.850141763687134,"roll":-0.0033874509390443563}},"velocity":{"x":2.499911308288574,"y":0.2336091250181198,"z":4.362106119515374e-05},"angular_velocity":{"x":0.3054969906806946,"y":0.14257226884365082,"z":4.245356559753418},"acceleration":{"x":-2.122201919555664,"y":2.105734348297119,"z":-0.0006286620628088713},"speed_mps":2.510802615599964,"speed_kph":9.03888941615987,"speed_limit_kph":30.0,"collisions_this_frame":[],"waypoint":{"x":-24.267553329467773,"y":69.717529296875,"z":0.0},"lane_deviation_m":0.1263643354177475,"lane_width":3.5,"goal":{"x":29.89404296875,"y":-64.39876556396484,"z":0.5999999642372131},"fault":{"name":"camera_blackout","severity":1.0},"capture_flags":{"save_rgb":true,"save_depth":false,"video_rgb":true,"video_depth":false}}
{"frame":614,"timestamp":{"delta_seconds":0.05000000074505806,"elapsed_seconds":11.532535137608647},"control":{"throttle":0.05267385393381119,"steer":0.09696003049612045,"brake":0.0,"hand_brake":false,"reverse":false,"manual_gear_shift":false,"gear":0},"transform":{"location":{"x":-24.143903732299805,"y":69.85560607910156,"z":0.0018954466795548797},"rotation":{"pitch":-0.0034833962563425303,"yaw":3.096791982650757,"roll":-0.013580322265625}},"velocity":{"x":2.4604310989379883,"y":0.27479851245880127,"z":2.7227401005802676e-05},"angular_velocity":{"x":0.1300210803747177,"y":0.0643894150853157,"z":5.1661601066589355},"acceleration":{"x":-0.7896041870117188,"y":0.8237877488136292,"z":-0.00032787321833893657},"speed_mps":2.475729269490527,"speed_kph":8.912625370165898,"speed_limit_kph":30.0,"collisions_this_frame":[],"waypoint":{"x":-24.143728256225586,"y":69.71768951416016,"z":0.0},"lane_deviation_m":0.13792970776557922,"lane_width":3.5,"goal":{"x":29.89404296875,"y":-64.39876556396484,"z":0.5999999642372131},"fault":{"name":"camera_blackout","severity":1.0},"capture_flags":{"save_rgb":true,"save_depth":false,"video_rgb":true,"video_depth":false}}
{"frame":615,"timestamp":{"delta_seconds":0.05000000074505806,"elapsed_seconds":11.582535138353705},"control":{"throttle":0.05267385393381119,"steer":0.08402321487665176,"brake":0.0,"hand_brake":false,"reverse":false,"manual_gear_shift":false,"gear":0},"transform":{"location":{"x":-24.02210235595703,"y":69.86774444580078,"z":0.0019096373580396175},"rotation":{"pitch":-0.005675886757671833,"yaw":3.3293237686157227,"roll":-0.013458251021802425}},"velocity":{"x":2.4173102378845215,"y":0.2685692608356476,"z":2.1295547412591986e-05},"angular_velocity":{"x":-0.04596627131104469,"y":0.03610680624842644,"z":4.443803310394287},"acceleration":{"x":-0.8624172210693359,"y":-0.12458503246307373,"z":-0.0001186370718642138},"speed_mps":2.432183840605111,"speed_kph":8.7558618261784,"speed_limit_kph":30.0,"collisions_this_frame":[],"waypoint":{"x":-24.021913528442383,"y":69.71784210205078,"z":0.0},"lane_deviation_m":0.14991462230682373,"lane_width":3.5,"goal":{"x":29.89404296875,"y":-64.39876556396484,"z":0.5999999642372131},"fault":{"name":"camera_blackout","severity":1.0},"capture_flags":{"save_rgb":true,"save_depth":false,"video_rgb":true,"video_depth":false}}
{"frame":616,"timestamp":{"delta_seconds":0.05000000074505806,"elapsed_seconds":11.632535139098763},"control":{"throttle":0.05267385393381119,"steer":0.08402321487665176,"brake":0.0,"hand_brake":false,"reverse":false,"manual_gear_shift":false,"gear":0},"transform":{"location":{"x":-23.90221405029297,"y":69.88006591796875,"z":0.0019174575572833419},"rotation":{"pitch":-0.006898490712046623,"yaw":3.5513739585876465,"roll":-0.011901856400072575}},"velocity":{"x":2.382375955581665,"y":0.2758438289165497,"z":1.2073516700183973e-05},"angular_velocity":{"x":-0.019936710596084595,"y":0.015068727545440197,"z":4.455618381500244},"acceleration":{"x":-0.6986856460571289,"y":0.145491361618042,"z":-0.00018444060697220266},"speed_mps":2.398292103108119,"speed_kph":8.63385157118923,"speed_limit_kph":30.0,"collisions_this_frame":[],"waypoint":{"x":-23.902009963989258,"y":69.7179946899414,"z":0.0},"lane_deviation_m":0.162082701921463,"lane_width":3.5,"goal":{"x":29.89404296875,"y":-64.39876556396484,"z":0.5999999642372131},"fault":{"name":"camera_blackout","severity":1.0},"capture_flags":{"save_rgb":true,"save_depth":false,"video_rgb":true,"video_depth":false}}
{"frame":617,"timestamp":{"delta_seconds":0.05000000074505806,"elapsed_seconds":11.682535139843822},"control":{"throttle":0.05267385393381119,"steer":0.08230320364236832,"brake":0.0,"hand_brake":false,"reverse":false,"manual_gear_shift":false,"gear":0},"transform":{"location":{"x":-23.784364700317383,"y":69.89260864257812,"z":0.0019231796031817794},"rotation":{"pitch":-0.007806906010955572,"yaw":3.7676098346710205,"roll":-0.01031494140625}},"velocity":{"x":2.337528944015503,"y":0.27663445472717285,"z":7.324218586290954e-06},"angular_velocity":{"x":-0.04169369116425514,"y":0.01691347174346447,"z":4.238649368286133},"acceleration":{"x":-0.8969402313232422,"y":0.01581251621246338,"z":-9.498596045887098e-05},"speed_mps":2.3538411555808256,"speed_kph":8.473828160090973,"speed_limit_kph":30.0,"collisions_this_frame":[],"waypoint":{"x":-23.784143447875977,"y":69.71814727783203,"z":0.0},"lane_deviation_m":0.17447210848331451,"lane_width":3.5,"goal":{"x":29.89404296875,"y":-64.39876556396484,"z":0.5999999642372131},"fault":{"name":"camera_blackout","severity":1.0},"capture_flags":{"save_rgb":true,"save_depth":false,"video_rgb":true,"video_depth":false}}
{"frame":618,"timestamp":{"delta_seconds":0.05000000074505806,"elapsed_seconds":11.73253514058888},"control":{"throttle":0.05267385393381119,"steer":0.08230320364236832,"brake":0.0,"hand_brake":false,"reverse":false,"manual_gear_shift":false,"gear":0},"transform":{"location":{"x":-23.66844367980957,"y":69.90534973144531,"z":0.0019266128074377775},"rotation":{"pitch":-0.008332829922437668,"yaw":3.9788215160369873,"roll":-0.009033202193677425}},"velocity":{"x":2.302957534790039,"y":0.2822253108024597,"z":6.4754485720186494e-06},"angular_velocity":{"x":-0.011203804053366184,"y":0.003994313068687916,"z":4.235833644866943},"acceleration":{"x":-0.6914281845092773,"y":0.1118171215057373,"z":-1.6975400285446085e-05},"speed_mps":2.320186314317385,"speed_kph":8.352670731542586,"speed_limit_kph":30.0,"collisions_this_frame":[],"waypoint":{"x":-23.6682071685791,"y":69.71829223632812,"z":0.0},"lane_deviation_m":0.18706756830215454,"lane_width":3.5,"goal":{"x":29.89404296875,"y":-64.39876556396484,"z":0.5999999642372131},"fault":{"name":"camera_blackout","severity":1.0},"capture_flags":{"save_rgb":true,"save_depth":false,"video_rgb":true,"video_depth":false}}
{"frame":619,"timestamp":{"delta_seconds":0.05000000074505806,"elapsed_seconds":11.782535141333938},"control":{"throttle":0.47069868445396423,"steer":0.08410831540822983,"brake":0.0,"hand_brake":false,"reverse":false,"manual_gear_shift":false,"gear":0},"transform":{"location":{"x":-23.554378509521484,"y":69.9183120727539,"z":0.0019282912835478783},"rotation":{"pitch":-0.008571887388825417,"yaw":4.187368869781494,"roll":-0.008209227584302425}},"velocity":{"x":2.267686367034912,"y":0.28510740399360657,"z":7.820129326319147e-07},"angular_velocity":{"x":-0.025145329535007477,"y":-0.00036085525061935186,"z":4.115696430206299},"acceleration":{"x":-0.7054233551025391,"y":0.05764186382293701,"z":-0.00011386870755814016},"speed_mps":2.2855388185389858,"speed_kph":8.227939746740349,"speed_limit_kph":30.0,"collisions_this_frame":[],"waypoint":{"x":-23.55412483215332,"y":69.71843719482422,"z":0.0},"lane_deviation_m":0.1998843401670456,"lane_width":3.5,"goal":{"x":29.89404296875,"y":-64.39876556396484,"z":0.5999999642372131},"fault":{"name":"camera_blackout","severity":1.0},"capture_flags":{"save_rgb":true,"save_depth":false,"video_rgb":true,"video_depth":false}}
{"frame":620,"timestamp":{"delta_seconds":0.05000000074505806,"elapsed_seconds":11.832535142078996},"control":{"throttle":0.47069868445396423,"steer":0.08410831540822983,"brake":0.0,"hand_brake":false,"reverse":false,"manual_gear_shift":false,"gear":0},"transform":{"location":{"x":-23.44058609008789,"y":69.93172454833984,"z":0.0019202422117814422},"rotation":{"pitch":-0.00717169838026166,"yaw":4.398207664489746,"roll":-0.008026122115552425}},"velocity":{"x":2.2851054668426514,"y":0.2989238202571869,"z":3.185272134942352e-06},"angular_velocity":{"x":0.015185702592134476,"y":-0.049333907663822174,"z":4.291816234588623},"acceleration":{"x":0.34838199615478516,"y":0.27632832527160645,"z":4.806518700206652e-05},"speed_mps":2.304574243742533,"speed_kph":8.296467277473118,"speed_limit_kph":30.0,"collisions_this_frame":[],"waypoint":{"x":-23.440317153930664,"y":69.71858978271484,"z":0.0},"lane_deviation_m":0.21314358711242676,"lane_width":3.5,"goal":{"x":29.89404296875,"y":-64.39876556396484,"z":0.5999999642372131},"fault":{"name":"camera_blackout","severity":1.0},"capture_flags":{"save_rgb":true,"save_depth":false,"video_rgb":true,"video_depth":false}}
{"frame":621,"timestamp":{"delta_seconds":0.05000000074505806,"elapsed_seconds":11.882535142824054},"control":{"throttle":0.5131657719612122,"steer":0.08544693142175674,"brake":0.0,"hand_brake":false,"reverse":false,"manual_gear_shift":false,"gear":0},"transform":{"location":{"x":-23.32474136352539,"y":69.94583129882812,"z":0.00189971923828125},"rotation":{"pitch":-0.0036609810777008533,"yaw":4.614227294921875,"roll":-0.00823974609375}},"velocity":{"x":2.3396127223968506,"y":0.31333568692207336,"z":-6.484985419774603e-07},"angular_velocity":{"x":0.0022498650941997766,"y":-0.08239398896694183,"z":4.334245204925537},"acceleration":{"x":1.0901451110839844,"y":0.2882373332977295,"z":-7.667541649425402e-05},"speed_mps":2.360501417813713,"speed_kph":8.497805104129368,"speed_limit_kph":30.0,"collisions_this_frame":[],"waypoint":{"x":-23.324453353881836,"y":69.71873474121094,"z":0.0},"lane_deviation_m":0.22710469365119934,"lane_width":3.5,"goal":{"x":29.89404296875,"y":-64.39876556396484,"z":0.5999999642372131},"fault":{"name":"camera_blackout","severity":1.0},"capture_flags":{"save_rgb":true,"save_depth":false,"video_rgb":true,"video_depth":false}}
{"frame":622,"timestamp":{"delta_seconds":0.05000000074505806,"elapsed_seconds":11.932535143569112},"control":{"throttle":0.5131657719612122,"steer":0.08544693142175674,"brake":0.0,"hand_brake":false,"reverse":false,"manual_gear_shift":false,"gear":0},"transform":{"location":{"x":-23.204748153686523,"y":69.9609375,"z":0.0018688583513721824},"rotation":{"pitch":0.0016050944104790688,"yaw":4.840117454528809,"roll":-0.00897216796875}},"velocity":{"x":2.438655376434326,"y":0.3389565944671631,"z":5.626678216685832e-07},"angular_velocity":{"x":0.037178877741098404,"y":-0.11447687447071075,"z":4.6425628662109375},"acceleration":{"x":1.9808530807495117,"y":0.5124181509017944,"z":2.422332727292087e-05},"speed_mps":2.462099026835667,"speed_kph":8.863556496608402,"speed_limit_kph":30.0,"collisions_this_frame":[],"waypoint":{"x":-23.204439163208008,"y":69.71888732910156,"z":0.0},"lane_deviation_m":0.24205759167671204,"lane_width":3.5,"goal":{"x":29.89404296875,"y":-64.39876556396484,"z":0.5999999642372131},"fault":{"name":"camera_blackout","severity":1.0},"capture_flags":{"save_rgb":true,"save_depth":false,"video_rgb":true,"video_depth":false}}
{"frame":623,"timestamp":{"delta_seconds":0.05000000074505806,"elapsed_seconds":11.98253514431417},"control":{"throttle":0.0,"steer":0.08467702567577362,"brake":0.0,"hand_brake":false,"reverse":false,"manual_gear_shift":false,"gear":0},"transform":{"location":{"x":-23.079797744750977,"y":69.97710418701172,"z":0.0018376159714534879},"rotation":{"pitch":0.0069326418451964855,"yaw":5.072458744049072,"roll":-0.009429930709302425}},"velocity":{"x":2.529195785522461,"y":0.3577286899089813,"z":-5.435943535303522e-07},"angular_velocity":{"x":0.004742904100567102,"y":-0.09029021114110947,"z":4.650180339813232},"acceleration":{"x":1.8108081817626953,"y":0.37544190883636475,"z":-2.2125243049231358e-05},"speed_mps":2.5543690291515966,"speed_kph":9.195728504945748,"speed_limit_kph":30.0,"collisions_this_frame":[],"waypoint":{"x":-23.079469680786133,"y":69.71904754638672,"z":0.0},"lane_deviation_m":0.2580633759498596,"lane_width":3.5,"goal":{"x":29.89404296875,"y":-64.39876556396484,"z":0.5999999642372131},"fault":{"name":"camera_blackout","severity":1.0},"capture_flags":{"save_rgb":true,"save_depth":false,"video_rgb":true,"video_depth":false}}
{"frame":624,"timestamp":{"delta_seconds":0.05000000074505806,"elapsed_seconds":12.032535145059228},"control":{"throttle":0.0,"steer":0.08467702567577362,"brake":0.0,"hand_brake":false,"reverse":false,"manual_gear_shift":false,"gear":0},"transform":{"location":{"x":-22.950353622436523,"y":69.99440002441406,"z":0.0018142699263989925},"rotation":{"pitch":0.010928302071988583,"yaw":5.312686443328857,"roll":-0.010101319290697575}},"velocity":{"x":2.6102452278137207,"y":0.3827376961708069,"z":-1.287460349885805e-06},"angular_velocity":{"x":0.02492060884833336,"y":-0.054951198399066925,"z":4.88731575012207},"acceleration":{"x":1.6209888458251953,"y":0.5001801252365112,"z":-1.487731969973538e-05},"speed_mps":2.638156229906807,"speed_kph":9.497362427664505,"speed_limit_kph":30.0,"collisions_this_frame":[],"waypoint":{"x":-22.950002670288086,"y":69.7192153930664,"z":0.0},"lane_deviation_m":0.2751908600330353,"lane_width":3.5,"goal":{"x":29.89404296875,"y":-64.39876556396484,"z":0.5999999642372131},"fault":{"name":"camera_blackout","severity":1.0},"capture_flags":{"save_rgb":true,"save_depth":false,"video_rgb":true,"video_depth":false}}
{"frame":625,"timestamp":{"delta_seconds":0.05000000074505806,"elapsed_seconds":12.082535145804286},"control":{"throttle":0.03787577897310257,"steer":0.10183702409267426,"brake":0.0,"hand_brake":false,"reverse":false,"manual_gear_shift":false,"gear":0},"transform":{"location":{"x":-22.820480346679688,"y":70.012939453125,"z":0.0018179701874032617},"rotation":{"pitch":0.01031358540058136,"yaw":5.584493160247803,"roll":-0.012725830078125}},"velocity":{"x":2.58597731590271,"y":0.4104461073875427,"z":-7.820129326319147e-07},"angular_velocity":{"x":0.025609273463487625,"y":0.04365367069840431,"z":5.566801071166992},"acceleration":{"x":-0.48535823822021484,"y":0.5541682243347168,"z":1.010894811770413e-05},"speed_mps":2.618347701401321,"speed_kph":9.426051725044756,"speed_limit_kph":30.0,"collisions_this_frame":[],"waypoint":{"x":-22.820104598999023,"y":69.7193832397461,"z":0.0},"lane_deviation_m":0.2935620844364166,"lane_width":3.5,"goal":{"x":29.89404296875,"y":-64.39876556396484,"z":0.5999999642372131},"fault":{"name":"camera_blackout","severity":1.0},"capture_flags":{"save_rgb":true,"save_depth":false,"video_rgb":true,"video_depth":false}}
{"frame":626,"timestamp":{"delta_seconds":0.05000000074505806,"elapsed_seconds":12.132535146549344},"control":{"throttle":0.03787577897310257,"steer":0.10183702409267426,"brake":0.0,"hand_brake":false,"reverse":false,"manual_gear_shift":false,"gear":0},"transform":{"location":{"x":-22.69166374206543,"y":70.0323486328125,"z":0.0018339157104492188},"rotation":{"pitch":0.0075883399695158005,"yaw":5.869771480560303,"roll":-0.013763426803052425}},"velocity":{"x":2.5635201930999756,"y":0.4277650713920593,"z":-2.2983549570199102e-06},"angular_velocity":{"x":0.012052197009325027,"y":0.06046701967716217,"z":5.769805908203125},"acceleration":{"x":-0.4491424560546875,"y":0.34637928009033203,"z":-3.032684253412299e-05},"speed_mps":2.5989649356502813,"speed_kph":9.356273768341014,"speed_limit_kph":30.0,"collisions_this_frame":[],"waypoint":{"x":-22.691267013549805,"y":69.71954345703125,"z":0.0},"lane_deviation_m":0.3128107786178589,"lane_width":3.5,"goal":{"x":29.89404296875,"y":-64.39876556396484,"z":0.5999999642372131},"fault":{"name":"camera_blackout","severity":1.0},"capture_flags":{"save_rgb":true,"save_depth":false,"video_rgb":true,"video_depth":false}}
{"frame":627,"timestamp":{"delta_seconds":0.05000000074505806,"elapsed_seconds":12.182535147294402},"control":{"throttle":0.03162577748298645,"steer":0.08438719809055328,"brake":0.0,"hand_brake":false,"reverse":false,"manual_gear_shift":false,"gear":0},"transform":{"location":{"x":-22.56437110900879,"y":70.05158233642578,"z":0.0018533705733716488},"rotation":{"pitch":0.0042688678950071335,"yaw":6.120491981506348,"roll":-0.01022338680922985}},"velocity":{"x":2.5276734828948975,"y":0.40961772203445435,"z":-1.220703097715159e-06},"angular_velocity":{"x":-0.08671023696660995,"y":0.06191885471343994,"z":4.732095241546631},"acceleration":{"x":-0.7169342041015625,"y":-0.3629469871520996,"z":2.1553038095589727e-05},"speed_mps":2.5606483386705423,"speed_kph":9.218334019213952,"speed_limit_kph":30.0,"collisions_this_frame":[],"waypoint":{"x":-22.563947677612305,"y":69.7197036743164,"z":0.0},"lane_deviation_m":0.33188411593437195,"lane_width":3.5,"goal":{"x":29.89404296875,"y":-64.39876556396484,"z":0.5999999642372131},"fault":{"name":"camera_blackout","severity":1.0},"capture_flags":{"save_rgb":true,"save_depth":false,"video_rgb":true,"video_depth":false}}
{"frame":628,"timestamp":{"delta_seconds":0.05000000074505806,"elapsed_seconds":12.23253514803946},"control":{"throttle":0.03162577748298645,"steer":0.08438719809055328,"brake":0.0,"hand_brake":false,"reverse":false,"manual_gear_shift":false,"gear":0},"transform":{"location":{"x":-22.438915252685547,"y":70.07076263427734,"z":0.0018717956263571978},"rotation":{"pitch":0.0011133208172395825,"yaw":6.355317115783691,"roll":-0.008239745162427425}},"velocity":{"x":2.4916911125183105,"y":0.4132945239543915,"z":1.926422100950731e-06},"angular_velocity":{"x":-0.021121522411704063,"y":0.055132560431957245,"z":4.698794841766357},"acceleration":{"x":-0.7196474075317383,"y":0.07353603839874268,"z":6.29425048828125e-05},"speed_mps":2.5257349353677503,"speed_kph":9.092645767323901,"speed_limit_kph":30.0,"collisions_this_frame":[],"waypoint":{"x":-22.438467025756836,"y":69.71986389160156,"z":0.0},"lane_deviation_m":0.35090401768684387,"lane_width":3.5,"goal":{"x":29.89404296875,"y":-64.39876556396484,"z":0.5999999642372131},"fault":{"name":"camera_blackout","severity":1.0},"capture_flags":{"save_rgb":true,"save_depth":false,"video_rgb":true,"video_depth":false}}
{"frame":629,"timestamp":{"delta_seconds":0.05000000074505806,"elapsed_seconds":12.282535148784518},"control":{"throttle":0.02537577785551548,"steer":0.0807817280292511,"brake":0.0,"hand_brake":false,"reverse":false,"manual_gear_shift":false,"gear":0},"transform":{"location":{"x":-22.315643310546875,"y":70.08990478515625,"z":0.0018888091435655951},"rotation":{"pitch":-0.0017690189415588975,"yaw":6.577127456665039,"roll":-0.006683349609375}},"velocity":{"x":2.4430088996887207,"y":0.4071105122566223,"z":2.7370451789465733e-06},"angular_velocity":{"x":-0.04173935577273369,"y":0.05384775623679161,"z":4.3087849617004395},"acceleration":{"x":-0.9736442565917969,"y":-0.1236802339553833,"z":1.6212461559916846e-05},"speed_mps":2.4766976911112173,"speed_kph":8.916111688000383,"speed_limit_kph":30.0,"collisions_this_frame":[],"waypoint":{"x":-22.31517219543457,"y":69.72002410888672,"z":0.0},"lane_deviation_m":0.36988580226898193,"lane_width":3.5,"goal":{"x":29.89404296875,"y":-64.39876556396484,"z":0.5999999642372131},"fault":{"name":"camera_blackout","severity":1.0},"capture_flags":{"save_rgb":true,"save_depth":false,"video_rgb":true,"video_depth":false}}
{"frame":630,"timestamp":{"delta_seconds":0.05000000074505806,"elapsed_seconds":12.332535149529576},"control":{"throttle":0.02537577785551548,"steer":0.0807817280292511,"brake":0.0,"hand_brake":false,"reverse":false,"manual_gear_shift":false,"gear":0},"transform":{"location":{"x":-22.19463348388672,"y":70.10912322998047,"z":0.0019026946974918246},"rotation":{"pitch":-0.004118603654205799,"yaw":6.793431758880615,"roll":-0.006164550315588713}},"velocity":{"x":2.4004921913146973,"y":0.4112791419029236,"z":5.149840944795869e-07},"angular_velocity":{"x":0.0003825806197710335,"y":0.039711762219667435,"z":4.343719482421875},"acceleration":{"x":-0.8503341674804688,"y":0.08337259292602539,"z":-4.444122168933973e-05},"speed_mps":2.4354698300589783,"speed_kph":8.767691388212322,"speed_limit_kph":30.0,"collisions_this_frame":[],"waypoint":{"x":-22.194135665893555,"y":69.72017669677734,"z":0.0},"lane_deviation_m":0.38895151019096375,"lane_width":3.5,"goal":{"x":29.89404296875,"y":-64.39876556396484,"z":0.5999999642372131},"fault":{"name":"camera_blackout","severity":1.0},"capture_flags":{"save_rgb":true,"save_depth":false,"video_rgb":true,"video_depth":false}}
{"frame":631,"timestamp":{"delta_seconds":0.05000000074505806,"elapsed_seconds":12.382535150274634},"control":{"throttle":0.01912577822804451,"steer":0.08066019415855408,"brake":0.0,"hand_brake":false,"reverse":false,"manual_gear_shift":false,"gear":0},"transform":{"location":{"x":-22.076078414916992,"y":70.12835693359375,"z":0.0019144820980727673},"rotation":{"pitch":-0.006133509334176779,"yaw":7.003856182098389,"roll":-0.0057373046875}},"velocity":{"x":2.346785068511963,"y":0.40801382064819336,"z":2.689361508600996e-06},"angular_velocity":{"x":-0.022912397980690002,"y":0.03858992084860802,"z":4.119088649749756},"acceleration":{"x":-1.0741424560546875,"y":-0.06530642509460449,"z":4.348754737293348e-05},"speed_mps":2.381989805947512,"speed_kph":8.575163301411044,"speed_limit_kph":30.0,"collisions_this_frame":[],"waypoint":{"x":-22.075559616088867,"y":69.72032928466797,"z":0.0},"lane_deviation_m":0.40803247690200806,"lane_width":3.5,"goal":{"x":29.89404296875,"y":-64.39876556396484,"z":0.5999999642372131},"fault":{"name":"camera_blackout","severity":1.0},"capture_flags":{"save_rgb":true,"save_depth":false,"video_rgb":true,"video_depth":false}}
{"frame":632,"timestamp":{"delta_seconds":0.05000000074505806,"elapsed_seconds":12.432535151019692},"control":{"throttle":0.01912577822804451,"steer":0.08066019415855408,"brake":0.0,"hand_brake":false,"reverse":false,"manual_gear_shift":false,"gear":0},"transform":{"location":{"x":-21.959957122802734,"y":70.14765930175781,"z":0.0019234084757044911},"rotation":{"pitch":-0.00766347162425518,"yaw":7.211406230926514,"roll":-0.005706786643713713}},"velocity":{"x":2.301398992538452,"y":0.41173839569091797,"z":-1.4305113893442467e-07},"angular_velocity":{"x":0.0074308570474386215,"y":0.0245836041867733,"z":4.1730875968933105},"acceleration":{"x":-0.9077215194702148,"y":0.07449150085449219,"z":-5.664825584972277e-05},"speed_mps":2.3379405102232935,"speed_kph":8.416585836803858,"speed_limit_kph":30.0,"collisions_this_frame":[],"waypoint":{"x":-21.959413528442383,"y":69.7204818725586,"z":0.0},"lane_deviation_m":0.4271821081638336,"lane_width":3.5,"goal":{"x":29.89404296875,"y":-64.39876556396484,"z":0.5999999642372131},"fault":{"name":"camera_blackout","severity":1.0},"capture_flags":{"save_rgb":true,"save_depth":false,"video_rgb":true,"video_depth":false}}
