{"frame":35113,"timestamp":{"delta_seconds":0.05000000074505806,"elapsed_seconds":334.1796506214887},"control":{"throttle":0.75,"steer":0.0,"brake":0.0,"hand_brake":false,"reverse":false,"manual_gear_shift":false,"gear":0},"transform":{"location":{"x":-87.6230239868164,"y":12.967159271240234,"z":0.48239994049072266},"rotation":{"pitch":0.0,"yaw":-179.84078979492188,"roll":0.0}},"velocity":{"x":0.0,"y":0.0,"z":-1.470000147819519},"angular_velocity":{"x":0.0,"y":0.0,"z":0.0},"acceleration":{"x":0.0,"y":0.0,"z":-9.80000114440918},"speed_mps":1.470000147819519,"speed_kph":5.2920005321502686,"speed_limit_kph":30.0,"collisions_this_frame":[],"waypoint":{"x":-87.62295532226562,"y":12.94051742553711,"z":0.0},"lane_deviation_m":0.48313507437705994,"lane_width":3.5,"goal":{"x":79.05529022216797,"y":69.8227767944336,"z":0.5999999642372131},"fault":{"name":"camera_blackout","severity":1.0},"capture_flags":{"save_rgb":true,"save_depth":false,"video_rgb":true,"video_depth":false}}
{"frame":35114,"timestamp":{"delta_seconds":0.05000000074505806,"elapsed_seconds":334.22965062223375},"control":{"throttle":0.75,"steer":0.0,"brake":0.0,"hand_brake":false,"reverse":false,"manual_gear_shift":false,"gear":0},"transform":{"location":{"x":-87.6230239868164,"y":12.967159271240234,"z":0.394199937582016},"rotation":{"pitch":0.0,"yaw":-179.84078979492188,"roll":0.0}},"velocity":{"x":0.0,"y":0.0,"z":-1.9600002765655518},"angular_velocity":{"x":0.0,"y":0.0,"z":0.0},"acceleration":{"x":0.0,"y":0.0,"z":-9.800003051757812},"speed_mps":1.9600002765655518,"speed_kph":7.056000995635986,"speed_limit_kph":30.0,"collisions_this_frame":[],"waypoint":{"x":-87.62295532226562,"y":12.94051742553711,"z":0.0},"lane_deviation_m":0.3950991928577423,"lane_width":3.5,"goal":{"x":79.05529022216797,"y":69.8227767944336,"z":0.5999999642372131},"fault":{"name":"camera_blackout","severity":1.0},"capture_flags":{"save_rgb":true,"save_depth":false,"video_rgb":true,"video_depth":false}}
{"frame":35115,"timestamp":{"delta_seconds":0.05000000074505806,"elapsed_seconds":334.2796506229788},"control":{"throttle":0.75,"steer":0.0,"brake":0.0,"hand_brake":false,"reverse":false,"manual_gear_shift":false,"gear":0},"transform":{"location":{"x":-87.6230239868164,"y":12.967159271240234,"z":0.281499981880188},"rotation":{"pitch":0.0,"yaw":-179.84078979492188,"roll":0.0}},"velocity":{"x":0.0,"y":0.0,"z":-2.450000286102295},"angular_velocity":{"x":0.0,"y":0.0,"z":0.0},"acceleration":{"x":0.0,"y":0.0,"z":-9.800000190734863},"speed_mps":2.450000286102295,"speed_kph":8.820001029968262,"speed_limit_kph":30.0,"collisions_this_frame":[],"waypoint":{"x":-87.62295532226562,"y":12.94051742553711,"z":0.0},"lane_deviation_m":0.2827579081058502,"lane_width":3.5,"goal":{"x":79.05529022216797,"y":69.8227767944336,"z":0.5999999642372131},"fault":{"name":"camera_blackout","severity":1.0},"capture_flags":{"save_rgb":true,"save_depth":false,"video_rgb":true,"video_depth":false}}
{"frame":35116,"timestamp":{"delta_seconds":0.05000000074505806,"elapsed_seconds":334.32965062372386},"control":{"throttle":0.75,"steer":0.0,"brake":0.0,"hand_brake":false,"reverse":false,"manual_gear_shift":false,"gear":0},"transform":{"location":{"x":-87.6230239868164,"y":12.967159271240234,"z":0.14429987967014313},"rotation":{"pitch":0.0,"yaw":-179.84078979492188,"roll":0.0}},"velocity":{"x":0.0,"y":0.0,"z":-2.93999981880188},"angular_velocity":{"x":0.0,"y":0.0,"z":0.0},"acceleration":{"x":0.0,"y":0.0,"z":-9.7999906539917},"speed_mps":2.93999981880188,"speed_kph":10.583999347686769,"speed_limit_kph":30.0,"collisions_this_frame":[],"waypoint":{"x":-87.62295532226562,"y":12.94051742553711,"z":0.0},"lane_deviation_m":0.1467387080192566,"lane_width":3.5,"goal":{"x":79.05529022216797,"y":69.8227767944336,"z":0.5999999642372131},"fault":{"name":"camera_blackout","severity":1.0},"capture_flags":{"save_rgb":true,"save_depth":false,"video_rgb":true,"video_depth":false}}
{"frame":35117,"timestamp":{"delta_seconds":0.05000000074505806,"elapsed_seconds":334.3796506244689},"control":{"throttle":0.75,"steer":0.0,"brake":0.0,"hand_brake":false,"reverse":false,"manual_gear_shift":false,"gear":0},"transform":{"location":{"x":-87.62357330322266,"y":12.96517276763916,"z":0.009365997277200222},"rotation":{"pitch":0.07286445051431656,"yaw":-179.8075408935547,"roll":-0.1875305026769638}},"velocity":{"x":0.0027095067780464888,"y":-0.022531399503350258,"z":-2.008272886276245},"angular_velocity":{"x":-5.179205417633057,"y":2.2222490310668945,"z":0.21223808825016022},"acceleration":{"x":0.05419013649225235,"y":-0.45062798261642456,"z":18.634538650512695},"speed_mps":2.0084011031521767,"speed_kph":7.230243971347837,"speed_limit_kph":30.0,"collisions_this_frame":[],"waypoint":{"x":-87.62350463867188,"y":12.940515518188477,"z":0.0},"lane_deviation_m":0.026376251131296158,"lane_width":3.5,"goal":{"x":79.05529022216797,"y":69.8227767944336,"z":0.5999999642372131},"fault":{"name":"camera_blackout","severity":1.0},"capture_flags":{"save_rgb":true,"save_depth":false,"video_rgb":true,"video_depth":false}}
{"frame":35118,"timestamp":{"delta_seconds":0.05000000074505806,"elapsed_seconds":334.429650625214},"control":{"throttle":0.75,"steer":0.0,"brake":0.0,"hand_brake":false,"reverse":false,"manual_gear_shift":false,"gear":0},"transform":{"location":{"x":-87.62406921386719,"y":12.96351146697998,"z":-0.04846011847257614},"rotation":{"pitch":0.15083788335323334,"yaw":-179.8032989501953,"roll":-0.33303821086883545}},"velocity":{"x":-0.0006389307673089206,"y":-0.006589831784367561,"z":-0.7027705311775208},"angular_velocity":{"x":-1.4378985166549683,"y":1.0056092739105225,"z":-0.048369329422712326},"acceleration":{"x":-0.06696875393390656,"y":0.31883135437965393,"z":26.110048294067383},"speed_mps":0.702801717134361,"speed_kph":2.5300861816837,"speed_limit_kph":30.0,"collisions_this_frame":[],"waypoint":{"x":-87.62400817871094,"y":12.940513610839844,"z":0.0},"lane_deviation_m":0.05364036187529564,"lane_width":3.5,"goal":{"x":79.05529022216797,"y":69.8227767944336,"z":0.5999999642372131},"fault":{"name":"camera_blackout","severity":1.0},"capture_flags":{"save_rgb":true,"save_depth":false,"video_rgb":true,"video_depth":false}}
{"frame":35119,"timestamp":{"delta_seconds":0.05000000074505806,"elapsed_seconds":334.47965062595904},"control":{"throttle":0.75,"steer":0.0,"brake":0.0,"hand_brake":false,"reverse":false,"manual_gear_shift":false,"gear":0},"transform":{"location":{"x":-87.62419128417969,"y":12.963289260864258,"z":-0.06371334195137024},"rotation":{"pitch":0.17248958349227905,"yaw":-179.8021240234375,"roll":-0.34954833984375}},"velocity":{"x":0.0011277806479483843,"y":-0.00022247667948249727,"z":-0.1011342778801918},"angular_velocity":{"x":0.21106195449829102,"y":0.11070902645587921,"z":0.06372814625501633},"acceleration":{"x":0.035334229469299316,"y":0.12734709680080414,"z":12.032724380493164},"speed_mps":0.10114081049413562,"speed_kph":0.36410691777888826,"speed_limit_kph":30.0,"collisions_this_frame":[],"waypoint":{"x":-87.62413024902344,"y":12.940513610839844,"z":0.0},"lane_deviation_m":0.0676618367433548,"lane_width":3.5,"goal":{"x":79.05529022216797,"y":69.8227767944336,"z":0.5999999642372131},"fault":{"name":"camera_blackout","severity":1.0},"capture_flags":{"save_rgb":true,"save_depth":false,"video_rgb":true,"video_depth":false}}
{"frame":35120,"timestamp":{"delta_seconds":0.05000000074505806,"elapsed_seconds":334.5296506267041},"control":{"throttle":0.75,"steer":0.0,"brake":0.0,"hand_brake":false,"reverse":false,"manual_gear_shift":false,"gear":0},"transform":{"location":{"x":-87.62409973144531,"y":12.96371078491211,"z":-0.06023666262626648},"rotation":{"pitch":0.15232686698436737,"yaw":-179.80409240722656,"roll":-0.29660025238990784}},"velocity":{"x":-0.001690506935119629,"y":0.0026213484816253185,"z":0.14474524557590485},"angular_velocity":{"x":1.149038314819336,"y":-0.4998834431171417,"z":-0.0935584306716919},"acceleration":{"x":-0.05636575073003769,"y":0.05687650293111801,"z":4.917590618133545},"speed_mps":0.1447788499691471,"speed_kph":0.5212038598889296,"speed_limit_kph":30.0,"collisions_this_frame":[],"waypoint":{"x":-87.62403869628906,"y":12.940513610839844,"z":0.0},"lane_deviation_m":0.06454896181821823,"lane_width":3.5,"goal":{"x":79.05529022216797,"y":69.8227767944336,"z":0.5999999642372131},"fault":{"name":"camera_blackout","severity":1.0},"capture_flags":{"save_rgb":true,"save_depth":false,"video_rgb":true,"video_depth":false}}
{"frame":35121,"timestamp":{"delta_seconds":0.05000000074505806,"elapsed_seconds":334.57965062744915},"control":{"throttle":0.75,"steer":0.0,"brake":0.0,"hand_brake":false,"reverse":false,"manual_gear_shift":false,"gear":0},"transform":{"location":{"x":-87.62395477294922,"y":12.964290618896484,"z":-0.050149381160736084},"rotation":{"pitch":0.12685710191726685,"yaw":-179.8055877685547,"roll":-0.245391845703125}},"velocity":{"x":5.244612566457363e-06,"y":0.005225048400461674,"z":0.2200310230255127},"angular_velocity":{"x":0.9269015789031982,"y":-0.49148479104042053,"z":-6.928906077519059e-05},"acceleration":{"x":0.03391503170132637,"y":0.05207400023937225,"z":1.5057156085968018},"speed_mps":0.22009305362038764,"speed_kph":0.7923349930333955,"speed_limit_kph":30.0,"collisions_this_frame":[],"waypoint":{"x":-87.62389373779297,"y":12.940513610839844,"z":0.0},"lane_deviation_m":0.05550054460763931,"lane_width":3.5,"goal":{"x":79.05529022216797,"y":69.8227767944336,"z":0.5999999642372131},"fault":{"name":"camera_blackout","severity":1.0},"capture_flags":{"save_rgb":true,"save_depth":false,"video_rgb":true,"video_depth":false}}
{"frame":35122,"timestamp":{"delta_seconds":0.05000000074505806,"elapsed_seconds":334.6296506281942},"control":{"throttle":0.75,"steer":0.0,"brake":0.0,"hand_brake":false,"reverse":false,"manual_gear_shift":false,"gear":0},"transform":{"location":{"x":-87.62382507324219,"y":12.964905738830566,"z":-0.03888813033699989},"rotation":{"pitch":0.10226842015981674,"yaw":-179.80819702148438,"roll":-0.1998290717601776}},"velocity":{"x":-0.001454890938475728,"y":0.0064743999391794205,"z":0.21779030561447144},"angular_velocity":{"x":0.8898360133171082,"y":-0.47551146149635315,"z":-0.08678608387708664},"acceleration":{"x":-0.029202710837125778,"y":0.024987030774354935,"z":-0.044814348220825195},"speed_mps":0.2178913761071332,"speed_kph":0.7844089539856794,"speed_limit_kph":30.0,"collisions_this_frame":[],"waypoint":{"x":-87.62376403808594,"y":12.940513610839844,"z":0.0},"lane_deviation_m":0.0459049716591835,"lane_width":3.5,"goal":{"x":79.05529022216797,"y":69.8227767944336,"z":0.5999999642372131},"fault":{"name":"camera_blackout","severity":1.0},"capture_flags":{"save_rgb":true,"save_depth":false,"video_rgb":true,"video_depth":false}}
{"frame":35123,"timestamp":{"delta_seconds":0.05000000074505806,"elapsed_seconds":334.67965062893927},"control":{"throttle":0.75,"steer":0.0,"brake":0.0,"hand_brake":false,"reverse":false,"manual_gear_shift":false,"gear":0},"transform":{"location":{"x":-87.6353988647461,"y":12.965546607971191,"z":-0.02891639620065689},"rotation":{"pitch":0.08981698006391525,"yaw":-179.81588745117188,"roll":-0.1486816257238388}},"velocity":{"x":-0.5586385726928711,"y":0.005193727556616068,"z":0.1845855712890625},"angular_velocity":{"x":0.7965388894081116,"y":0.13306739926338196,"z":0.09199506789445877},"acceleration":{"x":-11.14367389678955,"y":-0.02561344765126705,"z":-0.6640946865081787},"speed_mps":0.5883671156976485,"speed_kph":2.1181216165115346,"speed_limit_kph":30.0,"collisions_this_frame":[],"waypoint":{"x":-87.63533020019531,"y":12.940483093261719,"z":0.0},"lane_deviation_m":0.038266729563474655,"lane_width":3.5,"goal":{"x":79.05529022216797,"y":69.8227767944336,"z":0.5999999642372131},"fault":{"name":"camera_blackout","severity":1.0},"capture_flags":{"save_rgb":true,"save_depth":false,"video_rgb":true,"video_depth":false}}
{"frame":35124,"timestamp":{"delta_seconds":0.05000000074505806,"elapsed_seconds":334.72965062968433},"control":{"throttle":0.75,"steer":0.0,"brake":0.0,"hand_brake":false,"reverse":false,"manual_gear_shift":false,"gear":0},"transform":{"location":{"x":-87.68722534179688,"y":12.965476989746094,"z":-0.02046249434351921},"rotation":{"pitch":0.1298418939113617,"yaw":-179.82127380371094,"roll":-0.1773376166820526}},"velocity":{"x":-1.3169410228729248,"y":0.0038132392801344395,"z":0.17031094431877136},"angular_velocity":{"x":-1.7949984073638916,"y":1.3242930173873901,"z":-0.05425053462386131},"acceleration":{"x":-15.166049003601074,"y":-0.02760976552963257,"z":-0.28549253940582275},"speed_mps":1.327913406918593,"speed_kph":4.780488264906935,"speed_limit_kph":30.0,"collisions_this_frame":[],"waypoint":{"x":-87.6871566772461,"y":12.940338134765625,"z":0.0},"lane_deviation_m":0.03241420164704323,"lane_width":3.5,"goal":{"x":79.05529022216797,"y":69.8227767944336,"z":0.5999999642372131},"fault":{"name":"camera_blackout","severity":1.0},"capture_flags":{"save_rgb":true,"save_depth":false,"video_rgb":true,"video_depth":false}}
{"frame":35125,"timestamp":{"delta_seconds":0.05000000074505806,"elapsed_seconds":334.7796506304294},"control":{"throttle":0.75,"steer":0.47169673442840576,"brake":0.0,"hand_brake":false,"reverse":false,"manual_gear_shift":false,"gear":0},"transform":{"location":{"x":-87.76893615722656,"y":12.965718269348145,"z":-0.013474426232278347},"rotation":{"pitch":0.17517384886741638,"yaw":-179.827880859375,"roll":-0.2147521674633026}},"velocity":{"x":-1.8411928415298462,"y":0.013149695470929146,"z":0.12172069400548935},"angular_velocity":{"x":0.36970487236976624,"y":0.39982905983924866,"z":-0.6918220520019531},"acceleration":{"x":-10.485036849975586,"y":0.18672913312911987,"z":-0.9718049764633179},"speed_mps":1.8452587681788442,"speed_kph":6.642931565443839,"speed_limit_kph":30.0,"collisions_this_frame":[],"waypoint":{"x":-87.76886749267578,"y":12.94011116027832,"z":0.0},"lane_deviation_m":0.02893594466149807,"lane_width":3.5,"goal":{"x":79.05529022216797,"y":69.8227767944336,"z":0.5999999642372131},"fault":{"name":"camera_blackout","severity":1.0},"capture_flags":{"save_rgb":true,"save_depth":false,"video_rgb":true,"video_depth":false}}
{"frame":35126,"timestamp":{"delta_seconds":0.05000000074505806,"elapsed_seconds":334.82965063117445},"control":{"throttle":0.75,"steer":0.47169673442840576,"brake":0.0,"hand_brake":false,"reverse":false,"manual_gear_shift":false,"gear":0},"transform":{"location":{"x":-87.8744125366211,"y":12.963297843933105,"z":-0.008392791263759136},"rotation":{"pitch":0.19357438385486603,"yaw":-179.72190856933594,"roll":-0.23553471267223358}},"velocity":{"x":-2.2616374492645264,"y":-0.11912942677736282,"z":0.0998641774058342},"angular_velocity":{"x":-1.6082788705825806,"y":0.6390516757965088,"z":4.633388519287109},"acceleration":{"x":-8.408891677856445,"y":-2.645582675933838,"z":-0.437130331993103},"speed_mps":2.266973450697868,"speed_kph":8.161104422512325,"speed_limit_kph":30.0,"collisions_this_frame":[],"waypoint":{"x":-87.87435150146484,"y":12.939817428588867,"z":0.0},"lane_deviation_m":0.024935368448495865,"lane_width":3.5,"goal":{"x":79.05529022216797,"y":69.8227767944336,"z":0.5999999642372131},"fault":{"name":"camera_blackout","severity":1.0},"capture_flags":{"save_rgb":true,"save_depth":false,"video_rgb":true,"video_depth":false}}
{"frame":35127,"timestamp":{"delta_seconds":0.05000000074505806,"elapsed_seconds":334.8796506319195},"control":{"throttle":0.75,"steer":0.39510199427604675,"brake":0.0,"hand_brake":false,"reverse":false,"manual_gear_shift":false,"gear":0},"transform":{"location":{"x":-87.99637603759766,"y":12.953286170959473,"z":-0.00430858600884676},"rotation":{"pitch":0.21573834121227264,"yaw":-179.3071746826172,"roll":-0.30523669719696045}},"velocity":{"x":-2.539288282394409,"y":-0.3253457546234131,"z":0.0765976682305336},"angular_velocity":{"x":-1.596798062324524,"y":0.4127180576324463,"z":10.637860298156738},"acceleration":{"x":-5.553016662597656,"y":-4.124326705932617,"z":-0.46533018350601196},"speed_mps":2.5611915281632847,"speed_kph":9.220289501387825,"speed_limit_kph":30.0,"collisions_this_frame":[],"waypoint":{"x":-87.99634552001953,"y":12.93947982788086,"z":0.0},"lane_deviation_m":0.014463054947555065,"lane_width":3.5,"goal":{"x":79.05529022216797,"y":69.8227767944336,"z":0.5999999642372131},"fault":{"name":"camera_blackout","severity":1.0},"capture_flags":{"save_rgb":true,"save_depth":false,"video_rgb":true,"video_depth":false}}
{"frame":35128,"timestamp":{"delta_seconds":0.05000000074505806,"elapsed_seconds":334.92965063266456},"control":{"throttle":0.75,"steer":0.39510199427604675,"brake":0.0,"hand_brake":false,"reverse":false,"manual_gear_shift":false,"gear":0},"transform":{"location":{"x":-88.1298599243164,"y":12.934468269348145,"z":-0.002067832974717021},"rotation":{"pitch":0.17808350920677185,"yaw":-178.51295471191406,"roll":-0.23693841695785522}},"velocity":{"x":-2.7612218856811523,"y":-0.6100631952285767,"z":-0.00992504134774208},"angular_velocity":{"x":5.675453186035156,"y":-2.4797723293304443,"z":19.267257690429688},"acceleration":{"x":-4.438672065734863,"y":-5.6943488121032715,"z":-1.7304542064666748},"speed_mps":2.8278298942091324,"speed_kph":10.180187619152877,"speed_limit_kph":30.0,"collisions_this_frame":[],"waypoint":{"x":-88.12987518310547,"y":12.939107894897461,"z":0.0},"lane_deviation_m":0.005079595372080803,"lane_width":3.5,"goal":{"x":79.05529022216797,"y":69.8227767944336,"z":0.5999999642372131},"fault":{"name":"camera_blackout","severity":1.0},"capture_flags":{"save_rgb":true,"save_depth":false,"video_rgb":true,"video_depth":false}}
{"frame":35129,"timestamp":{"delta_seconds":0.05000000074505806,"elapsed_seconds":334.9796506334096},"control":{"throttle":0.0,"steer":0.3979598581790924,"brake":0.0,"hand_brake":false,"reverse":false,"manual_gear_shift":false,"gear":0},"transform":{"location":{"x":-88.27289581298828,"y":12.90438175201416,"z":-0.0016323851887136698},"rotation":{"pitch":0.10122339427471161,"yaw":-177.38430786132812,"roll":-0.1262511909008026}},"velocity":{"x":-2.937824249267578,"y":-0.813190221786499,"z":0.004485349636524916},"angular_velocity":{"x":1.0998708009719849,"y":-0.9722095131874084,"z":23.82038688659668},"acceleration":{"x":-3.5320472717285156,"y":-4.062540531158447,"z":0.2882078289985657},"speed_mps":3.0482962084999463,"speed_kph":10.973866350599806,"speed_limit_kph":30.0,"collisions_this_frame":[],"waypoint":{"x":-88.27299499511719,"y":12.938711166381836,"z":0.0},"lane_deviation_m":0.03436834737658501,"lane_width":3.5,"goal":{"x":79.05529022216797,"y":69.8227767944336,"z":0.5999999642372131},"fault":{"name":"camera_blackout","severity":1.0},"capture_flags":{"save_rgb":true,"save_depth":false,"video_rgb":true,"video_depth":false}}
{"frame":35130,"timestamp":{"delta_seconds":0.05000000074505806,"elapsed_seconds":335.0296506341547},"control":{"throttle":0.0,"steer":0.3979598581790924,"brake":0.0,"hand_brake":false,"reverse":false,"manual_gear_shift":false,"gear":0},"transform":{"location":{"x":-88.4239730834961,"y":12.867435455322266,"z":-0.0010464477818459272},"rotation":{"pitch":0.06952448934316635,"yaw":-176.13233947753906,"roll":-0.10299680382013321}},"velocity":{"x":-3.0588107109069824,"y":-0.9345120787620544,"z":0.009527807123959064},"angular_velocity":{"x":0.27123749256134033,"y":-0.4458916187286377,"z":25.652297973632812},"acceleration":{"x":-2.419729232788086,"y":-2.4264371395111084,"z":0.10084915161132812},"speed_mps":3.1983943736850287,"speed_kph":11.514219745266104,"speed_limit_kph":30.0,"collisions_this_frame":[],"waypoint":{"x":-88.4241714477539,"y":12.938289642333984,"z":0.0},"lane_deviation_m":0.07086218893527985,"lane_width":3.5,"goal":{"x":79.05529022216797,"y":69.8227767944336,"z":0.5999999642372131},"fault":{"name":"camera_blackout","severity":1.0},"capture_flags":{"save_rgb":true,"save_depth":false,"video_rgb":true,"video_depth":false}}
{"frame":35131,"timestamp":{"delta_seconds":0.05000000074505806,"elapsed_seconds":335.07965063489974},"control":{"throttle":0.0,"steer":-0.02728971280157566,"brake":1.0,"hand_brake":false,"reverse":false,"manual_gear_shift":false,"gear":0},"transform":{"location":{"x":-88.57994842529297,"y":12.831356048583984,"z":-0.0004410934343468398},"rotation":{"pitch":0.052749548107385635,"yaw":-175.11700439453125,"roll":-0.0643615573644638}},"velocity":{"x":-3.142176389694214,"y":-0.7462821006774902,"z":0.01019471138715744},"angular_velocity":{"x":1.1425238847732544,"y":-0.19006071984767914,"z":15.447824478149414},"acceleration":{"x":-1.667313575744629,"y":3.764599561691284,"z":0.013338085263967514},"speed_mps":3.2295995680399203,"speed_kph":11.626558444943713,"speed_limit_kph":30.0,"collisions_this_frame":[],"waypoint":{"x":-88.58024597167969,"y":12.937856674194336,"z":0.0},"lane_deviation_m":0.10650195181369781,"lane_width":3.5,"goal":{"x":79.05529022216797,"y":69.8227767944336,"z":0.5999999642372131},"fault":{"name":"camera_blackout","severity":1.0},"capture_flags":{"save_rgb":true,"save_depth":false,"video_rgb":true,"video_depth":false}}
{"frame":35132,"timestamp":{"delta_seconds":0.05000000074505806,"elapsed_seconds":335.1296506356448},"control":{"throttle":0.0,"steer":-0.02728971280157566,"brake":1.0,"hand_brake":false,"reverse":false,"manual_gear_shift":false,"gear":0},"transform":{"location":{"x":-88.73676300048828,"y":12.807276725769043,"z":0.00012294769112486392},"rotation":{"pitch":0.03821490705013275,"yaw":-174.77000427246094,"roll":0.003784091444686055}},"velocity":{"x":-3.1104049682617188,"y":-0.39661628007888794,"z":0.009045228362083435},"angular_velocity":{"x":1.329346776008606,"y":-0.18262329697608948,"z":2.0057899951934814},"acceleration":{"x":0.6354284286499023,"y":6.993316650390625,"z":-0.022989660501480103},"speed_mps":3.1356028696834235,"speed_kph":11.288170330860325,"speed_limit_kph":30.0,"collisions_this_frame":[],"waypoint":{"x":-88.73829650878906,"y":12.937416076660156,"z":0.0},"lane_deviation_m":0.13014844059944153,"lane_width":3.5,"goal":{"x":79.05529022216797,"y":69.8227767944336,"z":0.5999999642372131},"fault":{"name":"camera_blackout","severity":1.0},"capture_flags":{"save_rgb":true,"save_depth":false,"video_rgb":true,"video_depth":false}}
{"frame":35133,"timestamp":{"delta_seconds":0.05000000074505806,"elapsed_seconds":335.17965063638985},"control":{"throttle":0.0,"steer":0.016651678830385208,"brake":1.0,"hand_brake":false,"reverse":false,"manual_gear_shift":false,"gear":0},"transform":{"location":{"x":-88.88814544677734,"y":12.790413856506348,"z":0.0006171035347506404},"rotation":{"pitch":0.022444000467658043,"yaw":-174.6998748779297,"roll":0.032714445143938065}},"velocity":{"x":-2.9643099308013916,"y":-0.32701510190963745,"z":0.007333183195441961},"angular_velocity":{"x":0.2887331545352936,"y":-0.29829299449920654,"z":1.1824977397918701},"acceleration":{"x":2.921900749206543,"y":1.3920235633850098,"z":-0.034240901470184326},"speed_mps":2.9823021339730986,"speed_kph":10.736287682303155,"speed_limit_kph":30.0,"collisions_this_frame":[],"waypoint":{"x":-88.8898696899414,"y":12.936994552612305,"z":0.0},"lane_deviation_m":0.1465921252965927,"lane_width":3.5,"goal":{"x":79.05529022216797,"y":69.8227767944336,"z":0.5999999642372131},"fault":{"name":"camera_blackout","severity":1.0},"capture_flags":{"save_rgb":true,"save_depth":false,"video_rgb":true,"video_depth":false}}
{"frame":35134,"timestamp":{"delta_seconds":0.05000000074505806,"elapsed_seconds":335.2296506371349},"control":{"throttle":0.0,"steer":0.016651678830385208,"brake":1.0,"hand_brake":false,"reverse":false,"manual_gear_shift":false,"gear":0},"transform":{"location":{"x":-89.03076934814453,"y":12.775431632995605,"z":0.0010239029070362449},"rotation":{"pitch":0.006830188911408186,"yaw":-174.64599609375,"roll":0.03460913524031639}},"velocity":{"x":-2.778489589691162,"y":-0.29501625895500183,"z":0.005641269497573376},"angular_velocity":{"x":-0.02916705422103405,"y":-0.3014676570892334,"z":1.0361652374267578},"acceleration":{"x":3.71640682220459,"y":0.6399768590927124,"z":-0.03383827209472656},"speed_mps":2.794113601303911,"speed_kph":10.05880896469408,"speed_limit_kph":30.0,"collisions_this_frame":[],"waypoint":{"x":-89.03265380859375,"y":12.93659782409668,"z":0.0},"lane_deviation_m":0.16118046641349792,"lane_width":3.5,"goal":{"x":79.05529022216797,"y":69.8227767944336,"z":0.5999999642372131},"fault":{"name":"camera_blackout","severity":1.0},"capture_flags":{"save_rgb":true,"save_depth":false,"video_rgb":true,"video_depth":false}}
{"frame":35135,"timestamp":{"delta_seconds":0.05000000074505806,"elapsed_seconds":335.27965063787997},"control":{"throttle":0.05000000074505806,"steer":0.473519891500473,"brake":0.0,"hand_brake":false,"reverse":false,"manual_gear_shift":false,"gear":0},"transform":{"location":{"x":-89.16371154785156,"y":12.759218215942383,"z":0.0013387679355219007},"rotation":{"pitch":-0.006379396189004183,"yaw":-174.4767303466797,"roll":0.01682627573609352}},"velocity":{"x":-2.585195302963257,"y":-0.3881213366985321,"z":0.004192065913230181},"angular_velocity":{"x":-0.4793774485588074,"y":-0.2797248661518097,"z":5.380934715270996},"acceleration":{"x":3.8658857345581055,"y":-1.8621015548706055,"z":-0.0289840716868639},"speed_mps":2.6141710923121617,"speed_kph":9.411015932323782,"speed_limit_kph":30.0,"collisions_this_frame":[],"waypoint":{"x":-89.16577911376953,"y":12.936227798461914,"z":0.0},"lane_deviation_m":0.17702671885490417,"lane_width":3.5,"goal":{"x":79.05529022216797,"y":69.8227767944336,"z":0.5999999642372131},"fault":{"name":"camera_blackout","severity":1.0},"capture_flags":{"save_rgb":true,"save_depth":false,"video_rgb":true,"video_depth":false}}
{"frame":35136,"timestamp":{"delta_seconds":0.05000000074505806,"elapsed_seconds":335.329650638625},"control":{"throttle":0.05000000074505806,"steer":0.473519891500473,"brake":0.0,"hand_brake":false,"reverse":false,"manual_gear_shift":false,"gear":0},"transform":{"location":{"x":-89.28875732421875,"y":12.73715591430664,"z":0.0015610122354701161},"rotation":{"pitch":-0.014650754630565643,"yaw":-174.01808166503906,"roll":-0.015411372296512127}},"velocity":{"x":-2.4439823627471924,"y":-0.5638818144798279,"z":0.0030369949527084827},"angular_velocity":{"x":-0.6881111264228821,"y":-0.19338606297969818,"z":11.762417793273926},"acceleration":{"x":2.824258804321289,"y":-3.515209674835205,"z":-0.02310141921043396},"speed_mps":2.5081909244431047,"speed_kph":9.029487327995177,"speed_limit_kph":30.0,"collisions_this_frame":[],"waypoint":{"x":-89.29107666015625,"y":12.935879707336426,"z":0.0},"lane_deviation_m":0.19874346256256104,"lane_width":3.5,"goal":{"x":79.05529022216797,"y":69.8227767944336,"z":0.5999999642372131},"fault":{"name":"camera_blackout","severity":1.0},"capture_flags":{"save_rgb":true,"save_depth":false,"video_rgb":true,"video_depth":false}}
{"frame":35137,"timestamp":{"delta_seconds":0.05000000074505806,"elapsed_seconds":335.3796506393701},"control":{"throttle":0.75,"steer":0.3977876901626587,"brake":0.0,"hand_brake":false,"reverse":false,"manual_gear_shift":false,"gear":0},"transform":{"location":{"x":-89.40765380859375,"y":12.707959175109863,"z":0.0017095565563067794},"rotation":{"pitch":-0.018707886338233948,"yaw":-173.26707458496094,"roll":-0.04644775390625}},"velocity":{"x":-2.3215537071228027,"y":-0.735136866569519,"z":0.0021587179508060217},"angular_velocity":{"x":-0.5249840021133423,"y":-0.12037421762943268,"z":17.065322875976562},"acceleration":{"x":2.448573112487793,"y":-3.4251010417938232,"z":-0.017565540969371796},"speed_mps":2.4351678561668946,"speed_kph":8.76660428220082,"speed_limit_kph":30.0,"collisions_this_frame":[],"waypoint":{"x":-89.41030883789062,"y":12.935548782348633,"z":0.0},"lane_deviation_m":0.2276115119457245,"lane_width":3.5,"goal":{"x":79.05529022216797,"y":69.8227767944336,"z":0.5999999642372131},"fault":{"name":"camera_blackout","severity":1.0},"capture_flags":{"save_rgb":true,"save_depth":false,"video_rgb":true,"video_depth":false}}
{"frame":35138,"timestamp":{"delta_seconds":0.05000000074505806,"elapsed_seconds":335.42965064011514},"control":{"throttle":0.75,"steer":0.3977876901626587,"brake":0.0,"hand_brake":false,"reverse":false,"manual_gear_shift":false,"gear":0},"transform":{"location":{"x":-89.52267456054688,"y":12.672456741333008,"z":0.0017978285904973745},"rotation":{"pitch":-0.018769359216094017,"yaw":-172.31640625,"roll":-0.064910888671875}},"velocity":{"x":-2.278886318206787,"y":-0.8627352714538574,"z":0.0015119361924007535},"angular_velocity":{"x":-0.25826555490493774,"y":0.007776455022394657,"z":19.806703567504883},"acceleration":{"x":0.8533477783203125,"y":-2.5519680976867676,"z":-0.012935634702444077},"speed_mps":2.436726756505886,"speed_kph":8.77221632342119,"speed_limit_kph":30.0,"collisions_this_frame":[],"waypoint":{"x":-89.52574157714844,"y":12.93522834777832,"z":0.0},"lane_deviation_m":0.26279565691947937,"lane_width":3.5,"goal":{"x":79.05529022216797,"y":69.8227767944336,"z":0.5999999642372131},"fault":{"name":"camera_blackout","severity":1.0},"capture_flags":{"save_rgb":true,"save_depth":false,"video_rgb":true,"video_depth":false}}
{"frame":35139,"timestamp":{"delta_seconds":0.05000000074505806,"elapsed_seconds":335.4796506408602},"control":{"throttle":0.75,"steer":0.395354300737381,"brake":0.0,"hand_brake":false,"reverse":false,"manual_gear_shift":false,"gear":0},"transform":{"location":{"x":-89.6388931274414,"y":12.632978439331055,"z":0.0018296431517228484},"rotation":{"pitch":-0.013824301771819592,"yaw":-171.31961059570312,"roll":-0.06738279014825821}},"velocity":{"x":-2.3369717597961426,"y":-0.9346951842308044,"z":0.0010499381460249424},"angular_velocity":{"x":0.026451019570231438,"y":0.13904577493667603,"z":20.05980110168457},"acceleration":{"x":-1.1617088317871094,"y":-1.4391982555389404,"z":-0.009239960461854935},"speed_mps":2.516961103370302,"speed_kph":9.061059972133087,"speed_limit_kph":30.0,"collisions_this_frame":[],"waypoint":{"x":-89.64241790771484,"y":12.934904098510742,"z":0.0},"lane_deviation_m":0.3019517958164215,"lane_width":3.5,"goal":{"x":79.05529022216797,"y":69.8227767944336,"z":0.5999999642372131},"fault":{"name":"camera_blackout","severity":1.0},"capture_flags":{"save_rgb":true,"save_depth":false,"video_rgb":true,"video_depth":false}}
{"frame":35140,"timestamp":{"delta_seconds":0.05000000074505806,"elapsed_seconds":335.52965064160526},"control":{"throttle":0.75,"steer":0.395354300737381,"brake":0.0,"hand_brake":false,"reverse":false,"manual_gear_shift":false,"gear":0},"transform":{"location":{"x":-89.76023864746094,"y":12.589007377624512,"z":0.0018211746355518699},"rotation":{"pitch":-0.00515679270029068,"yaw":-170.26722717285156,"roll":-0.0675659030675888}},"velocity":{"x":-2.458754062652588,"y":-1.047825574874878,"z":0.0007216071826405823},"angular_velocity":{"x":-0.0780729353427887,"y":0.1828685998916626,"z":21.739503860473633},"acceleration":{"x":-2.4356460571289062,"y":-2.2626078128814697,"z":-0.006566619500517845},"speed_mps":2.6727159401420497,"speed_kph":9.621777384511379,"speed_limit_kph":30.0,"collisions_this_frame":[],"waypoint":{"x":-89.76427459716797,"y":12.934565544128418,"z":0.0},"lane_deviation_m":0.34558653831481934,"lane_width":3.5,"goal":{"x":79.05529022216797,"y":69.8227767944336,"z":0.5999999642372131},"fault":{"name":"camera_blackout","severity":1.0},"capture_flags":{"save_rgb":true,"save_depth":false,"video_rgb":true,"video_depth":false}}
{"frame":35141,"timestamp":{"delta_seconds":0.05000000074505806,"elapsed_seconds":335.5796506423503},"control":{"throttle":0.5300614237785339,"steer":0.3936547040939331,"brake":0.0,"hand_brake":false,"reverse":false,"manual_gear_shift":false,"gear":0},"transform":{"location":{"x":-89.88870239257812,"y":12.539979934692383,"z":0.0017926024738699198},"rotation":{"pitch":0.004589886870235205,"yaw":-169.15760803222656,"roll":-0.06726071983575821}},"velocity":{"x":-2.600301742553711,"y":-1.150046944618225,"z":0.0004908752162009478},"angular_velocity":{"x":0.001461460255086422,"y":0.19025009870529175,"z":22.51395034790039},"acceleration":{"x":-2.830953598022461,"y":-2.0444273948669434,"z":-0.004614639095962048},"speed_mps":2.843268782249061,"speed_kph":10.23576761609662,"speed_limit_kph":30.0,"collisions_this_frame":[],"waypoint":{"x":-89.89330291748047,"y":12.93420696258545,"z":0.0},"lane_deviation_m":0.39425796270370483,"lane_width":3.5,"goal":{"x":79.05529022216797,"y":69.8227767944336,"z":0.5999999642372131},"fault":{"name":"camera_blackout","severity":1.0},"capture_flags":{"save_rgb":true,"save_depth":false,"video_rgb":true,"video_depth":false}}
{"frame":35142,"timestamp":{"delta_seconds":0.05000000074505806,"elapsed_seconds":335.6296506430954},"control":{"throttle":0.5300614237785339,"steer":0.3936547040939331,"brake":0.0,"hand_brake":false,"reverse":false,"manual_gear_shift":false,"gear":0},"transform":{"location":{"x":-90.02399444580078,"y":12.485382080078125,"z":0.0017641066806390882},"rotation":{"pitch":0.01282709464430809,"yaw":-167.98150634765625,"roll":-0.0686035081744194}},"velocity":{"x":-2.7271029949188232,"y":-1.2783039808273315,"z":0.00033003807766363025},"angular_velocity":{"x":-0.09521998465061188,"y":0.131397545337677,"z":24.171157836914062},"acceleration":{"x":-2.536025047302246,"y":-2.565140724182129,"z":-0.0032167427707463503},"speed_mps":3.0118353077848314,"speed_kph":10.842607108025394,"speed_limit_kph":30.0,"collisions_this_frame":[],"waypoint":{"x":-90.02922821044922,"y":12.933829307556152,"z":0.0},"lane_deviation_m":0.4484812319278717,"lane_width":3.5,"goal":{"x":79.05529022216797,"y":69.8227767944336,"z":0.5999999642372131},"fault":{"name":"camera_blackout","severity":1.0},"capture_flags":{"save_rgb":true,"save_depth":false,"video_rgb":true,"video_depth":false}}
{"frame":35143,"timestamp":{"delta_seconds":0.05000000074505806,"elapsed_seconds":335.67965064384043},"control":{"throttle":0.0,"steer":0.39034855365753174,"brake":0.0,"hand_brake":false,"reverse":false,"manual_gear_shift":false,"gear":0},"transform":{"location":{"x":-90.16517639160156,"y":12.425376892089844,"z":0.0017441558884456754},"rotation":{"pitch":0.0184346791356802,"yaw":-166.7600860595703,"roll":-0.06872555613517761}},"velocity":{"x":-2.8256893157958984,"y":-1.3790647983551025,"z":0.00022388457728084177},"angular_velocity":{"x":0.016601648181676865,"y":0.08743763715028763,"z":24.584341049194336},"acceleration":{"x":-1.971726417541504,"y":-2.01521635055542,"z":-0.0021230699494481087},"speed_mps":3.1442550592452894,"speed_kph":11.319318213283042,"speed_limit_kph":30.0,"collisions_this_frame":[],"waypoint":{"x":-90.17111206054688,"y":12.93343448638916,"z":0.0},"lane_deviation_m":0.5080952644348145,"lane_width":3.5,"goal":{"x":79.05529022216797,"y":69.8227767944336,"z":0.5999999642372131},"fault":{"name":"camera_blackout","severity":1.0},"capture_flags":{"save_rgb":true,"save_depth":false,"video_rgb":true,"video_depth":false}}
{"frame":35144,"timestamp":{"delta_seconds":0.05000000074505806,"elapsed_seconds":335.7296506445855},"control":{"throttle":0.0,"steer":0.39034855365753174,"brake":0.0,"hand_brake":false,"reverse":false,"manual_gear_shift":false,"gear":0},"transform":{"location":{"x":-90.30955505371094,"y":12.360380172729492,"z":0.0017435455229133368},"rotation":{"pitch":0.020060263574123383,"yaw":-165.50326538085938,"roll":-0.0689391940832138}},"velocity":{"x":-2.8588106632232666,"y":-1.4807603359222412,"z":0.0001503753592260182},"angular_velocity":{"x":-0.019418727606534958,"y":-0.009925156831741333,"z":25.451745986938477},"acceleration":{"x":-0.6624269485473633,"y":-2.0339107513427734,"z":-0.0014701844193041325},"speed_mps":3.219541831256794,"speed_kph":11.590350592524459,"speed_limit_kph":30.0,"collisions_this_frame":[],"waypoint":{"x":-90.31624603271484,"y":12.93303108215332,"z":0.0},"lane_deviation_m":0.5726926326751709,"lane_width":3.5,"goal":{"x":79.05529022216797,"y":69.8227767944336,"z":0.5999999642372131},"fault":{"name":"camera_blackout","severity":1.0},"capture_flags":{"save_rgb":true,"save_depth":false,"video_rgb":true,"video_depth":false}}
{"frame":35145,"timestamp":{"delta_seconds":0.05000000074505806,"elapsed_seconds":335.77965064533055},"control":{"throttle":0.0,"steer":0.004283299203962088,"brake":1.0,"hand_brake":false,"reverse":false,"manual_gear_shift":false,"gear":0},"transform":{"location":{"x":-90.45613861083984,"y":12.29671859741211,"z":0.0017595291137695312},"rotation":{"pitch":0.01830490678548813,"yaw":-164.5081024169922,"roll":-0.038513168692588806}},"velocity":{"x":-2.932365655899048,"y":-1.2907143831253052,"z":0.0001046943652909249},"angular_velocity":{"x":0.9743638038635254,"y":0.20741286873817444,"z":14.954867362976074},"acceleration":{"x":-1.471099853515625,"y":3.8009190559387207,"z":-0.0009136198787018657},"speed_mps":3.203858918501828,"speed_kph":11.533892106606581,"speed_limit_kph":30.0,"collisions_this_frame":[],"waypoint":{"x":-90.46356964111328,"y":12.932621955871582,"z":0.0},"lane_deviation_m":0.6359491944313049,"lane_width":3.5,"goal":{"x":79.05529022216797,"y":69.8227767944336,"z":0.5999999642372131},"fault":{"name":"camera_blackout","severity":1.0},"capture_flags":{"save_rgb":true,"save_depth":false,"video_rgb":true,"video_depth":false}}
{"frame":35146,"timestamp":{"delta_seconds":0.05000000074505806,"elapsed_seconds":335.8296506460756},"control":{"throttle":0.0,"steer":0.004283299203962088,"brake":1.0,"hand_brake":false,"reverse":false,"manual_gear_shift":false,"gear":0},"transform":{"location":{"x":-90.6039810180664,"y":12.244755744934082,"z":0.001798553392291069},"rotation":{"pitch":0.012328490614891052,"yaw":-164.15716552734375,"roll":0.020445790141820908}},"velocity":{"x":-2.933562755584717,"y":-0.971286952495575,"z":6.957053847145289e-05},"angular_velocity":{"x":1.0398725271224976,"y":0.1335299164056778,"z":3.0517404079437256},"acceleration":{"x":-0.023941993713378906,"y":6.388548851013184,"z":-0.0007024765363894403},"speed_mps":3.0901761745703102,"speed_kph":11.124634228453116,"speed_limit_kph":30.0,"collisions_this_frame":[],"waypoint":{"x":-90.61201477050781,"y":12.932209968566895,"z":0.0},"lane_deviation_m":0.6875035166740417,"lane_width":3.5,"goal":{"x":79.05529022216797,"y":69.8227767944336,"z":0.5999999642372131},"fault":{"name":"camera_blackout","severity":1.0},"capture_flags":{"save_rgb":true,"save_depth":false,"video_rgb":true,"video_depth":false}}
{"frame":35147,"timestamp":{"delta_seconds":0.05000000074505806,"elapsed_seconds":335.87965064682066},"control":{"throttle":0.0,"steer":0.041516587138175964,"brake":1.0,"hand_brake":false,"reverse":false,"manual_gear_shift":false,"gear":0},"transform":{"location":{"x":-90.74668884277344,"y":12.199798583984375,"z":0.001858673058450222},"rotation":{"pitch":0.00252716988325119,"yaw":-164.02435302734375,"roll":0.04052005335688591}},"velocity":{"x":-2.7840301990509033,"y":-0.8879029154777527,"z":4.1685103497002274e-05},"angular_velocity":{"x":0.18136970698833466,"y":-0.17626501619815826,"z":2.5807971954345703},"acceleration":{"x":2.9906511306762695,"y":1.6676807403564453,"z":-0.0005577086703851819},"speed_mps":2.9221902296529145,"speed_kph":10.519884826750493,"speed_limit_kph":30.0,"collisions_this_frame":[],"waypoint":{"x":-90.7743148803711,"y":12.911604881286621,"z":0.0},"lane_deviation_m":0.7123445868492126,"lane_width":3.5,"goal":{"x":79.05529022216797,"y":69.8227767944336,"z":0.5999999642372131},"fault":{"name":"camera_blackout","severity":1.0},"capture_flags":{"save_rgb":true,"save_depth":false,"video_rgb":true,"video_depth":false}}
{"frame":35148,"timestamp":{"delta_seconds":0.05000000074505806,"elapsed_seconds":335.9296506475657},"control":{"throttle":0.0,"steer":0.041516587138175964,"brake":1.0,"hand_brake":false,"reverse":false,"manual_gear_shift":false,"gear":0},"transform":{"location":{"x":-90.88050842285156,"y":12.157981872558594,"z":0.0019255446968600154},"rotation":{"pitch":-0.008571887388825417,"yaw":-163.89830017089844,"roll":0.038076724857091904}},"velocity":{"x":-2.59818696975708,"y":-0.826811671257019,"z":3.0059813070693053e-05},"angular_velocity":{"x":-0.05577022582292557,"y":-0.23946252465248108,"z":2.4817237854003906},"acceleration":{"x":3.716864585876465,"y":1.2218248844146729,"z":-0.00023250581580214202},"speed_mps":2.7265716697798164,"speed_kph":9.81565801120734,"speed_limit_kph":30.0,"collisions_this_frame":[],"waypoint":{"x":-90.89566040039062,"y":12.904277801513672,"z":0.0},"lane_deviation_m":0.7464522123336792,"lane_width":3.5,"goal":{"x":79.05529022216797,"y":69.8227767944336,"z":0.5999999642372131},"fault":{"name":"camera_blackout","severity":1.0},"capture_flags":{"save_rgb":true,"save_depth":false,"video_rgb":true,"video_depth":false}}
{"frame":35149,"timestamp":{"delta_seconds":0.05000000074505806,"elapsed_seconds":335.9796506483108},"control":{"throttle":0.06535641103982925,"steer":0.45486772060394287,"brake":0.0,"hand_brake":false,"reverse":false,"manual_gear_shift":false,"gear":0},"transform":{"location":{"x":-91.00420379638672,"y":12.116801261901855,"z":0.0019834137056022882},"rotation":{"pitch":-0.01824343390762806,"yaw":-163.66500854492188,"roll":0.019032180309295654}},"velocity":{"x":-2.3858418464660645,"y":-0.877147912979126,"z":1.8024444216280244e-05},"angular_velocity":{"x":-0.44134005904197693,"y":-0.30561813712120056,"z":6.534617900848389},"acceleration":{"x":4.2469024658203125,"y":-1.0067248344421387,"z":-0.00024070737708825618},"speed_mps":2.5419735989811376,"speed_kph":9.151104956332096,"speed_limit_kph":30.0,"collisions_this_frame":[],"waypoint":{"x":-91.00791931152344,"y":12.896571159362793,"z":0.0},"lane_deviation_m":0.7797812819480896,"lane_width":3.5,"goal":{"x":79.05529022216797,"y":69.8227767944336,"z":0.5999999642372131},"fault":{"name":"camera_blackout","severity":1.0},"capture_flags":{"save_rgb":true,"save_depth":false,"video_rgb":true,"video_depth":false}}
{"frame":35150,"timestamp":{"delta_seconds":0.05000000074505806,"elapsed_seconds":336.02965064905584},"control":{"throttle":0.06535641103982925,"steer":0.45486772060394287,"brake":0.0,"hand_brake":false,"reverse":false,"manual_gear_shift":false,"gear":0},"transform":{"location":{"x":-91.118896484375,"y":12.071558952331543,"z":0.0020165634341537952},"rotation":{"pitch":-0.023741737008094788,"yaw":-163.15525817871094,"roll":-0.013183594681322575}},"velocity":{"x":-2.212076187133789,"y":-1.0181984901428223,"z":1.2102126675017644e-05},"angular_velocity":{"x":-0.6518822908401489,"y":-0.27079662680625916,"z":12.704904556274414},"acceleration":{"x":3.475313186645508,"y":-2.821011543273926,"z":-0.0001184463471872732},"speed_mps":2.4351610261253662,"speed_kph":8.766579694051318,"speed_limit_kph":30.0,"collisions_this_frame":[],"waypoint":{"x":-91.11241149902344,"y":12.888595581054688,"z":0.0},"lane_deviation_m":0.8170648217201233,"lane_width":3.5,"goal":{"x":79.05529022216797,"y":69.8227767944336,"z":0.5999999642372131},"fault":{"name":"camera_blackout","severity":1.0},"capture_flags":{"save_rgb":true,"save_depth":false,"video_rgb":true,"video_depth":false}}
{"frame":35151,"timestamp":{"delta_seconds":0.05000000074505806,"elapsed_seconds":336.0796506498009},"control":{"throttle":0.75,"steer":0.3922783136367798,"brake":0.0,"hand_brake":false,"reverse":false,"manual_gear_shift":false,"gear":0},"transform":{"location":{"x":-91.22628021240234,"y":12.020736694335938,"z":0.0020276259165257215},"rotation":{"pitch":-0.02553807571530342,"yaw":-162.36940002441406,"roll":-0.0432128868997097}},"velocity":{"x":-2.06807017326355,"y":-1.1508903503417969,"z":7.4100494202866685e-06},"angular_velocity":{"x":-0.44871747493743896,"y":-0.15450142323970795,"z":17.37590217590332},"acceleration":{"x":2.880120277404785,"y":-2.653837203979492,"z":-9.384154691360891e-05},"speed_mps":2.3667409744429366,"speed_kph":8.520267507994571,"speed_limit_kph":30.0,"collisions_this_frame":[],"waypoint":{"x":-91.21074676513672,"y":12.88038158416748,"z":0.0},"lane_deviation_m":0.85978764295578,"lane_width":3.5,"goal":{"x":79.05529022216797,"y":69.8227767944336,"z":0.5999999642372131},"fault":{"name":"camera_blackout","severity":1.0},"capture_flags":{"save_rgb":true,"save_depth":false,"video_rgb":true,"video_depth":false}}
{"frame":35152,"timestamp":{"delta_seconds":0.05000000074505806,"elapsed_seconds":336.12965065054595},"control":{"throttle":0.75,"steer":0.3922783136367798,"brake":0.0,"hand_brake":false,"reverse":false,"manual_gear_shift":false,"gear":0},"transform":{"location":{"x":-91.32962799072266,"y":11.965271949768066,"z":0.0020145797170698643},"rotation":{"pitch":-0.02327728271484375,"yaw":-161.43678283691406,"roll":-0.057922348380088806}},"velocity":{"x":-2.024125814437866,"y":-1.247803807258606,"z":5.0163266678282525e-06},"angular_velocity":{"x":-0.21742112934589386,"y":0.016052639111876488,"z":19.232101440429688},"acceleration":{"x":0.8788871765136719,"y":-1.9382691383361816,"z":-4.787445504916832e-05},"speed_mps":2.3778350771464347,"speed_kph":8.560206277727165,"speed_limit_kph":30.0,"collisions_this_frame":[],"waypoint":{"x":-91.30574798583984,"y":12.871792793273926,"z":0.0},"lane_deviation_m":0.906837522983551,"lane_width":3.5,"goal":{"x":79.05529022216797,"y":69.8227767944336,"z":0.5999999642372131},"fault":{"name":"camera_blackout","severity":1.0},"capture_flags":{"save_rgb":true,"save_depth":false,"video_rgb":true,"video_depth":false}}
{"frame":35153,"timestamp":{"delta_seconds":0.05000000074505806,"elapsed_seconds":336.179650651291},"control":{"throttle":0.75,"steer":0.39242634177207947,"brake":0.0,"hand_brake":false,"reverse":false,"manual_gear_shift":false,"gear":0},"transform":{"location":{"x":-91.43391418457031,"y":11.90597915649414,"z":0.0019759749993681908},"rotation":{"pitch":-0.016658831387758255,"yaw":-160.4683380126953,"roll":-0.05984495207667351}},"velocity":{"x":-2.074249744415283,"y":-1.3267502784729004,"z":3.7193296975601697e-06},"angular_velocity":{"x":-0.016073042526841164,"y":0.1653386354446411,"z":19.498472213745117},"acceleration":{"x":-1.0024785995483398,"y":-1.5789294242858887,"z":-2.5939938495866954e-05},"speed_mps":2.462270964708925,"speed_kph":8.86417547295213,"speed_limit_kph":30.0,"collisions_this_frame":[],"waypoint":{"x":-91.551513671875,"y":12.846585273742676,"z":0.0},"lane_deviation_m":0.947931170463562,"lane_width":3.5,"goal":{"x":79.05529022216797,"y":69.8227767944336,"z":0.5999999642372131},"fault":{"name":"camera_blackout","severity":1.0},"capture_flags":{"save_rgb":true,"save_depth":false,"video_rgb":true,"video_depth":false}}
{"frame":35154,"timestamp":{"delta_seconds":0.05000000074505806,"elapsed_seconds":336.22965065203607},"control":{"throttle":0.75,"steer":0.39242634177207947,"brake":0.0,"hand_brake":false,"reverse":false,"manual_gear_shift":false,"gear":0},"transform":{"location":{"x":-91.54265594482422,"y":11.841378211975098,"z":0.0019189071608707309},"rotation":{"pitch":-0.006925811525434256,"yaw":-159.44322204589844,"roll":-0.0609435997903347}},"velocity":{"x":-2.1769659519195557,"y":-1.459862470626831,"z":3.337860107421875e-06},"angular_velocity":{"x":-0.13814206421375275,"y":0.17457903921604156,"z":21.202049255371094},"acceleration":{"x":-2.054324150085449,"y":-2.6622438430786133,"z":-7.629391802765895e-06},"speed_mps":2.621140818226452,"speed_kph":9.436106945615228,"speed_limit_kph":30.0,"collisions_this_frame":[],"waypoint":{"x":-91.65455627441406,"y":12.83473014831543,"z":0.0},"lane_deviation_m":0.9996366500854492,"lane_width":3.5,"goal":{"x":79.05529022216797,"y":69.8227767944336,"z":0.5999999642372131},"fault":{"name":"camera_blackout","severity":1.0},"capture_flags":{"save_rgb":true,"save_depth":false,"video_rgb":true,"video_depth":false}}
{"frame":35155,"timestamp":{"delta_seconds":0.05000000074505806,"elapsed_seconds":336.27965065278113},"control":{"throttle":0.5829955339431763,"steer":0.393398642539978,"brake":0.0,"hand_brake":false,"reverse":false,"manual_gear_shift":false,"gear":0},"transform":{"location":{"x":-91.6575698852539,"y":11.770435333251953,"z":0.0018574142595753074},"rotation":{"pitch":0.0035653584636747837,"yaw":-158.355224609375,"roll":-0.0621643029153347}},"velocity":{"x":-2.299835681915283,"y":-1.5898982286453247,"z":-2.2792814888816793e-06},"angular_velocity":{"x":-0.06755900382995605,"y":0.18931631743907928,"z":22.128889083862305},"acceleration":{"x":-2.457394599914551,"y":-2.600715160369873,"z":-0.00011234283010708168},"speed_mps":2.7958935139352987,"speed_kph":10.065216650167075,"speed_limit_kph":30.0,"collisions_this_frame":[],"waypoint":{"x":-91.763671875,"y":12.821343421936035,"z":0.0},"lane_deviation_m":1.0562522411346436,"lane_width":3.5,"goal":{"x":79.05529022216797,"y":69.8227767944336,"z":0.5999999642372131},"fault":{"name":"camera_blackout","severity":1.0},"capture_flags":{"save_rgb":true,"save_depth":false,"video_rgb":true,"video_depth":false}}
{"frame":35156,"timestamp":{"delta_seconds":0.05000000074505806,"elapsed_seconds":336.3296506535262},"control":{"throttle":0.5829955339431763,"steer":0.393398642539978,"brake":0.0,"hand_brake":false,"reverse":false,"manual_gear_shift":false,"gear":0},"transform":{"location":{"x":-91.77857208251953,"y":11.692526817321777,"z":0.0018046187469735742},"rotation":{"pitch":0.012615358456969261,"yaw":-157.19505310058594,"roll":-0.0649108737707138}},"velocity":{"x":-2.411670446395874,"y":-1.7461135387420654,"z":-9.53674295089968e-09},"angular_velocity":{"x":-0.15025988221168518,"y":0.11746499687433243,"z":23.900346755981445},"acceleration":{"x":-2.2366952896118164,"y":-3.1243062019348145,"z":4.539489600574598e-05},"speed_mps":2.9774262093623096,"speed_kph":10.718734353704315,"speed_limit_kph":30.0,"collisions_this_frame":[],"waypoint":{"x":-91.87884521484375,"y":12.806285858154297,"z":0.0},"lane_deviation_m":1.1182652711868286,"lane_width":3.5,"goal":{"x":79.05529022216797,"y":69.8227767944336,"z":0.5999999642372131},"fault":{"name":"camera_blackout","severity":1.0},"capture_flags":{"save_rgb":true,"save_depth":false,"video_rgb":true,"video_depth":false}}
{"frame":35157,"timestamp":{"delta_seconds":0.05000000074505806,"elapsed_seconds":336.37965065427125},"control":{"throttle":0.0,"steer":0.39459899067878723,"brake":0.0,"hand_brake":false,"reverse":false,"manual_gear_shift":false,"gear":0},"transform":{"location":{"x":-91.90486145019531,"y":11.60771369934082,"z":0.0017663573380559683},"rotation":{"pitch":0.019104037433862686,"yaw":-155.97476196289062,"roll":-0.0671081468462944}},"velocity":{"x":-2.4993770122528076,"y":-1.877224326133728,"z":-6.866454782539222e-07},"angular_velocity":{"x":-0.042017921805381775,"y":0.08944956958293915,"z":24.66985321044922},"acceleration":{"x":-1.7541313171386719,"y":-2.622215747833252,"z":-1.354217511106981e-05},"speed_mps":3.1258369471241574,"speed_kph":11.253013009646967,"speed_limit_kph":30.0,"collisions_this_frame":[],"waypoint":{"x":-91.99932861328125,"y":12.789506912231445,"z":0.0},"lane_deviation_m":1.1855641603469849,"lane_width":3.5,"goal":{"x":79.05529022216797,"y":69.8227767944336,"z":0.5999999642372131},"fault":{"name":"camera_blackout","severity":1.0},"capture_flags":{"save_rgb":true,"save_depth":false,"video_rgb":true,"video_depth":false}}
{"frame":35158,"timestamp":{"delta_seconds":0.05000000074505806,"elapsed_seconds":336.4296506550163},"control":{"throttle":0.0,"steer":0.39459899067878723,"brake":0.0,"hand_brake":false,"reverse":false,"manual_gear_shift":false,"gear":0},"transform":{"location":{"x":-92.03396606445312,"y":11.516886711120605,"z":0.0017526245210319757},"rotation":{"pitch":0.021460453048348427,"yaw":-154.70936584472656,"roll":-0.0686950609087944}},"velocity":{"x":-2.5227906703948975,"y":-1.9926261901855469,"z":8.010864007701457e-07},"angular_velocity":{"x":-0.04157577082514763,"y":-0.011922730132937431,"z":25.668386459350586},"acceleration":{"x":-0.4682731628417969,"y":-2.308037281036377,"z":2.9754637580481358e-05},"speed_mps":3.21481444261493,"speed_kph":11.573331993413749,"speed_limit_kph":30.0,"collisions_this_frame":[],"waypoint":{"x":-92.12284088134766,"y":12.77121353149414,"z":0.0},"lane_deviation_m":1.2574726343154907,"lane_width":3.5,"goal":{"x":79.05529022216797,"y":69.8227767944336,"z":0.5999999642372131},"fault":{"name":"camera_blackout","severity":1.0},"capture_flags":{"save_rgb":true,"save_depth":false,"video_rgb":true,"video_depth":false}}
{"frame":35159,"timestamp":{"delta_seconds":0.05000000074505806,"elapsed_seconds":336.47965065576136},"control":{"throttle":0.0,"steer":0.03030327707529068,"brake":1.0,"hand_brake":false,"reverse":false,"manual_gear_shift":false,"gear":0},"transform":{"location":{"x":-92.16584777832031,"y":11.426642417907715,"z":0.001760520855896175},"rotation":{"pitch":0.020060263574123383,"yaw":-153.70150756835938,"roll":-0.0390014611184597}},"velocity":{"x":-2.6370766162872314,"y":-1.8255637884140015,"z":1.8787383169183158e-06},"angular_velocity":{"x":0.9076402187347412,"y":0.3863835334777832,"z":15.226824760437012},"acceleration":{"x":-2.2857189178466797,"y":3.341248035430908,"z":2.1553038095589727e-05},"speed_mps":3.2073129291886886,"speed_kph":11.54632654507928,"speed_limit_kph":30.0,"collisions_this_frame":[],"waypoint":{"x":-92.4175033569336,"y":12.723074913024902,"z":0.0},"lane_deviation_m":1.320632815361023,"lane_width":3.5,"goal":{"x":79.05529022216797,"y":69.8227767944336,"z":0.5999999642372131},"fault":{"name":"camera_blackout","severity":1.0},"capture_flags":{"save_rgb":true,"save_depth":false,"video_rgb":true,"video_depth":false}}
{"frame":35160,"timestamp":{"delta_seconds":0.05000000074505806,"elapsed_seconds":336.5296506565064},"control":{"throttle":0.0,"steer":0.03030327707529068,"brake":1.0,"hand_brake":false,"reverse":false,"manual_gear_shift":false,"gear":0},"transform":{"location":{"x":-92.30130767822266,"y":11.347027778625488,"z":0.0017948913155123591},"rotation":{"pitch":0.01422728318721056,"yaw":-153.31459045410156,"roll":0.017206063494086266}},"velocity":{"x":-2.6937336921691895,"y":-1.539318323135376,"z":4.138946223974926e-06},"angular_velocity":{"x":0.9058718085289001,"y":0.2832244634628296,"z":4.327846050262451},"acceleration":{"x":-1.1331415176391602,"y":5.72490930557251,"z":4.5204160414868966e-05},"speed_mps":3.102531563785434,"speed_kph":11.169113629627562,"speed_limit_kph":30.0,"collisions_this_frame":[],"waypoint":{"x":-92.54766082763672,"y":12.699779510498047,"z":0.0},"lane_deviation_m":1.3750019073486328,"lane_width":3.5,"goal":{"x":79.05529022216797,"y":69.8227767944336,"z":0.5999999642372131},"fault":{"name":"camera_blackout","severity":1.0},"capture_flags":{"save_rgb":true,"save_depth":false,"video_rgb":true,"video_depth":false}}
{"frame":35161,"timestamp":{"delta_seconds":0.05000000074505806,"elapsed_seconds":336.5796506572515},"control":{"throttle":0.0,"steer":0.06278747320175171,"brake":1.0,"hand_brake":false,"reverse":false,"manual_gear_shift":false,"gear":0},"transform":{"location":{"x":-92.43286895751953,"y":11.274380683898926,"z":0.0018532943213358521},"rotation":{"pitch":0.004309849347919226,"yaw":-153.11351013183594,"roll":0.03501494601368904}},"velocity":{"x":-2.561217784881592,"y":-1.437212347984314,"z":-9.346007914246002e-07},"angular_velocity":{"x":0.20294198393821716,"y":-0.14761555194854736,"z":3.90608286857605},"acceleration":{"x":2.650318145751953,"y":2.0421195030212402,"z":-0.00010147094144485891},"speed_mps":2.9369058334909592,"speed_kph":10.572861000567453,"speed_limit_kph":30.0,"collisions_this_frame":[],"waypoint":{"x":-92.67305755615234,"y":12.676155090332031,"z":0.0},"lane_deviation_m":1.4222044944763184,"lane_width":3.5,"goal":{"x":79.05529022216797,"y":69.8227767944336,"z":0.5999999642372131},"fault":{"name":"camera_blackout","severity":1.0},"capture_flags":{"save_rgb":true,"save_depth":false,"video_rgb":true,"video_depth":false}}
{"frame":35162,"timestamp":{"delta_seconds":0.05000000074505806,"elapsed_seconds":336.62965065799654},"control":{"throttle":0.0,"steer":0.06278747320175171,"brake":1.0,"hand_brake":false,"reverse":false,"manual_gear_shift":false,"gear":0},"transform":{"location":{"x":-92.5562744140625,"y":11.206317901611328,"z":0.0019198989029973745},"rotation":{"pitch":-0.007048754952847958,"yaw":-152.9227294921875,"roll":0.03278543800115585}},"velocity":{"x":-2.3898684978485107,"y":-1.3449020385742188,"z":-3.814697180359872e-08},"angular_velocity":{"x":0.002104018349200487,"y":-0.24681687355041504,"z":3.7558929920196533},"acceleration":{"x":3.426985740661621,"y":1.8462061882019043,"z":1.792907642084174e-05},"speed_mps":2.7423043103145552,"speed_kph":9.872295517132399,"speed_limit_kph":30.0,"collisions_this_frame":[],"waypoint":{"x":-92.79046630859375,"y":12.652974128723145,"z":0.0},"lane_deviation_m":1.4654909372329712,"lane_width":3.5,"goal":{"x":79.05529022216797,"y":69.8227767944336,"z":0.5999999642372131},"fault":{"name":"camera_blackout","severity":1.0},"capture_flags":{"save_rgb":true,"save_depth":false,"video_rgb":true,"video_depth":false}}
{"frame":35163,"timestamp":{"delta_seconds":0.05000000074505806,"elapsed_seconds":336.6796506587416},"control":{"throttle":0.04354163259267807,"steer":0.45586439967155457,"brake":0.0,"hand_brake":false,"reverse":false,"manual_gear_shift":false,"gear":0},"transform":{"location":{"x":-92.66981506347656,"y":11.140778541564941,"z":0.0019788360223174095},"rotation":{"pitch":-0.017150603234767914,"yaw":-152.6299285888672,"roll":0.014705781824886799}},"velocity":{"x":-2.1692302227020264,"y":-1.3518399000167847,"z":1.697540255918284e-06},"angular_velocity":{"x":-0.3497087061405182,"y":-0.3818075954914093,"z":7.66999626159668},"acceleration":{"x":4.4127655029296875,"y":-0.13875722885131836,"z":3.4713742934400216e-05},"speed_mps":2.5559794354345176,"speed_kph":9.201525967564264,"speed_limit_kph":30.0,"collisions_this_frame":[],"waypoint":{"x":-92.89881896972656,"y":12.630669593811035,"z":0.0},"lane_deviation_m":1.5073891878128052,"lane_width":3.5,"goal":{"x":79.05529022216797,"y":69.8227767944336,"z":0.5999999642372131},"fault":{"name":"camera_blackout","severity":1.0},"capture_flags":{"save_rgb":true,"save_depth":false,"video_rgb":true,"video_depth":false}}
{"frame":35164,"timestamp":{"delta_seconds":0.05000000074505806,"elapsed_seconds":336.72965065948665},"control":{"throttle":0.04354163259267807,"steer":0.45586439967155457,"brake":0.0,"hand_brake":false,"reverse":false,"manual_gear_shift":false,"gear":0},"transform":{"location":{"x":-92.7734375,"y":11.07308578491211,"z":0.0020145797170698643},"rotation":{"pitch":-0.02319532074034214,"yaw":-152.0647735595703,"roll":-0.01657104305922985}},"velocity":{"x":-1.964709997177124,"y":-1.4540554285049438,"z":2.670288040462765e-06},"angular_velocity":{"x":-0.5686537027359009,"y":-0.3945592939853668,"z":13.80016040802002},"acceleration":{"x":4.090404510498047,"y":-2.0443105697631836,"z":1.945495569088962e-05},"speed_mps":2.4442509204620464,"speed_kph":8.799303313663367,"speed_limit_kph":30.0,"collisions_this_frame":[],"waypoint":{"x":-92.9989013671875,"y":12.609283447265625,"z":0.0},"lane_deviation_m":1.5526561737060547,"lane_width":3.5,"goal":{"x":79.05529022216797,"y":69.8227767944336,"z":0.5999999642372131},"fault":{"name":"camera_blackout","severity":1.0},"capture_flags":{"save_rgb":true,"save_depth":false,"video_rgb":true,"video_depth":false}}
