{"frame":12266,"timestamp":{"delta_seconds":0.03383704274892807,"elapsed_seconds":123.71697328332812},"control":{"throttle":0.75,"steer":-9.667819540482014e-07,"brake":0.0,"hand_brake":false,"reverse":false,"manual_gear_shift":false,"gear":0},"transform":{"location":{"x":19.35021209716797,"y":137.4599609375,"z":-0.06545387208461761},"rotation":{"pitch":0.0,"yaw":0.3204479515552521,"roll":0.0}},"velocity":{"x":-1.0592003663045801e-10,"y":2.7283576287118194e-08,"z":0.1384095549583435},"angular_velocity":{"x":-2.316635254828725e-05,"y":-3.320993187116983e-07,"z":-9.799979716618168e-10},"acceleration":{"x":9.12471477931831e-07,"y":6.87189128711907e-07,"z":4.845433235168457},"speed_mps":0.1384095549583462,"speed_kph":0.49827439785004635,"speed_limit_kph":30.0,"collisions_this_frame":[],"waypoint":{"x":19.35021209716797,"y":137.4599609375,"z":0.0},"lane_deviation_m":0.06545387208461761,"lane_width":3.5,"goal":{"x":99.43485260009766,"y":-19.65771484375,"z":0.5999999642372131},"fault":{"name":"camera_blackout","severity":0.8},"capture_flags":{"save_rgb":true,"save_depth":false,"video_rgb":true,"video_depth":false}}
{"frame":12267,"timestamp":{"delta_seconds":0.03402388095855713,"elapsed_seconds":123.75099716428667},"control":{"throttle":0.75,"steer":-9.692608955447213e-07,"brake":0.0,"hand_brake":false,"reverse":false,"manual_gear_shift":false,"gear":0},"transform":{"location":{"x":19.35021209716797,"y":137.4599609375,"z":-0.05892001837491989},"rotation":{"pitch":0.0,"yaw":0.3204479515552521,"roll":0.0}},"velocity":{"x":3.0525291183636227e-09,"y":1.8077437857755285e-07,"z":0.21579378843307495},"angular_velocity":{"x":1.1189297765668016e-05,"y":6.337999366223812e-06,"z":-1.4086874999819088e-09},"acceleration":{"x":9.283035495855074e-08,"y":4.511266524787061e-06,"z":2.274409294128418},"speed_mps":0.2157937884331507,"speed_kph":0.7768576383593425,"speed_limit_kph":30.0,"collisions_this_frame":[],"waypoint":{"x":19.35021209716797,"y":137.4599609375,"z":0.0},"lane_deviation_m":0.05892001837491989,"lane_width":3.5,"goal":{"x":99.43485260009766,"y":-19.65771484375,"z":0.5999999642372131},"fault":{"name":"camera_blackout","severity":0.8},"capture_flags":{"save_rgb":true,"save_depth":false,"video_rgb":true,"video_depth":false}}
{"frame":12268,"timestamp":{"delta_seconds":0.03590421378612518,"elapsed_seconds":123.7869013780728},"control":{"throttle":0.75,"steer":-9.705003094495623e-07,"brake":0.0,"hand_brake":false,"reverse":false,"manual_gear_shift":false,"gear":0},"transform":{"location":{"x":19.35021209716797,"y":137.4599609375,"z":-0.050481222569942474},"rotation":{"pitch":0.0,"yaw":0.3204479515552521,"roll":0.0}},"velocity":{"x":5.822654802756233e-09,"y":4.2328431959504087e-07,"z":0.24115242063999176},"angular_velocity":{"x":2.9774693757644854e-05,"y":1.1432643987063784e-05,"z":-3.715593832609443e-09},"acceleration":{"x":7.71532242538342e-08,"y":6.7543587647378445e-06,"z":0.7062857151031494},"speed_mps":0.24115242064036332,"speed_kph":0.8681487143053079,"speed_limit_kph":30.0,"collisions_this_frame":[],"waypoint":{"x":19.35021209716797,"y":137.4599609375,"z":0.0},"lane_deviation_m":0.050481222569942474,"lane_width":3.5,"goal":{"x":99.43485260009766,"y":-19.65771484375,"z":0.5999999642372131},"fault":{"name":"camera_blackout","severity":0.8},"capture_flags":{"save_rgb":true,"save_depth":false,"video_rgb":true,"video_depth":false}}
{"frame":12269,"timestamp":{"delta_seconds":0.03172460198402405,"elapsed_seconds":123.81862598005682},"control":{"throttle":0.75,"steer":-9.717398370412411e-07,"brake":0.0,"hand_brake":false,"reverse":false,"manual_gear_shift":false,"gear":0},"transform":{"location":{"x":19.35021209716797,"y":137.4599609375,"z":-0.04288974776864052},"rotation":{"pitch":0.0,"yaw":0.3204479515552521,"roll":0.0}},"velocity":{"x":1.9637646175851842e-08,"y":2.2641464170192194e-07,"z":0.23612043261528015},"angular_velocity":{"x":-9.740536916069686e-05,"y":2.872618097171653e-05,"z":1.2363710055751653e-10},"acceleration":{"x":4.354662053174252e-07,"y":-6.205583758855937e-06,"z":-0.15861469507217407},"speed_mps":0.2361204326153895,"speed_kph":0.8500335574154022,"speed_limit_kph":30.0,"collisions_this_frame":[],"waypoint":{"x":19.35021209716797,"y":137.4599609375,"z":0.0},"lane_deviation_m":0.04288974776864052,"lane_width":3.5,"goal":{"x":99.43485260009766,"y":-19.65771484375,"z":0.5999999642372131},"fault":{"name":"camera_blackout","severity":0.8},"capture_flags":{"save_rgb":true,"save_depth":false,"video_rgb":true,"video_depth":false}}
{"frame":12270,"timestamp":{"delta_seconds":0.02805192768573761,"elapsed_seconds":123.84667790774256},"control":{"throttle":0.75,"steer":-9.729792509460822e-07,"brake":0.0,"hand_brake":false,"reverse":false,"manual_gear_shift":false,"gear":0},"transform":{"location":{"x":19.35021209716797,"y":137.4599609375,"z":-0.03653530031442642},"rotation":{"pitch":0.0,"yaw":0.3204479515552521,"roll":0.0}},"velocity":{"x":3.051298591572049e-08,"y":2.6874590730585624e-07,"z":0.22073762118816376},"angular_velocity":{"x":-1.042836629494559e-05,"y":4.265364623279311e-05,"z":1.1830024737591316e-09},"acceleration":{"x":3.8768601484662213e-07,"y":1.5090323586264276e-06,"z":-0.5483691692352295},"speed_mps":0.22073762118832946,"speed_kph":0.7946554362779861,"speed_limit_kph":30.0,"collisions_this_frame":[],"waypoint":{"x":19.35021209716797,"y":137.4599609375,"z":0.0},"lane_deviation_m":0.03653530031442642,"lane_width":3.5,"goal":{"x":99.43485260009766,"y":-19.65771484375,"z":0.5999999642372131},"fault":{"name":"camera_blackout","severity":0.8},"capture_flags":{"save_rgb":true,"save_depth":false,"video_rgb":true,"video_depth":false}}
{"frame":12271,"timestamp":{"delta_seconds":0.028898298740386963,"elapsed_seconds":123.87557620648295},"control":{"throttle":0.75,"steer":-9.74218778537761e-07,"brake":0.0,"hand_brake":false,"reverse":false,"manual_gear_shift":false,"gear":0},"transform":{"location":{"x":19.35021209716797,"y":137.4599609375,"z":-0.030566824600100517},"rotation":{"pitch":0.0,"yaw":0.3204479515552521,"roll":0.0}},"velocity":{"x":-5.590806928523762e-09,"y":1.0788358650870578e-07,"z":0.19904735684394836},"angular_velocity":{"x":-8.408253052039072e-05,"y":-5.284130111249397e-06,"z":-2.1873018951623635e-09},"acceleration":{"x":-1.2493397889556945e-06,"y":-5.566498202824732e-06,"z":-0.7505723834037781},"speed_mps":0.19904735684397767,"speed_kph":0.7165704846383196,"speed_limit_kph":30.0,"collisions_this_frame":[],"waypoint":{"x":19.35021209716797,"y":137.4599609375,"z":0.0},"lane_deviation_m":0.030566824600100517,"lane_width":3.5,"goal":{"x":99.43485260009766,"y":-19.65771484375,"z":0.5999999642372131},"fault":{"name":"camera_blackout","severity":0.8},"capture_flags":{"save_rgb":true,"save_depth":false,"video_rgb":true,"video_depth":false}}
{"frame":12272,"timestamp":{"delta_seconds":0.03581957519054413,"elapsed_seconds":123.91139578167349},"control":{"throttle":0.75,"steer":-9.75458192442602e-07,"brake":0.0,"hand_brake":false,"reverse":false,"manual_gear_shift":false,"gear":0},"transform":{"location":{"x":19.35021209716797,"y":137.4599609375,"z":-0.024092864245176315},"rotation":{"pitch":0.0,"yaw":0.3204479515552521,"roll":0.0}},"velocity":{"x":-1.146376682470418e-08,"y":-7.405661506254546e-08,"z":0.1695725917816162},"angular_velocity":{"x":-3.804448351729661e-05,"y":-1.2741271348204464e-05,"z":-2.5007993453840527e-09},"acceleration":{"x":-1.6395951263348252e-07,"y":-5.07935146742966e-06,"z":-0.8228675127029419},"speed_mps":0.16957259178163278,"speed_kph":0.6104613304138781,"speed_limit_kph":30.0,"collisions_this_frame":[],"waypoint":{"x":19.35021209716797,"y":137.4599609375,"z":0.0},"lane_deviation_m":0.024092864245176315,"lane_width":3.5,"goal":{"x":99.43485260009766,"y":-19.65771484375,"z":0.5999999642372131},"fault":{"name":"camera_blackout","severity":0.8},"capture_flags":{"save_rgb":true,"save_depth":false,"video_rgb":true,"video_depth":false}}
{"frame":12273,"timestamp":{"delta_seconds":0.027303427457809448,"elapsed_seconds":123.9386992091313},"control":{"throttle":0.75,"steer":-9.766977200342808e-07,"brake":0.0,"hand_brake":false,"reverse":false,"manual_gear_shift":false,"gear":0},"transform":{"location":{"x":19.35021209716797,"y":137.4599609375,"z":-0.019870299845933914},"rotation":{"pitch":0.0,"yaw":0.3204479515552521,"roll":0.0}},"velocity":{"x":-4.874546100097632e-09,"y":1.101372788525623e-07,"z":0.14733362197875977},"angular_velocity":{"x":-4.4016156607540324e-05,"y":-6.337424110824941e-06,"z":-5.140531333935883e-10},"acceleration":{"x":2.413331117168127e-07,"y":6.746181952621555e-06,"z":-0.8145120143890381},"speed_mps":0.147333621978801,"speed_kph":0.5304010391236836,"speed_limit_kph":30.0,"collisions_this_frame":[],"waypoint":{"x":19.35021209716797,"y":137.4599609375,"z":0.0},"lane_deviation_m":0.019870299845933914,"lane_width":3.5,"goal":{"x":99.43485260009766,"y":-19.65771484375,"z":0.5999999642372131},"fault":{"name":"camera_blackout","severity":0.8},"capture_flags":{"save_rgb":true,"save_depth":false,"video_rgb":true,"video_depth":false}}
{"frame":12274,"timestamp":{"delta_seconds":0.029689569026231766,"elapsed_seconds":123.96838877815753},"control":{"throttle":0.75,"steer":-9.779371339391218e-07,"brake":0.0,"hand_brake":false,"reverse":false,"manual_gear_shift":false,"gear":0},"transform":{"location":{"x":19.35021209716797,"y":137.4599609375,"z":-0.015955200418829918},"rotation":{"pitch":0.0,"yaw":0.3204479515552521,"roll":0.0}},"velocity":{"x":4.895820970851616e-10,"y":4.994886282361222e-08,"z":0.12458205223083496},"angular_velocity":{"x":-4.968126449966803e-05,"y":1.944632685990655e-06,"z":-3.196870768107374e-09},"acceleration":{"x":1.8067382256958808e-07,"y":-2.0272577785362955e-06,"z":-0.766315221786499},"speed_mps":0.12458205223084497,"speed_kph":0.4484953880310419,"speed_limit_kph":30.0,"collisions_this_frame":[],"waypoint":{"x":19.35021209716797,"y":137.4599609375,"z":0.0},"lane_deviation_m":0.015955200418829918,"lane_width":3.5,"goal":{"x":99.43485260009766,"y":-19.65771484375,"z":0.5999999642372131},"fault":{"name":"camera_blackout","severity":0.8},"capture_flags":{"save_rgb":true,"save_depth":false,"video_rgb":true,"video_depth":false}}
{"frame":12275,"timestamp":{"delta_seconds":0.026933394372463226,"elapsed_seconds":123.99532217253},"control":{"throttle":0.75,"steer":-9.79176547843963e-07,"brake":0.0,"hand_brake":false,"reverse":false,"manual_gear_shift":false,"gear":0},"transform":{"location":{"x":19.35021209716797,"y":137.4599609375,"z":-0.01292087510228157},"rotation":{"pitch":0.0,"yaw":0.3204479515552521,"roll":0.0}},"velocity":{"x":5.8835811778124025e-09,"y":-1.801200539830461e-07,"z":0.10660093277692795},"angular_velocity":{"x":-5.524892549146898e-05,"y":7.758531864965335e-06,"z":-3.1240560138812157e-10},"acceleration":{"x":2.0027178493364772e-07,"y":-8.542143405065872e-06,"z":-0.6676142811775208},"speed_mps":0.10660093277708028,"speed_kph":0.383763357997489,"speed_limit_kph":30.0,"collisions_this_frame":[],"waypoint":{"x":19.35021209716797,"y":137.4599609375,"z":0.0},"lane_deviation_m":0.01292087510228157,"lane_width":3.5,"goal":{"x":99.43485260009766,"y":-19.65771484375,"z":0.5999999642372131},"fault":{"name":"camera_blackout","severity":0.8},"capture_flags":{"save_rgb":true,"save_depth":false,"video_rgb":true,"video_depth":false}}
{"frame":12276,"timestamp":{"delta_seconds":0.029004978016018867,"elapsed_seconds":124.02432715054601},"control":{"throttle":0.75,"steer":-9.79176547843963e-07,"brake":0.0,"hand_brake":false,"reverse":false,"manual_gear_shift":false,"gear":0},"transform":{"location":{"x":19.35021209716797,"y":137.4599609375,"z":-0.01018802635371685},"rotation":{"pitch":0.0,"yaw":0.3204479515552521,"roll":0.0}},"velocity":{"x":1.0803464789432837e-08,"y":-1.1905282093493952e-07,"z":0.08856699615716934},"angular_velocity":{"x":-5.8865876781055704e-05,"y":1.2697089914581738e-05,"z":-6.845888855799842e-10},"acceleration":{"x":1.6962204085757548e-07,"y":2.1054052012914326e-06,"z":-0.6217531561851501},"speed_mps":0.08856699615725001,"speed_kph":0.3188411861661001,"speed_limit_kph":30.0,"collisions_this_frame":[],"waypoint":{"x":19.35021209716797,"y":137.4599609375,"z":0.0},"lane_deviation_m":0.01018802635371685,"lane_width":3.5,"goal":{"x":99.43485260009766,"y":-19.65771484375,"z":0.5999999642372131},"fault":{"name":"camera_blackout","severity":0.8},"capture_flags":{"save_rgb":true,"save_depth":false,"video_rgb":true,"video_depth":false}}
{"frame":12277,"timestamp":{"delta_seconds":0.030526578426361084,"elapsed_seconds":124.05485372897238},"control":{"throttle":0.75,"steer":-9.79176547843963e-07,"brake":0.0,"hand_brake":false,"reverse":false,"manual_gear_shift":false,"gear":0},"transform":{"location":{"x":19.35021209716797,"y":137.4599609375,"z":-0.007760238368064165},"rotation":{"pitch":0.0,"yaw":0.3204479515552521,"roll":0.0}},"velocity":{"x":1.2021906137249516e-08,"y":5.8061917940221974e-08,"z":0.07351034134626389},"angular_velocity":{"x":-6.246502744033933e-05,"y":1.6121297448989935e-05,"z":-9.624119279294518e-10},"acceleration":{"x":3.991411290371616e-08,"y":5.801984571007779e-06,"z":-0.49323099851608276},"speed_mps":0.0735103413462878,"speed_kph":0.2646372288466361,"speed_limit_kph":30.0,"collisions_this_frame":[],"waypoint":{"x":19.35021209716797,"y":137.4599609375,"z":0.0},"lane_deviation_m":0.007760238368064165,"lane_width":3.5,"goal":{"x":99.43485260009766,"y":-19.65771484375,"z":0.5999999642372131},"fault":{"name":"camera_blackout","severity":0.8},"capture_flags":{"save_rgb":true,"save_depth":false,"video_rgb":true,"video_depth":false}}
{"frame":12278,"timestamp":{"delta_seconds":0.030831824988126755,"elapsed_seconds":124.0856855539605},"control":{"throttle":0.75,"steer":-9.79176547843963e-07,"brake":0.0,"hand_brake":false,"reverse":false,"manual_gear_shift":false,"gear":0},"transform":{"location":{"x":19.35021209716797,"y":137.4599609375,"z":-0.005772361531853676},"rotation":{"pitch":0.0,"yaw":0.3204479515552521,"roll":0.0}},"velocity":{"x":1.680975891815706e-08,"y":-3.6241976886230987e-07,"z":0.05940892547369003},"angular_velocity":{"x":3.529216701281257e-05,"y":2.0083529307157733e-05,"z":4.127513886231782e-09},"acceleration":{"x":1.552892996414812e-07,"y":-1.3637910342367832e-05,"z":-0.45736557245254517},"speed_mps":0.05940892547479787,"speed_kph":0.21387213170927233,"speed_limit_kph":30.0,"collisions_this_frame":[],"waypoint":{"x":19.35021209716797,"y":137.4599609375,"z":0.0},"lane_deviation_m":0.005772361531853676,"lane_width":3.5,"goal":{"x":99.43485260009766,"y":-19.65771484375,"z":0.5999999642372131},"fault":{"name":"camera_blackout","severity":0.8},"capture_flags":{"save_rgb":true,"save_depth":false,"video_rgb":true,"video_depth":false}}
{"frame":12279,"timestamp":{"delta_seconds":0.030626650899648666,"elapsed_seconds":124.11631220486015},"control":{"throttle":0.75,"steer":-9.79176547843963e-07,"brake":0.0,"hand_brake":false,"reverse":false,"manual_gear_shift":false,"gear":0},"transform":{"location":{"x":19.35021209716797,"y":137.4599609375,"z":-0.004178543109446764},"rotation":{"pitch":0.0,"yaw":0.3204479515552521,"roll":0.0}},"velocity":{"x":1.2107010949335972e-09,"y":8.260892059297475e-08,"z":0.047872092574834824},"angular_velocity":{"x":-1.0675684279704e-05,"y":3.377386519787251e-06,"z":9.312624005275438e-10},"acceleration":{"x":-5.093295385449892e-07,"y":1.4530765838571824e-05,"z":-0.37669262290000916},"speed_mps":0.047872092574906114,"speed_kph":0.172339533269662,"speed_limit_kph":30.0,"collisions_this_frame":[],"waypoint":{"x":19.35021209716797,"y":137.4599609375,"z":0.0},"lane_deviation_m":0.004178543109446764,"lane_width":3.5,"goal":{"x":99.43485260009766,"y":-19.65771484375,"z":0.5999999642372131},"fault":{"name":"camera_blackout","severity":0.8},"capture_flags":{"save_rgb":true,"save_depth":false,"video_rgb":true,"video_depth":false}}
{"frame":12280,"timestamp":{"delta_seconds":0.031171981245279312,"elapsed_seconds":124.14748418610543},"control":{"throttle":0.75,"steer":-9.79176547843963e-07,"brake":0.0,"hand_brake":false,"reverse":false,"manual_gear_shift":false,"gear":0},"transform":{"location":{"x":19.35021209716797,"y":137.4599609375,"z":-0.0028817749116569757},"rotation":{"pitch":0.0,"yaw":0.3204479515552521,"roll":0.0}},"velocity":{"x":-1.1103888475361146e-08,"y":-3.02558760267857e-08,"z":0.038152266293764114},"angular_velocity":{"x":1.2769525710609742e-05,"y":-1.3847601621819194e-05,"z":3.460789876896797e-09},"acceleration":{"x":-3.9505312088294886e-07,"y":-3.6207127322995802e-06,"z":-0.3118129074573517},"speed_mps":0.03815226629377773,"speed_kph":0.13734815865759983,"speed_limit_kph":30.0,"collisions_this_frame":[],"waypoint":{"x":19.35021209716797,"y":137.4599609375,"z":0.0},"lane_deviation_m":0.0028817749116569757,"lane_width":3.5,"goal":{"x":99.43485260009766,"y":-19.65771484375,"z":0.5999999642372131},"fault":{"name":"camera_blackout","severity":0.8},"capture_flags":{"save_rgb":true,"save_depth":false,"video_rgb":true,"video_depth":false}}
{"frame":12281,"timestamp":{"delta_seconds":0.029703766107559204,"elapsed_seconds":124.17718795221299},"control":{"throttle":0.75,"steer":-9.79176547843963e-07,"brake":0.0,"hand_brake":false,"reverse":false,"manual_gear_shift":false,"gear":0},"transform":{"location":{"x":19.35021209716797,"y":137.4599609375,"z":-0.0019496536115184426},"rotation":{"pitch":0.0,"yaw":0.3204479515552521,"roll":0.0}},"velocity":{"x":5.92949822575406e-09,"y":-6.43990816229234e-08,"z":0.029301051050424576},"angular_velocity":{"x":-1.8471160728950053e-05,"y":7.708968951192219e-06,"z":3.692238959018823e-09},"acceleration":{"x":5.734419801228796e-07,"y":-1.1494571481307503e-06,"z":-0.29798293113708496},"speed_mps":0.029301051050495946,"speed_kph":0.10548378378178541,"speed_limit_kph":30.0,"collisions_this_frame":[],"waypoint":{"x":19.35021209716797,"y":137.4599609375,"z":0.0},"lane_deviation_m":0.0019496536115184426,"lane_width":3.5,"goal":{"x":99.43485260009766,"y":-19.65771484375,"z":0.5999999642372131},"fault":{"name":"camera_blackout","severity":0.8},"capture_flags":{"save_rgb":true,"save_depth":false,"video_rgb":true,"video_depth":false}}
{"frame":12282,"timestamp":{"delta_seconds":0.030790332704782486,"elapsed_seconds":124.20797828491777},"control":{"throttle":0.75,"steer":-9.79176547843963e-07,"brake":0.0,"hand_brake":false,"reverse":false,"manual_gear_shift":false,"gear":0},"transform":{"location":{"x":19.351844787597656,"y":137.4599609375,"z":-0.001116104074753821},"rotation":{"pitch":0.002465698169544339,"yaw":0.32039549946784973,"roll":-6.103515261202119e-05}},"velocity":{"x":0.20665843784809113,"y":0.001157824182882905,"z":0.025130804628133774},"angular_velocity":{"x":0.0017923366976901889,"y":-0.3139071464538574,"z":-0.0010713922092691064},"acceleration":{"x":6.711796283721924,"y":0.037605587393045425,"z":-0.13544012606143951},"speed_mps":0.20818407199377487,"speed_kph":0.7494626591775896,"speed_limit_kph":30.0,"collisions_this_frame":[],"waypoint":{"x":19.351844787597656,"y":137.45997619628906,"z":0.0},"lane_deviation_m":0.0011162083828821778,"lane_width":3.5,"goal":{"x":99.43485260009766,"y":-19.65771484375,"z":0.5999999642372131},"fault":{"name":"camera_blackout","severity":0.8},"capture_flags":{"save_rgb":true,"save_depth":false,"video_rgb":true,"video_depth":false}}
{"frame":12283,"timestamp":{"delta_seconds":0.02967897057533264,"elapsed_seconds":124.2376572554931},"control":{"throttle":0.75,"steer":1.806373620638624e-05,"brake":0.0,"hand_brake":false,"reverse":false,"manual_gear_shift":false,"gear":0},"transform":{"location":{"x":19.36968231201172,"y":137.46005249023438,"z":-0.0006415939424186945},"rotation":{"pitch":0.021398982033133507,"yaw":0.3203732669353485,"roll":-6.103516352595761e-05}},"velocity":{"x":0.7893832325935364,"y":0.004427033010870218,"z":0.018415365368127823},"angular_velocity":{"x":0.004180856980383396,"y":-0.7495630383491516,"z":-0.00031003571348264813},"acceleration":{"x":19.634265899658203,"y":0.11015236377716064,"z":-0.22626927495002747},"speed_mps":0.7896104179927859,"speed_kph":2.8425975047740293,"speed_limit_kph":30.0,"collisions_this_frame":[],"waypoint":{"x":19.36968231201172,"y":137.46006774902344,"z":0.0},"lane_deviation_m":0.0006417753756977618,"lane_width":3.5,"goal":{"x":99.43485260009766,"y":-19.65771484375,"z":0.5999999642372131},"fault":{"name":"camera_blackout","severity":0.8},"capture_flags":{"save_rgb":true,"save_depth":false,"video_rgb":true,"video_depth":false}}
{"frame":12284,"timestamp":{"delta_seconds":0.031972210854291916,"elapsed_seconds":124.2696294663474},"control":{"throttle":0.75,"steer":1.991404678847175e-05,"brake":0.0,"hand_brake":false,"reverse":false,"manual_gear_shift":false,"gear":0},"transform":{"location":{"x":19.40456199645996,"y":137.4602508544922,"z":-0.00021274566825013608},"rotation":{"pitch":0.045038264244794846,"yaw":0.3203694820404053,"roll":-6.103516352595761e-05}},"velocity":{"x":1.2719894647598267,"y":0.007129597943276167,"z":0.016069959849119186},"angular_velocity":{"x":0.0042074499651789665,"y":-0.7394573092460632,"z":-8.19410925032571e-05},"acceleration":{"x":15.094552993774414,"y":0.08452855795621872,"z":-0.07335762679576874},"speed_mps":1.2721109516218998,"speed_kph":4.57959942583884,"speed_limit_kph":30.0,"collisions_this_frame":[],"waypoint":{"x":19.40456199645996,"y":137.46026611328125,"z":0.0},"lane_deviation_m":0.0002132921654265374,"lane_width":3.5,"goal":{"x":99.43485260009766,"y":-19.65771484375,"z":0.5999999642372131},"fault":{"name":"camera_blackout","severity":0.8},"capture_flags":{"save_rgb":true,"save_depth":false,"video_rgb":true,"video_depth":false}}
{"frame":12285,"timestamp":{"delta_seconds":0.028315270319581032,"elapsed_seconds":124.29794473666698},"control":{"throttle":0.75,"steer":5.730328666686546e-06,"brake":0.0,"hand_brake":false,"reverse":false,"manual_gear_shift":false,"gear":0},"transform":{"location":{"x":19.4461612701416,"y":137.46047973632812,"z":4.146575884078629e-05},"rotation":{"pitch":0.06221618875861168,"yaw":0.3203657567501068,"roll":-6.103515625e-05}},"velocity":{"x":1.5669790506362915,"y":0.008771485649049282,"z":0.011707534082233906},"angular_velocity":{"x":0.0030398063827306032,"y":-0.5539133548736572,"z":-0.0002186389174312353},"acceleration":{"x":10.418038368225098,"y":0.05798594281077385,"z":-0.15406617522239685},"speed_mps":1.567047335101206,"speed_kph":5.6413704063643415,"speed_limit_kph":30.0,"collisions_this_frame":[],"waypoint":{"x":19.4461612701416,"y":137.4604949951172,"z":0.0},"lane_deviation_m":4.418415846885182e-05,"lane_width":3.5,"goal":{"x":99.43485260009766,"y":-19.65771484375,"z":0.5999999642372131},"fault":{"name":"camera_blackout","severity":0.8},"capture_flags":{"save_rgb":true,"save_depth":false,"video_rgb":true,"video_depth":false}}
{"frame":12286,"timestamp":{"delta_seconds":0.036985620856285095,"elapsed_seconds":124.33493035752326},"control":{"throttle":0.75,"steer":1.5016713405202609e-05,"brake":0.0,"hand_brake":false,"reverse":false,"manual_gear_shift":false,"gear":0},"transform":{"location":{"x":19.513044357299805,"y":137.46084594726562,"z":0.0003211974981240928},"rotation":{"pitch":0.0783422663807869,"yaw":0.320381224155426,"roll":-6.103512714616954e-05}},"velocity":{"x":1.9203954935073853,"y":0.010756254196166992,"z":0.009092740714550018},"angular_velocity":{"x":0.001832467271015048,"y":-0.339598685503006,"z":0.001552724395878613},"acceleration":{"x":9.555509567260742,"y":0.05366325005888939,"z":-0.07069756835699081},"speed_mps":1.9204471423138696,"speed_kph":6.91360971232993,"speed_limit_kph":30.0,"collisions_this_frame":[],"waypoint":{"x":19.513044357299805,"y":137.46087646484375,"z":0.0},"lane_deviation_m":0.0003226440167054534,"lane_width":3.5,"goal":{"x":99.43485260009766,"y":-19.65771484375,"z":0.5999999642372131},"fault":{"name":"camera_blackout","severity":0.8},"capture_flags":{"save_rgb":true,"save_depth":false,"video_rgb":true,"video_depth":false}}
{"frame":12287,"timestamp":{"delta_seconds":0.02758503332734108,"elapsed_seconds":124.3625153908506},"control":{"throttle":0.75,"steer":8.154768693202641e-06,"brake":0.0,"hand_brake":false,"reverse":false,"manual_gear_shift":false,"gear":0},"transform":{"location":{"x":19.570659637451172,"y":137.46116638183594,"z":0.0004974746843799949},"rotation":{"pitch":0.08582815527915955,"yaw":0.3203617334365845,"roll":-6.103516352595761e-05}},"velocity":{"x":2.161841869354248,"y":0.012103639543056488,"z":0.007430762983858585},"angular_velocity":{"x":0.0013013238785788417,"y":-0.23186929523944855,"z":0.002196267480030656},"acceleration":{"x":8.752802848815918,"y":0.04884479567408562,"z":-0.06024925410747528},"speed_mps":2.1618885222003885,"speed_kph":7.782798679921399,"speed_limit_kph":30.0,"collisions_this_frame":[],"waypoint":{"x":19.570659637451172,"y":137.46119689941406,"z":0.0},"lane_deviation_m":0.0004984098486602306,"lane_width":3.5,"goal":{"x":99.43485260009766,"y":-19.65771484375,"z":0.5999999642372131},"fault":{"name":"camera_blackout","severity":0.8},"capture_flags":{"save_rgb":true,"save_depth":false,"video_rgb":true,"video_depth":false}}
{"frame":12288,"timestamp":{"delta_seconds":0.028067870065569878,"elapsed_seconds":124.39058326091617},"control":{"throttle":0.75,"steer":1.4042357179278042e-05,"brake":0.0,"hand_brake":false,"reverse":false,"manual_gear_shift":false,"gear":0},"transform":{"location":{"x":19.6350040435791,"y":137.46153259277344,"z":0.0006493377732113004},"rotation":{"pitch":0.09000822901725769,"yaw":0.32031551003456116,"roll":-6.103514533606358e-05}},"velocity":{"x":2.3564510345458984,"y":0.013200501911342144,"z":0.005849857348948717},"angular_velocity":{"x":0.0006429945933632553,"y":-0.1150774210691452,"z":-0.01025080494582653},"acceleration":{"x":6.933520793914795,"y":0.039078932255506516,"z":-0.05632438883185387},"speed_mps":2.356495268888556,"speed_kph":8.483382967998802,"speed_limit_kph":30.0,"collisions_this_frame":[],"waypoint":{"x":19.6350040435791,"y":137.4615478515625,"z":0.0},"lane_deviation_m":0.0006495170528069139,"lane_width":3.5,"goal":{"x":99.43485260009766,"y":-19.65771484375,"z":0.5999999642372131},"fault":{"name":"camera_blackout","severity":0.8},"capture_flags":{"save_rgb":true,"save_depth":false,"video_rgb":true,"video_depth":false}}
{"frame":12289,"timestamp":{"delta_seconds":0.03023451194167137,"elapsed_seconds":124.42081777285784},"control":{"throttle":0.75,"steer":9.775122634891886e-06,"brake":0.0,"hand_brake":false,"reverse":false,"manual_gear_shift":false,"gear":0},"transform":{"location":{"x":19.711040496826172,"y":137.46197509765625,"z":0.0008346938993781805},"rotation":{"pitch":0.09296569973230362,"yaw":0.3203108310699463,"roll":-6.103514533606358e-05}},"velocity":{"x":2.5980608463287354,"y":0.014544312842190266,"z":0.005961532238870859},"angular_velocity":{"x":0.0003773110802285373,"y":-0.07387646287679672,"z":0.000301922089420259},"acceleration":{"x":7.9911932945251465,"y":0.04444625973701477,"z":0.003693623235449195},"speed_mps":2.5981083961469102,"speed_kph":9.353190226128877,"speed_limit_kph":30.0,"collisions_this_frame":[],"waypoint":{"x":19.711040496826172,"y":137.46197509765625,"z":0.0},"lane_deviation_m":0.0008346938993781805,"lane_width":3.5,"goal":{"x":99.43485260009766,"y":-19.65771484375,"z":0.5999999642372131},"fault":{"name":"camera_blackout","severity":0.8},"capture_flags":{"save_rgb":true,"save_depth":false,"video_rgb":true,"video_depth":false}}
{"frame":12290,"timestamp":{"delta_seconds":0.029842309653759003,"elapsed_seconds":124.4506600825116},"control":{"throttle":0.75,"steer":-6.6427942329028156e-06,"brake":0.0,"hand_brake":false,"reverse":false,"manual_gear_shift":false,"gear":0},"transform":{"location":{"x":19.79265785217285,"y":137.46243286132812,"z":0.0009085464407689869},"rotation":{"pitch":0.09401755034923553,"yaw":0.32028743624687195,"roll":-6.103512714616954e-05}},"velocity":{"x":2.8017396926879883,"y":0.015661921352148056,"z":0.002580241998657584},"angular_velocity":{"x":5.301674536895007e-05,"y":-0.017980379983782768,"z":-0.002948920475319028},"acceleration":{"x":6.825170516967773,"y":0.03745047003030777,"z":-0.11330524832010269},"speed_mps":2.8017846560741595,"speed_kph":10.086424761866974,"speed_limit_kph":30.0,"collisions_this_frame":[],"waypoint":{"x":19.79265785217285,"y":137.46243286132812,"z":0.0},"lane_deviation_m":0.0009085464407689869,"lane_width":3.5,"goal":{"x":99.43485260009766,"y":-19.65771484375,"z":0.5999999642372131},"fault":{"name":"camera_blackout","severity":0.8},"capture_flags":{"save_rgb":true,"save_depth":false,"video_rgb":true,"video_depth":false}}
{"frame":12291,"timestamp":{"delta_seconds":0.030696671456098557,"elapsed_seconds":124.4813567539677},"control":{"throttle":0.75,"steer":6.158036740089301e-06,"brake":0.0,"hand_brake":false,"reverse":false,"manual_gear_shift":false,"gear":0},"transform":{"location":{"x":19.882232666015625,"y":137.4629364013672,"z":0.0010511779692023993},"rotation":{"pitch":0.09347113221883774,"yaw":0.32027846574783325,"roll":-6.103514533606358e-05}},"velocity":{"x":2.9882843494415283,"y":0.01671377383172512,"z":0.003999748267233372},"angular_velocity":{"x":-0.0001531658781459555,"y":0.033497605472803116,"z":-0.00022354902466759086},"acceleration":{"x":6.07703161239624,"y":0.03426600992679596,"z":0.04624300077557564},"speed_mps":2.9883337667233687,"speed_kph":10.758001560204127,"speed_limit_kph":30.0,"collisions_this_frame":[],"waypoint":{"x":19.882232666015625,"y":137.4629364013672,"z":0.0},"lane_deviation_m":0.0010511779692023993,"lane_width":3.5,"goal":{"x":99.43485260009766,"y":-19.65771484375,"z":0.5999999642372131},"fault":{"name":"camera_blackout","severity":0.8},"capture_flags":{"save_rgb":true,"save_depth":false,"video_rgb":true,"video_depth":false}}
{"frame":12292,"timestamp":{"delta_seconds":0.031445764005184174,"elapsed_seconds":124.51280251797289},"control":{"throttle":0.75,"steer":3.5992256925965194e-06,"brake":0.0,"hand_brake":false,"reverse":false,"manual_gear_shift":false,"gear":0},"transform":{"location":{"x":19.9797420501709,"y":137.46348571777344,"z":0.0011590194189921021},"rotation":{"pitch":0.09172260761260986,"yaw":0.32027629017829895,"roll":-6.103514533606358e-05}},"velocity":{"x":3.167703866958618,"y":0.017715536057949066,"z":0.00273271556943655},"angular_velocity":{"x":-0.00039012543857097626,"y":0.06724969297647476,"z":-5.278988464851864e-05},"acceleration":{"x":5.705681324005127,"y":0.03185682371258736,"z":-0.040292635560035706},"speed_mps":3.1677545827757534,"speed_kph":11.403916497992713,"speed_limit_kph":30.0,"collisions_this_frame":[],"waypoint":{"x":19.9797420501709,"y":137.46348571777344,"z":0.0},"lane_deviation_m":0.0011590194189921021,"lane_width":3.5,"goal":{"x":99.43485260009766,"y":-19.65771484375,"z":0.5999999642372131},"fault":{"name":"camera_blackout","severity":0.8},"capture_flags":{"save_rgb":true,"save_depth":false,"video_rgb":true,"video_depth":false}}
{"frame":12293,"timestamp":{"delta_seconds":0.029839448630809784,"elapsed_seconds":124.5426419666037},"control":{"throttle":0.75,"steer":6.278676778492809e-07,"brake":0.0,"hand_brake":false,"reverse":false,"manual_gear_shift":false,"gear":0},"transform":{"location":{"x":20.07746124267578,"y":137.4640350341797,"z":0.001179771381430328},"rotation":{"pitch":0.08927739411592484,"yaw":0.3202720284461975,"roll":-6.103516352595761e-05}},"velocity":{"x":3.328404664993286,"y":0.018609296530485153,"z":0.00033092498779296875},"angular_velocity":{"x":-0.0005261814221739769,"y":0.08701810985803604,"z":-0.00014862079115118831},"acceleration":{"x":5.385515213012695,"y":0.029952311888337135,"z":-0.08049044758081436},"speed_mps":3.3284567038460597,"speed_kph":11.982444133845815,"speed_limit_kph":30.0,"collisions_this_frame":[],"waypoint":{"x":20.07746124267578,"y":137.4640350341797,"z":0.0},"lane_deviation_m":0.001179771381430328,"lane_width":3.5,"goal":{"x":99.43485260009766,"y":-19.65771484375,"z":0.5999999642372131},"fault":{"name":"camera_blackout","severity":0.8},"capture_flags":{"save_rgb":true,"save_depth":false,"video_rgb":true,"video_depth":false}}
{"frame":12294,"timestamp":{"delta_seconds":0.03191675245761871,"elapsed_seconds":124.57455871906132},"control":{"throttle":0.75,"steer":6.147200792838703e-07,"brake":0.0,"hand_brake":false,"reverse":false,"manual_gear_shift":false,"gear":0},"transform":{"location":{"x":20.186967849731445,"y":137.4646453857422,"z":0.0012730407761409879},"rotation":{"pitch":0.08633358776569366,"yaw":0.32026559114456177,"roll":-6.103516352595761e-05}},"velocity":{"x":3.4929165840148926,"y":0.01952706277370453,"z":0.002070736838504672},"angular_velocity":{"x":-0.0005310385022312403,"y":0.09541214257478714,"z":-0.0002073659998131916},"acceleration":{"x":5.154406547546387,"y":0.028755001723766327,"z":0.0545109286904335},"speed_mps":3.492971780163402,"speed_kph":12.574698408588247,"speed_limit_kph":30.0,"collisions_this_frame":[],"waypoint":{"x":20.186967849731445,"y":137.4646453857422,"z":0.0},"lane_deviation_m":0.0012730407761409879,"lane_width":3.5,"goal":{"x":99.43485260009766,"y":-19.65771484375,"z":0.5999999642372131},"fault":{"name":"camera_blackout","severity":0.8},"capture_flags":{"save_rgb":true,"save_depth":false,"video_rgb":true,"video_depth":false}}
{"frame":12295,"timestamp":{"delta_seconds":0.030985340476036072,"elapsed_seconds":124.60554405953735},"control":{"throttle":0.75,"steer":5.386889824876562e-06,"brake":0.0,"hand_brake":false,"reverse":false,"manual_gear_shift":false,"gear":0},"transform":{"location":{"x":20.29817771911621,"y":137.46527099609375,"z":0.0013482666108757257},"rotation":{"pitch":0.08331464231014252,"yaw":0.3202655613422394,"roll":-6.103518535383046e-05}},"velocity":{"x":3.6473162174224854,"y":0.02039673738181591,"z":0.0016022156924009323},"angular_velocity":{"x":-0.000528744189068675,"y":0.09745880216360092,"z":7.246043242048472e-05},"acceleration":{"x":4.98298978805542,"y":0.028067292645573616,"z":-0.015120736323297024},"speed_mps":3.6473736008070263,"speed_kph":13.130544962905295,"speed_limit_kph":30.0,"collisions_this_frame":[],"waypoint":{"x":20.29817771911621,"y":137.4652557373047,"z":0.0},"lane_deviation_m":0.0013483529910445213,"lane_width":3.5,"goal":{"x":99.43485260009766,"y":-19.65771484375,"z":0.5999999642372131},"fault":{"name":"camera_blackout","severity":0.8},"capture_flags":{"save_rgb":true,"save_depth":false,"video_rgb":true,"video_depth":false}}
{"frame":12296,"timestamp":{"delta_seconds":0.030326366424560547,"elapsed_seconds":124.63587042596191},"control":{"throttle":0.75,"steer":-1.0104594139193068e-06,"brake":0.0,"hand_brake":false,"reverse":false,"manual_gear_shift":false,"gear":0},"transform":{"location":{"x":20.411569595336914,"y":137.4658966064453,"z":0.0014080428518354893},"rotation":{"pitch":0.08041181415319443,"yaw":0.3202610909938812,"roll":-6.103512714616954e-05}},"velocity":{"x":3.794694423675537,"y":0.021213198080658913,"z":0.0012065458577126265},"angular_velocity":{"x":-0.0005168296629562974,"y":0.09481371939182281,"z":-0.00023241402232088149},"acceleration":{"x":4.859738349914551,"y":0.026922469958662987,"z":-0.013047056272625923},"speed_mps":3.7947539083055086,"speed_kph":13.661114069899831,"speed_limit_kph":30.0,"collisions_this_frame":[],"waypoint":{"x":20.411569595336914,"y":137.4658966064453,"z":0.0},"lane_deviation_m":0.0014080428518354893,"lane_width":3.5,"goal":{"x":99.43485260009766,"y":-19.65771484375,"z":0.5999999642372131},"fault":{"name":"camera_blackout","severity":0.8},"capture_flags":{"save_rgb":true,"save_depth":false,"video_rgb":true,"video_depth":false}}
{"frame":12297,"timestamp":{"delta_seconds":0.0281313955783844,"elapsed_seconds":124.6640018215403},"control":{"throttle":0.75,"steer":1.2482747479225509e-05,"brake":0.0,"hand_brake":false,"reverse":false,"manual_gear_shift":false,"gear":0},"transform":{"location":{"x":20.52082061767578,"y":137.4665069580078,"z":0.0014028549194335938},"rotation":{"pitch":0.07780268043279648,"yaw":0.3202696442604065,"roll":-6.103511987021193e-05}},"velocity":{"x":3.928880214691162,"y":0.021980905905365944,"z":-0.0005809593130834401},"angular_velocity":{"x":-0.0005205170600675046,"y":0.09062761068344116,"z":0.0004844864597544074},"acceleration":{"x":4.769966125488281,"y":0.02729007415473461,"z":-0.06354129314422607},"speed_mps":3.928941745448743,"speed_kph":14.144190283615476,"speed_limit_kph":30.0,"collisions_this_frame":[],"waypoint":{"x":20.52082061767578,"y":137.4665069580078,"z":0.0},"lane_deviation_m":0.0014028549194335938,"lane_width":3.5,"goal":{"x":99.43485260009766,"y":-19.65771484375,"z":0.5999999642372131},"fault":{"name":"camera_blackout","severity":0.8},"capture_flags":{"save_rgb":true,"save_depth":false,"video_rgb":true,"video_depth":false}}
{"frame":12298,"timestamp":{"delta_seconds":0.026393603533506393,"elapsed_seconds":124.6903954250738},"control":{"throttle":0.75,"steer":5.101232090964913e-06,"brake":0.0,"hand_brake":false,"reverse":false,"manual_gear_shift":false,"gear":0},"transform":{"location":{"x":20.626691818237305,"y":137.4670867919922,"z":0.0014222717145457864},"rotation":{"pitch":0.07553505897521973,"yaw":0.3202783763408661,"roll":-6.103515625e-05}},"velocity":{"x":4.053059101104736,"y":0.02267209254205227,"z":0.00023572921054437757},"angular_velocity":{"x":-0.000447712343884632,"y":0.08395091444253922,"z":0.0002876311482395977},"acceleration":{"x":4.704885482788086,"y":0.026187656447291374,"z":0.03094266727566719},"speed_mps":4.053122519292555,"speed_kph":14.591241069453197,"speed_limit_kph":30.0,"collisions_this_frame":[],"waypoint":{"x":20.626691818237305,"y":137.46710205078125,"z":0.0},"lane_deviation_m":0.0014223535545170307,"lane_width":3.5,"goal":{"x":99.43485260009766,"y":-19.65771484375,"z":0.5999999642372131},"fault":{"name":"camera_blackout","severity":0.8},"capture_flags":{"save_rgb":true,"save_depth":false,"video_rgb":true,"video_depth":false}}
{"frame":12299,"timestamp":{"delta_seconds":0.032178863883018494,"elapsed_seconds":124.72257428895682},"control":{"throttle":0.75,"steer":1.5244796486513223e-05,"brake":0.0,"hand_brake":false,"reverse":false,"manual_gear_shift":false,"gear":0},"transform":{"location":{"x":20.760108947753906,"y":137.46783447265625,"z":0.0014665602939203382},"rotation":{"pitch":0.07300788909196854,"yaw":0.32030150294303894,"roll":-6.103515625e-05}},"velocity":{"x":4.202666759490967,"y":0.023524800315499306,"z":0.0007760906009934843},"angular_velocity":{"x":-0.00026661937590688467,"y":0.07547320425510406,"z":0.0008868591976352036},"acceleration":{"x":4.649252414703369,"y":0.026499003171920776,"z":0.016792433336377144},"speed_mps":4.202732671712157,"speed_kph":15.129837618163766,"speed_limit_kph":30.0,"collisions_this_frame":[],"waypoint":{"x":20.760108947753906,"y":137.4678497314453,"z":0.0},"lane_deviation_m":0.0014666396891698241,"lane_width":3.5,"goal":{"x":99.43485260009766,"y":-19.65771484375,"z":0.5999999642372131},"fault":{"name":"camera_blackout","severity":0.8},"capture_flags":{"save_rgb":true,"save_depth":false,"video_rgb":true,"video_depth":false}}
{"frame":12300,"timestamp":{"delta_seconds":0.0295813400298357,"elapsed_seconds":124.75215562898666},"control":{"throttle":0.75,"steer":4.99021416544565e-06,"brake":0.0,"hand_brake":false,"reverse":false,"manual_gear_shift":false,"gear":0},"transform":{"location":{"x":20.887104034423828,"y":137.46853637695312,"z":0.0014439009828493},"rotation":{"pitch":0.07089053094387054,"yaw":0.3203173279762268,"roll":-6.103516352595761e-05}},"velocity":{"x":4.3387579917907715,"y":0.024276703596115112,"z":-0.0009664153913035989},"angular_velocity":{"x":-0.0003663955139927566,"y":0.0686660185456276,"z":0.0004180449468549341},"acceleration":{"x":4.600577354431152,"y":0.02541816234588623,"z":-0.05890557914972305},"speed_mps":4.338826016749748,"speed_kph":15.619773660299094,"speed_limit_kph":30.0,"collisions_this_frame":[],"waypoint":{"x":20.887104034423828,"y":137.4685516357422,"z":0.0},"lane_deviation_m":0.0014439815422520041,"lane_width":3.5,"goal":{"x":99.43485260009766,"y":-19.65771484375,"z":0.5999999642372131},"fault":{"name":"camera_blackout","severity":0.8},"capture_flags":{"save_rgb":true,"save_depth":false,"video_rgb":true,"video_depth":false}}
{"frame":12301,"timestamp":{"delta_seconds":0.02863357588648796,"elapsed_seconds":124.78078920487314},"control":{"throttle":0.75,"steer":1.3603343177237548e-05,"brake":0.0,"hand_brake":false,"reverse":false,"manual_gear_shift":false,"gear":0},"transform":{"location":{"x":21.01382064819336,"y":137.46923828125,"z":0.0014458083314821124},"rotation":{"pitch":0.06908053159713745,"yaw":0.3203379213809967,"roll":-6.103519262978807e-05}},"velocity":{"x":4.4694108963012695,"y":0.025018421933054924,"z":-0.0002184486365877092},"angular_velocity":{"x":-0.00025802518939599395,"y":0.061280734837055206,"z":0.0008253143168985844},"acceleration":{"x":4.562926292419434,"y":0.025903796777129173,"z":0.026122016832232475},"speed_mps":4.469480923902948,"speed_kph":16.090131326050614,"speed_limit_kph":30.0,"collisions_this_frame":[],"waypoint":{"x":21.01382064819336,"y":137.46926879882812,"z":0.0},"lane_deviation_m":0.0014461303362622857,"lane_width":3.5,"goal":{"x":99.43485260009766,"y":-19.65771484375,"z":0.5999999642372131},"fault":{"name":"camera_blackout","severity":0.8},"capture_flags":{"save_rgb":true,"save_depth":false,"video_rgb":true,"video_depth":false}}
{"frame":12302,"timestamp":{"delta_seconds":0.03261061757802963,"elapsed_seconds":124.81339982245117},"control":{"throttle":0.75,"steer":1.4001913768879604e-05,"brake":0.0,"hand_brake":false,"reverse":false,"manual_gear_shift":false,"gear":0},"transform":{"location":{"x":21.162572860717773,"y":137.47007751464844,"z":0.0014970398042351007},"rotation":{"pitch":0.06725003570318222,"yaw":0.3203694820404053,"roll":-6.103519262978807e-05}},"velocity":{"x":4.6171159744262695,"y":0.025852220132946968,"z":0.0010334301041439176},"angular_velocity":{"x":-0.0002386757405474782,"y":0.053375132381916046,"z":0.0010250370251014829},"acceleration":{"x":4.529355525970459,"y":0.02556830458343029,"z":0.0383886843919754},"speed_mps":4.617188465567095,"speed_kph":16.62187847604154,"speed_limit_kph":30.0,"collisions_this_frame":[],"waypoint":{"x":21.162572860717773,"y":137.4700927734375,"z":0.0},"lane_deviation_m":0.0014971175696700811,"lane_width":3.5,"goal":{"x":99.43485260009766,"y":-19.65771484375,"z":0.5999999642372131},"fault":{"name":"camera_blackout","severity":0.8},"capture_flags":{"save_rgb":true,"save_depth":false,"video_rgb":true,"video_depth":false}}
{"frame":12303,"timestamp":{"delta_seconds":0.02960122376680374,"elapsed_seconds":124.84300104621798},"control":{"throttle":0.75,"steer":1.1926206298085162e-06,"brake":0.0,"hand_brake":false,"reverse":false,"manual_gear_shift":false,"gear":0},"transform":{"location":{"x":21.301862716674805,"y":137.47085571289062,"z":0.0014785384992137551},"rotation":{"pitch":0.06576788425445557,"yaw":0.3203827440738678,"roll":-6.103514533606358e-05}},"velocity":{"x":4.7502617835998535,"y":0.026580097153782845,"z":-0.0007483100634999573},"angular_velocity":{"x":-0.00040049603558145463,"y":0.0478593148291111,"z":0.00025244586868211627},"acceleration":{"x":4.497983455657959,"y":0.024589423090219498,"z":-0.06019143760204315},"speed_mps":4.750336206444962,"speed_kph":17.101210343201863,"speed_limit_kph":30.0,"collisions_this_frame":[],"waypoint":{"x":21.301862716674805,"y":137.4708709716797,"z":0.0},"lane_deviation_m":0.0014786171959713101,"lane_width":3.5,"goal":{"x":99.43485260009766,"y":-19.65771484375,"z":0.5999999642372131},"fault":{"name":"camera_blackout","severity":0.8},"capture_flags":{"save_rgb":true,"save_depth":false,"video_rgb":true,"video_depth":false}}
{"frame":12304,"timestamp":{"delta_seconds":0.030010908842086792,"elapsed_seconds":124.87301195506006},"control":{"throttle":0.75,"steer":7.552940587629564e-06,"brake":0.0,"hand_brake":false,"reverse":false,"manual_gear_shift":false,"gear":0},"transform":{"location":{"x":21.446935653686523,"y":137.4716796875,"z":0.0015390777261927724},"rotation":{"pitch":0.06447698175907135,"yaw":0.3203936815261841,"roll":-6.103515625e-05}},"velocity":{"x":4.884499549865723,"y":0.027334410697221756,"z":0.0014624643372371793},"angular_velocity":{"x":-0.00024201376072596759,"y":0.04158917814493179,"z":0.00041006269748322666},"acceleration":{"x":4.472965717315674,"y":0.025134645402431488,"z":0.07366569340229034},"speed_mps":4.884576251984255,"speed_kph":17.58447450714332,"speed_limit_kph":30.0,"collisions_this_frame":[],"waypoint":{"x":21.446935653686523,"y":137.47169494628906,"z":0.0},"lane_deviation_m":0.00153915339615196,"lane_width":3.5,"goal":{"x":99.43485260009766,"y":-19.65771484375,"z":0.5999999642372131},"fault":{"name":"camera_blackout","severity":0.8},"capture_flags":{"save_rgb":true,"save_depth":false,"video_rgb":true,"video_depth":false}}
{"frame":12305,"timestamp":{"delta_seconds":0.02947944961488247,"elapsed_seconds":124.90249140467495},"control":{"throttle":0.75,"steer":-5.736710136261536e-06,"brake":0.0,"hand_brake":false,"reverse":false,"manual_gear_shift":false,"gear":0},"transform":{"location":{"x":21.593496322631836,"y":137.47250366210938,"z":0.001512451097369194},"rotation":{"pitch":0.06330902129411697,"yaw":0.3203875720500946,"roll":-6.103514533606358e-05}},"velocity":{"x":5.015596389770508,"y":0.02804717980325222,"z":-0.0009428787161596119},"angular_velocity":{"x":-0.00027263464289717376,"y":0.03750727325677872,"z":-0.0004264762392267585},"acceleration":{"x":4.44705867767334,"y":0.024178508669137955,"z":-0.08159389346837997},"speed_mps":5.015674897597943,"speed_kph":18.056429631352596,"speed_limit_kph":30.0,"collisions_this_frame":[],"waypoint":{"x":21.593496322631836,"y":137.47250366210938,"z":0.0},"lane_deviation_m":0.001512451097369194,"lane_width":3.5,"goal":{"x":99.43485260009766,"y":-19.65771484375,"z":0.5999999642372131},"fault":{"name":"camera_blackout","severity":0.8},"capture_flags":{"save_rgb":true,"save_depth":false,"video_rgb":true,"video_depth":false}}
{"frame":12306,"timestamp":{"delta_seconds":0.03226763382554054,"elapsed_seconds":124.93475903850049},"control":{"throttle":0.75,"steer":-3.879493135627854e-07,"brake":0.0,"hand_brake":false,"reverse":false,"manual_gear_shift":false,"gear":0},"transform":{"location":{"x":21.758214950561523,"y":137.47341918945312,"z":0.001673202496021986},"rotation":{"pitch":0.06209324672818184,"yaw":0.32037487626075745,"roll":-6.103518535383046e-05}},"velocity":{"x":5.158245086669922,"y":0.028843730688095093,"z":0.003712363075464964},"angular_velocity":{"x":-0.00021919839491602033,"y":0.03508536517620087,"z":-0.0004212096973787993},"acceleration":{"x":4.420798301696777,"y":0.024685753509402275,"z":0.14426970481872559},"speed_mps":5.15832706568651,"speed_kph":18.569977436471437,"speed_limit_kph":30.0,"collisions_this_frame":[],"waypoint":{"x":21.758214950561523,"y":137.4734344482422,"z":0.0},"lane_deviation_m":0.0016732721123844385,"lane_width":3.5,"goal":{"x":99.43485260009766,"y":-19.65771484375,"z":0.5999999642372131},"fault":{"name":"camera_blackout","severity":0.8},"capture_flags":{"save_rgb":true,"save_depth":false,"video_rgb":true,"video_depth":false}}
{"frame":12307,"timestamp":{"delta_seconds":0.03160864859819412,"elapsed_seconds":124.96636768709868},"control":{"throttle":0.75,"steer":9.495089216216002e-06,"brake":0.0,"hand_brake":false,"reverse":false,"manual_gear_shift":false,"gear":0},"transform":{"location":{"x":21.923974990844727,"y":137.47434997558594,"z":0.0017575073288753629},"rotation":{"pitch":0.06106871739029884,"yaw":0.3203728199005127,"roll":-6.103515625e-05}},"velocity":{"x":5.296419143676758,"y":0.02963414043188095,"z":0.001858777948655188},"angular_velocity":{"x":-4.33015993621666e-05,"y":0.03144407644867897,"z":-0.0010856701992452145},"acceleration":{"x":4.371400356292725,"y":0.025006122887134552,"z":-0.0586417093873024},"speed_mps":5.296502372588937,"speed_kph":19.067408541320173,"speed_limit_kph":30.0,"collisions_this_frame":[],"waypoint":{"x":21.923973083496094,"y":137.47434997558594,"z":0.0},"lane_deviation_m":0.0017575083766132593,"lane_width":3.5,"goal":{"x":99.43485260009766,"y":-19.65771484375,"z":0.5999999642372131},"fault":{"name":"camera_blackout","severity":0.8},"capture_flags":{"save_rgb":true,"save_depth":false,"video_rgb":true,"video_depth":false}}
{"frame":12308,"timestamp":{"delta_seconds":0.0303285401314497,"elapsed_seconds":124.99669622723013},"control":{"throttle":0.75,"steer":-4.957778401148971e-07,"brake":0.0,"hand_brake":false,"reverse":false,"manual_gear_shift":false,"gear":0},"transform":{"location":{"x":22.085277557373047,"y":137.47525024414062,"z":0.0018112182151526213},"rotation":{"pitch":0.057831209152936935,"yaw":0.32038480043411255,"roll":-6.1035138060105965e-05}},"velocity":{"x":5.338417053222656,"y":0.029860638082027435,"z":0.0007948827696964145},"angular_velocity":{"x":-0.0008284233044832945,"y":0.13218939304351807,"z":0.00014014971384312958},"acceleration":{"x":1.384765386581421,"y":0.00746813602745533,"z":-0.03507901355624199},"speed_mps":5.338500625052296,"speed_kph":19.218602250188265,"speed_limit_kph":30.0,"collisions_this_frame":[],"waypoint":{"x":22.085275650024414,"y":137.4752655029297,"z":0.0},"lane_deviation_m":0.0018112835241481662,"lane_width":3.5,"goal":{"x":99.43485260009766,"y":-19.65771484375,"z":0.5999999642372131},"fault":{"name":"camera_blackout","severity":0.8},"capture_flags":{"save_rgb":true,"save_depth":false,"video_rgb":true,"video_depth":false}}
{"frame":12309,"timestamp":{"delta_seconds":0.035709530115127563,"elapsed_seconds":125.03240575734526},"control":{"throttle":0.75,"steer":3.176123527737218e-06,"brake":0.0,"hand_brake":false,"reverse":false,"manual_gear_shift":false,"gear":0},"transform":{"location":{"x":22.276546478271484,"y":137.476318359375,"z":0.0018591689877212048},"rotation":{"pitch":0.05171135812997818,"yaw":0.32038867473602295,"roll":-6.103514533606358e-05}},"velocity":{"x":5.379589080810547,"y":0.03009197674691677,"z":0.00010620117245707661},"angular_velocity":{"x":-0.0009580439073033631,"y":0.16803061962127686,"z":5.072764179203659e-05},"acceleration":{"x":1.152970314025879,"y":0.006478345021605492,"z":-0.0192856527864933},"speed_mps":5.379673244419153,"speed_kph":19.36682367990895,"speed_limit_kph":30.0,"collisions_this_frame":[],"waypoint":{"x":22.27654457092285,"y":137.47633361816406,"z":0.0},"lane_deviation_m":0.0018592325504869223,"lane_width":3.5,"goal":{"x":99.43485260009766,"y":-19.65771484375,"z":0.5999999642372131},"fault":{"name":"camera_blackout","severity":0.8},"capture_flags":{"save_rgb":true,"save_depth":false,"video_rgb":true,"video_depth":false}}
{"frame":12310,"timestamp":{"delta_seconds":0.02726771868765354,"elapsed_seconds":125.05967347603291},"control":{"throttle":0.6899345517158508,"steer":3.997615294792922e-06,"brake":0.0,"hand_brake":false,"reverse":false,"manual_gear_shift":false,"gear":0},"transform":{"location":{"x":22.423595428466797,"y":137.47714233398438,"z":0.001884040771983564},"rotation":{"pitch":0.046998530626297,"yaw":0.32039371132850647,"roll":-6.103515261202119e-05}},"velocity":{"x":5.400411128997803,"y":0.030209790915250778,"z":-0.00018302917305845767},"angular_velocity":{"x":-0.0008796797483228147,"y":0.17530743777751923,"z":2.8434584237402305e-05},"acceleration":{"x":0.7636153101921082,"y":0.004320646170526743,"z":-0.010607060045003891},"speed_mps":5.400495627918807,"speed_kph":19.441784260507706,"speed_limit_kph":30.0,"collisions_this_frame":[],"waypoint":{"x":22.423593521118164,"y":137.47715759277344,"z":0.0},"lane_deviation_m":0.0018841035198420286,"lane_width":3.5,"goal":{"x":99.43485260009766,"y":-19.65771484375,"z":0.5999999642372131},"fault":{"name":"camera_blackout","severity":0.8},"capture_flags":{"save_rgb":true,"save_depth":false,"video_rgb":true,"video_depth":false}}
{"frame":12311,"timestamp":{"delta_seconds":0.02891083061695099,"elapsed_seconds":125.08858430664986},"control":{"throttle":0.6054189205169678,"steer":1.521825538475241e-06,"brake":0.0,"hand_brake":false,"reverse":false,"manual_gear_shift":false,"gear":0},"transform":{"location":{"x":22.580829620361328,"y":137.47801208496094,"z":0.0019002914195880294},"rotation":{"pitch":0.042716000229120255,"yaw":0.3203977644443512,"roll":-6.103516352595761e-05}},"velocity":{"x":5.457321643829346,"y":0.03052615374326706,"z":-0.00034448623773641884},"angular_velocity":{"x":-0.000785233685746789,"y":0.1350567489862442,"z":4.723804522654973e-05},"acceleration":{"x":1.9684844017028809,"y":0.010942710563540459,"z":-0.005584657192230225},"speed_mps":5.457407029802831,"speed_kph":19.646665307290192,"speed_limit_kph":30.0,"collisions_this_frame":[],"waypoint":{"x":22.580827713012695,"y":137.47802734375,"z":0.0},"lane_deviation_m":0.0019003537017852068,"lane_width":3.5,"goal":{"x":99.43485260009766,"y":-19.65771484375,"z":0.5999999642372131},"fault":{"name":"camera_blackout","severity":0.8},"capture_flags":{"save_rgb":true,"save_depth":false,"video_rgb":true,"video_depth":false}}
{"frame":12312,"timestamp":{"delta_seconds":0.02946539595723152,"elapsed_seconds":125.1180497026071},"control":{"throttle":0.3916465640068054,"steer":1.082298422261374e-05,"brake":0.0,"hand_brake":false,"reverse":false,"manual_gear_shift":false,"gear":0},"transform":{"location":{"x":22.742084503173828,"y":137.4789276123047,"z":0.0019124603131785989},"rotation":{"pitch":0.03870667889714241,"yaw":0.32041046023368835,"roll":-6.103515261202119e-05}},"velocity":{"x":5.478126049041748,"y":0.030652999877929688,"z":-0.0004087161796633154},"angular_velocity":{"x":-0.0008077950915321708,"y":0.14333653450012207,"z":0.0006082685431465507},"acceleration":{"x":0.7060622572898865,"y":0.004304918460547924,"z":-0.0021798431407660246},"speed_mps":5.47821182345482,"speed_kph":19.721562564437352,"speed_limit_kph":30.0,"collisions_this_frame":[],"waypoint":{"x":22.742082595825195,"y":137.4789276123047,"z":0.0},"lane_deviation_m":0.0019124612445011735,"lane_width":3.5,"goal":{"x":99.43485260009766,"y":-19.65771484375,"z":0.5999999642372131},"fault":{"name":"camera_blackout","severity":0.8},"capture_flags":{"save_rgb":true,"save_depth":false,"video_rgb":true,"video_depth":false}}
{"frame":12313,"timestamp":{"delta_seconds":0.028557714074850082,"elapsed_seconds":125.14660741668195},"control":{"throttle":0.30900007486343384,"steer":-7.97567827248713e-06,"brake":0.0,"hand_brake":false,"reverse":false,"manual_gear_shift":false,"gear":0},"transform":{"location":{"x":22.899782180786133,"y":137.47979736328125,"z":0.0019174193730577826},"rotation":{"pitch":0.03579701855778694,"yaw":0.3204091787338257,"roll":-6.103514533606358e-05}},"velocity":{"x":5.544575214385986,"y":0.031006593257188797,"z":-0.0004176235233899206},"angular_velocity":{"x":-0.0004950953298248351,"y":0.08465029299259186,"z":-0.00028669415041804314},"acceleration":{"x":2.3268375396728516,"y":0.012381711043417454,"z":-0.00031190674053505063},"speed_mps":5.544661927585688,"speed_kph":19.960782939308476,"speed_limit_kph":30.0,"collisions_this_frame":[],"waypoint":{"x":22.8997802734375,"y":137.4798126220703,"z":0.0},"lane_deviation_m":0.001917481073178351,"lane_width":3.5,"goal":{"x":99.43485260009766,"y":-19.65771484375,"z":0.5999999642372131},"fault":{"name":"camera_blackout","severity":0.8},"capture_flags":{"save_rgb":true,"save_depth":false,"video_rgb":true,"video_depth":false}}
{"frame":12314,"timestamp":{"delta_seconds":0.030609741806983948,"elapsed_seconds":125.17721715848893},"control":{"throttle":0.0626307800412178,"steer":1.2383408829919063e-05,"brake":0.0,"hand_brake":false,"reverse":false,"manual_gear_shift":false,"gear":0},"transform":{"location":{"x":23.070941925048828,"y":137.48077392578125,"z":0.0019137572962790728},"rotation":{"pitch":0.034362681210041046,"yaw":0.3204166293144226,"roll":-6.103515261202119e-05}},"velocity":{"x":5.6301493644714355,"y":0.031503912061452866,"z":-0.00038652896182611585},"angular_velocity":{"x":-0.00011733324936358258,"y":0.02490168809890747,"z":0.0005084506119601429},"acceleration":{"x":2.7956509590148926,"y":0.01624707691371441,"z":0.0010158387012779713},"speed_mps":5.630237518270248,"speed_kph":20.268855065772893,"speed_limit_kph":30.0,"collisions_this_frame":[],"waypoint":{"x":23.070940017700195,"y":137.48077392578125,"z":0.0},"lane_deviation_m":0.0019137582276016474,"lane_width":3.5,"goal":{"x":99.43485260009766,"y":-19.65771484375,"z":0.5999999642372131},"fault":{"name":"camera_blackout","severity":0.8},"capture_flags":{"save_rgb":true,"save_depth":false,"video_rgb":true,"video_depth":false}}
{"frame":12315,"timestamp":{"delta_seconds":0.030261989682912827,"elapsed_seconds":125.20747914817184},"control":{"throttle":0.0,"steer":-1.4048895536689088e-05,"brake":0.25215229392051697,"hand_brake":false,"reverse":false,"manual_gear_shift":false,"gear":0},"transform":{"location":{"x":23.241891860961914,"y":137.48171997070312,"z":0.001912078820168972},"rotation":{"pitch":0.03275075554847717,"yaw":0.3204081356525421,"roll":-6.103515261202119e-05}},"velocity":{"x":5.667588233947754,"y":0.0316849946975708,"z":-0.0003534841525834054},"angular_velocity":{"x":-0.0003639116184785962,"y":0.058062393218278885,"z":-0.0006979863974265754},"acceleration":{"x":1.237158179283142,"y":0.005983831360936165,"z":0.0010919575579464436},"speed_mps":5.667676812718157,"speed_kph":20.403636525785366,"speed_limit_kph":30.0,"collisions_this_frame":[],"waypoint":{"x":23.24188995361328,"y":137.48171997070312,"z":0.0},"lane_deviation_m":0.0019120797514915466,"lane_width":3.5,"goal":{"x":99.43485260009766,"y":-19.65771484375,"z":0.5999999642372131},"fault":{"name":"camera_blackout","severity":0.8},"capture_flags":{"save_rgb":true,"save_depth":false,"video_rgb":true,"video_depth":false}}
{"frame":12316,"timestamp":{"delta_seconds":0.03124614804983139,"elapsed_seconds":125.23872529622167},"control":{"throttle":0.0,"steer":9.035296898218803e-06,"brake":0.30000001192092896,"hand_brake":false,"reverse":false,"manual_gear_shift":false,"gear":0},"transform":{"location":{"x":23.418664932250977,"y":137.48269653320312,"z":0.0019216155633330345},"rotation":{"pitch":0.029383473098278046,"yaw":0.3204052448272705,"roll":-6.103514533606358e-05}},"velocity":{"x":5.659616947174072,"y":0.03165767714381218,"z":-0.0003126239753328264},"angular_velocity":{"x":-0.0006097190780565143,"y":0.11968974769115448,"z":0.00019547670672181994},"acceleration":{"x":-0.2551126182079315,"y":-0.0008742694626562297,"z":0.0013076867908239365},"speed_mps":5.659705495429586,"speed_kph":20.37493978354651,"speed_limit_kph":30.0,"collisions_this_frame":[],"waypoint":{"x":23.418663024902344,"y":137.4827117919922,"z":0.0},"lane_deviation_m":0.001921677147038281,"lane_width":3.5,"goal":{"x":99.43485260009766,"y":-19.65771484375,"z":0.5999999642372131},"fault":{"name":"camera_blackout","severity":0.8},"capture_flags":{"save_rgb":true,"save_depth":false,"video_rgb":true,"video_depth":false}}
{"frame":12317,"timestamp":{"delta_seconds":0.029971804469823837,"elapsed_seconds":125.2686971006915},"control":{"throttle":0.0,"steer":1.450639138056431e-05,"brake":0.30000001192092896,"hand_brake":false,"reverse":false,"manual_gear_shift":false,"gear":0},"transform":{"location":{"x":23.587055206298828,"y":137.48362731933594,"z":0.001945075928233564},"rotation":{"pitch":0.023878339678049088,"yaw":0.32042554020881653,"roll":-6.103514533606358e-05}},"velocity":{"x":5.59102201461792,"y":0.03128798305988312,"z":-0.0002783775271382183},"angular_velocity":{"x":-0.001151207834482193,"y":0.21792557835578918,"z":0.0008493511122651398},"acceleration":{"x":-2.288648843765259,"y":-0.012334729544818401,"z":0.0011426222044974566},"speed_mps":5.591109566384854,"speed_kph":20.127994438985475,"speed_limit_kph":30.0,"collisions_this_frame":[],"waypoint":{"x":23.587053298950195,"y":137.48365783691406,"z":0.0},"lane_deviation_m":0.0019453162094578147,"lane_width":3.5,"goal":{"x":99.43485260009766,"y":-19.65771484375,"z":0.5999999642372131},"fault":{"name":"camera_blackout","severity":0.8},"capture_flags":{"save_rgb":true,"save_depth":false,"video_rgb":true,"video_depth":false}}
