{"frame":329,"timestamp":{"delta_seconds":0.05000000074505806,"elapsed_seconds":7.3680858090519905},"control":{"throttle":0.0,"steer":0.0,"brake":1.0,"hand_brake":false,"reverse":false,"manual_gear_shift":false,"gear":0},"transform":{"location":{"x":-64.64484405517578,"y":24.471010208129883,"z":0.48239994049072266},"rotation":{"pitch":0.0,"yaw":0.15919795632362366,"roll":0.0}},"velocity":{"x":0.0,"y":0.0,"z":-1.470000147819519},"angular_velocity":{"x":0.0,"y":0.0,"z":0.0},"acceleration":{"x":0.0,"y":0.0,"z":-9.80000114440918},"speed_mps":1.470000147819519,"speed_kph":5.2920005321502686,"speed_limit_kph":30.0,"collisions_this_frame":[],"waypoint":{"x":-64.64469146728516,"y":24.504404067993164,"z":0.0},"lane_deviation_m":0.4835544228553772,"lane_width":3.5,"goal":{"x":-15.448323249816895,"y":-68.00706481933594,"z":0.6000048518180847},"fault":{"name":"fault_free","severity":1.0},"capture_flags":{"save_rgb":true,"save_depth":false,"video_rgb":true,"video_depth":false}}
{"frame":330,"timestamp":{"delta_seconds":0.05000000074505806,"elapsed_seconds":7.418085809797049},"control":{"throttle":0.0,"steer":0.5009999871253967,"brake":1.0,"hand_brake":false,"reverse":false,"manual_gear_shift":false,"gear":0},"transform":{"location":{"x":-64.64484405517578,"y":24.471010208129883,"z":0.394199937582016},"rotation":{"pitch":0.0,"yaw":0.15919795632362366,"roll":0.0}},"velocity":{"x":0.0,"y":0.0,"z":-1.9600002765655518},"angular_velocity":{"x":0.0,"y":0.0,"z":0.0},"acceleration":{"x":0.0,"y":0.0,"z":-9.800003051757812},"speed_mps":1.9600002765655518,"speed_kph":7.056000995635986,"speed_limit_kph":30.0,"collisions_this_frame":[],"waypoint":{"x":-64.64469146728516,"y":24.504404067993164,"z":0.0},"lane_deviation_m":0.39561188220977783,"lane_width":3.5,"goal":{"x":-15.448323249816895,"y":-68.00706481933594,"z":0.6000048518180847},"fault":{"name":"fault_free","severity":1.0},"capture_flags":{"save_rgb":true,"save_depth":false,"video_rgb":true,"video_depth":false}}
{"frame":331,"timestamp":{"delta_seconds":0.05000000074505806,"elapsed_seconds":7.468085810542107},"control":{"throttle":0.0,"steer":0.5540000200271606,"brake":1.0,"hand_brake":false,"reverse":false,"manual_gear_shift":false,"gear":0},"transform":{"location":{"x":-64.64484405517578,"y":24.471010208129883,"z":0.28150004148483276},"rotation":{"pitch":0.0,"yaw":0.15919795632362366,"roll":0.0}},"velocity":{"x":0.0,"y":0.0,"z":-2.450000286102295},"angular_velocity":{"x":0.0,"y":0.0,"z":0.0},"acceleration":{"x":0.0,"y":0.0,"z":-9.800000190734863},"speed_mps":2.450000286102295,"speed_kph":8.820001029968262,"speed_limit_kph":30.0,"collisions_this_frame":[],"waypoint":{"x":-64.64469146728516,"y":24.504404067993164,"z":0.0},"lane_deviation_m":0.2834738790988922,"lane_width":3.5,"goal":{"x":-15.448323249816895,"y":-68.00706481933594,"z":0.6000048518180847},"fault":{"name":"fault_free","severity":1.0},"capture_flags":{"save_rgb":true,"save_depth":false,"video_rgb":true,"video_depth":false}}
{"frame":332,"timestamp":{"delta_seconds":0.05000000074505806,"elapsed_seconds":7.518085811287165},"control":{"throttle":0.0,"steer":0.8690000176429749,"brake":1.0,"hand_brake":false,"reverse":false,"manual_gear_shift":false,"gear":0},"transform":{"location":{"x":-64.64484405517578,"y":24.471010208129883,"z":0.1442999690771103},"rotation":{"pitch":0.0,"yaw":0.15919795632362366,"roll":0.0}},"velocity":{"x":0.0,"y":0.0,"z":-2.93999981880188},"angular_velocity":{"x":0.0,"y":0.0,"z":0.0},"acceleration":{"x":0.0,"y":0.0,"z":-9.7999906539917},"speed_mps":2.93999981880188,"speed_kph":10.583999347686769,"speed_limit_kph":30.0,"collisions_this_frame":[],"waypoint":{"x":-64.64469146728516,"y":24.504404067993164,"z":0.0},"lane_deviation_m":0.1481136530637741,"lane_width":3.5,"goal":{"x":-15.448323249816895,"y":-68.00706481933594,"z":0.6000048518180847},"fault":{"name":"fault_free","severity":1.0},"capture_flags":{"save_rgb":true,"save_depth":false,"video_rgb":true,"video_depth":false}}
{"frame":333,"timestamp":{"delta_seconds":0.05000000074505806,"elapsed_seconds":7.568085812032223},"control":{"throttle":0.0,"steer":0.7059999704360962,"brake":1.0,"hand_brake":false,"reverse":false,"manual_gear_shift":false,"gear":0},"transform":{"location":{"x":-64.64484405517578,"y":24.471010208129883,"z":0.008085555396974087},"rotation":{"pitch":0.0,"yaw":0.15919795632362366,"roll":0.0}},"velocity":{"x":-1.4789030444717355e-07,"y":-2.2099350189819233e-06,"z":-2.06459641456604},"angular_velocity":{"x":0.0009198705083690584,"y":-0.0008250255486927927,"z":1.682183938100934e-05},"acceleration":{"x":-2.95780614578689e-06,"y":-4.4198699470143765e-05,"z":17.508068084716797},"speed_mps":2.064596414567228,"speed_kph":7.432547092442021,"speed_limit_kph":30.0,"collisions_this_frame":[],"waypoint":{"x":-64.64469146728516,"y":24.504404067993164,"z":0.0},"lane_deviation_m":0.034359123557806015,"lane_width":3.5,"goal":{"x":-15.448323249816895,"y":-68.00706481933594,"z":0.6000048518180847},"fault":{"name":"fault_free","severity":1.0},"capture_flags":{"save_rgb":true,"save_depth":false,"video_rgb":true,"video_depth":false}}
{"frame":334,"timestamp":{"delta_seconds":0.05000000074505806,"elapsed_seconds":7.618085812777281},"control":{"throttle":0.0,"steer":0.5,"brake":1.0,"hand_brake":false,"reverse":false,"manual_gear_shift":false,"gear":0},"transform":{"location":{"x":-64.64484405517578,"y":24.471010208129883,"z":-0.05158813297748566},"rotation":{"pitch":0.0,"yaw":0.15919795632362366,"roll":0.0}},"velocity":{"x":-1.1379695763480413e-07,"y":-3.2180787457036786e-07,"z":-0.7380883097648621},"angular_velocity":{"x":0.00012917954882141203,"y":-0.00024166368530131876,"z":3.1974918783816975e-06},"acceleration":{"x":6.818669362473884e-07,"y":3.776254379772581e-05,"z":26.530160903930664},"speed_mps":0.738088309764941,"speed_kph":2.657117915153788,"speed_limit_kph":30.0,"collisions_this_frame":[],"waypoint":{"x":-64.64469146728516,"y":24.504404067993164,"z":0.0},"lane_deviation_m":0.061453305184841156,"lane_width":3.5,"goal":{"x":-15.448323249816895,"y":-68.00706481933594,"z":0.6000048518180847},"fault":{"name":"fault_free","severity":1.0},"capture_flags":{"save_rgb":true,"save_depth":false,"video_rgb":true,"video_depth":false}}
{"frame":335,"timestamp":{"delta_seconds":0.05000000074505806,"elapsed_seconds":7.668085813522339},"control":{"throttle":0.0,"steer":0.9710000157356262,"brake":1.0,"hand_brake":false,"reverse":false,"manual_gear_shift":false,"gear":0},"transform":{"location":{"x":-64.64484405517578,"y":24.471010208129883,"z":-0.06773185729980469},"rotation":{"pitch":0.0,"yaw":0.15919795632362366,"roll":0.0}},"velocity":{"x":-3.497465783652842e-08,"y":4.10279916707168e-08,"z":-0.11209765821695328},"angular_velocity":{"x":-6.077149373595603e-05,"y":-4.736568735097535e-05,"z":4.526154100403801e-07},"acceleration":{"x":1.5764459249112406e-06,"y":7.25671725376742e-06,"z":12.51981258392334},"speed_mps":0.11209765821696624,"speed_kph":0.40355156958107846,"speed_limit_kph":30.0,"collisions_this_frame":[],"waypoint":{"x":-64.64469146728516,"y":24.504404067993164,"z":0.0},"lane_deviation_m":0.07551673799753189,"lane_width":3.5,"goal":{"x":-15.448323249816895,"y":-68.00706481933594,"z":0.6000048518180847},"fault":{"name":"fault_free","severity":1.0},"capture_flags":{"save_rgb":true,"save_depth":false,"video_rgb":true,"video_depth":false}}
{"frame":336,"timestamp":{"delta_seconds":0.05000000074505806,"elapsed_seconds":7.718085814267397},"control":{"throttle":0.0,"steer":0.8759999871253967,"brake":1.0,"hand_brake":false,"reverse":false,"manual_gear_shift":false,"gear":0},"transform":{"location":{"x":-64.64484405517578,"y":24.471010208129883,"z":-0.06445319950580597},"rotation":{"pitch":0.0,"yaw":0.15919795632362366,"roll":0.0}},"velocity":{"x":8.363156389634696e-09,"y":2.2461383863969786e-08,"z":0.15056143701076508},"angular_velocity":{"x":-4.48106111434754e-05,"y":9.115174179896712e-06,"z":2.611509160033165e-07},"acceleration":{"x":8.667562951814034e-07,"y":-3.7133216324036766e-07,"z":5.2531819343566895},"speed_mps":0.150561437010767,"speed_kph":0.5420211732387612,"speed_limit_kph":30.0,"collisions_this_frame":[],"waypoint":{"x":-64.64469146728516,"y":24.504404067993164,"z":0.0},"lane_deviation_m":0.07259055227041245,"lane_width":3.5,"goal":{"x":-15.448323249816895,"y":-68.00706481933594,"z":0.6000048518180847},"fault":{"name":"fault_free","severity":1.0},"capture_flags":{"save_rgb":true,"save_depth":false,"video_rgb":true,"video_depth":false}}
{"frame":337,"timestamp":{"delta_seconds":0.05000000074505806,"elapsed_seconds":7.768085815012455},"control":{"throttle":0.0,"steer":0.8169999718666077,"brake":1.0,"hand_brake":false,"reverse":false,"manual_gear_shift":false,"gear":0},"transform":{"location":{"x":-64.64484405517578,"y":24.471010208129883,"z":-0.053962018340826035},"rotation":{"pitch":0.0,"yaw":0.15919795632362366,"roll":0.0}},"velocity":{"x":1.714381525630415e-08,"y":3.692917971420684e-08,"z":0.23337388038635254},"angular_velocity":{"x":-3.818637924268842e-05,"y":2.318637416465208e-05,"z":-2.7833138460664486e-07},"acceleration":{"x":1.7561318088610278e-07,"y":2.893559098993137e-07,"z":1.6562488079071045},"speed_mps":0.2333738803863561,"speed_kph":0.8401459693908819,"speed_limit_kph":30.0,"collisions_this_frame":[],"waypoint":{"x":-64.64469146728516,"y":24.504404067993164,"z":0.0},"lane_deviation_m":0.06345921754837036,"lane_width":3.5,"goal":{"x":-15.448323249816895,"y":-68.00706481933594,"z":0.6000048518180847},"fault":{"name":"fault_free","severity":1.0},"capture_flags":{"save_rgb":true,"save_depth":false,"video_rgb":true,"video_depth":false}}
{"frame":338,"timestamp":{"delta_seconds":0.05000000074505806,"elapsed_seconds":7.818085815757513},"control":{"throttle":0.0,"steer":0.8830000162124634,"brake":1.0,"hand_brake":false,"reverse":false,"manual_gear_shift":false,"gear":0},"transform":{"location":{"x":-64.64484405517578,"y":24.471010208129883,"z":-0.04207824543118477},"rotation":{"pitch":0.0,"yaw":0.15919795632362366,"roll":0.0}},"velocity":{"x":3.090573130748453e-08,"y":-4.015164201121024e-09,"z":0.23370575904846191},"angular_velocity":{"x":-6.8190483943908475e-06,"y":3.338046371936798e-05,"z":5.410891645851734e-08},"acceleration":{"x":2.752383352344623e-07,"y":-8.188868605429889e-07,"z":0.0066375732421875},"speed_mps":0.233705759048464,"speed_kph":0.8413407325744704,"speed_limit_kph":30.0,"collisions_this_frame":[],"waypoint":{"x":-64.64469146728516,"y":24.504404067993164,"z":0.0},"lane_deviation_m":0.05371919646859169,"lane_width":3.5,"goal":{"x":-15.448323249816895,"y":-68.00706481933594,"z":0.6000048518180847},"fault":{"name":"fault_free","severity":1.0},"capture_flags":{"save_rgb":true,"save_depth":false,"video_rgb":true,"video_depth":false}}
{"frame":339,"timestamp":{"delta_seconds":0.05000000074505806,"elapsed_seconds":7.868085816502571},"control":{"throttle":0.0,"steer":0.8410000205039978,"brake":1.0,"hand_brake":false,"reverse":false,"manual_gear_shift":false,"gear":0},"transform":{"location":{"x":-64.64484405517578,"y":24.471010208129883,"z":-0.03129245713353157},"rotation":{"pitch":0.0,"yaw":0.15919795632362366,"roll":0.0}},"velocity":{"x":2.6039550959922053e-08,"y":6.893752413361653e-08,"z":0.20143510401248932},"angular_velocity":{"x":-9.095297718886286e-05,"y":3.471909076324664e-05,"z":-3.48157236373936e-08},"acceleration":{"x":-9.732360695124953e-08,"y":1.459053692087764e-06,"z":-0.6454131007194519},"speed_mps":0.2014351040125028,"speed_kph":0.7251663744450101,"speed_limit_kph":30.0,"collisions_this_frame":[],"waypoint":{"x":-64.64469146728516,"y":24.504404067993164,"z":0.0},"lane_deviation_m":0.045764513313770294,"lane_width":3.5,"goal":{"x":-15.448323249816895,"y":-68.00706481933594,"z":0.6000048518180847},"fault":{"name":"fault_free","severity":1.0},"capture_flags":{"save_rgb":true,"save_depth":false,"video_rgb":true,"video_depth":false}}
{"frame":340,"timestamp":{"delta_seconds":0.05000000074505806,"elapsed_seconds":7.918085817247629},"control":{"throttle":0.0,"steer":0.7609999775886536,"brake":1.0,"hand_brake":false,"reverse":false,"manual_gear_shift":false,"gear":0},"transform":{"location":{"x":-64.64484405517578,"y":24.471010208129883,"z":-0.02243545465171337},"rotation":{"pitch":0.0,"yaw":0.15919795632362366,"roll":0.0}},"velocity":{"x":8.74874572787121e-09,"y":3.229550626926425e-09,"z":0.16076509654521942},"angular_velocity":{"x":-1.9640820028143935e-06,"y":1.1328736945870332e-05,"z":-1.7644566696617403e-07},"acceleration":{"x":-3.4581609043016215e-07,"y":-1.3141594763510511e-06,"z":-0.813400149345398},"speed_mps":0.1607650965452197,"speed_kph":0.578754347562791,"speed_limit_kph":30.0,"collisions_this_frame":[],"waypoint":{"x":-64.64469146728516,"y":24.504404067993164,"z":0.0},"lane_deviation_m":0.04023086652159691,"lane_width":3.5,"goal":{"x":-15.448323249816895,"y":-68.00706481933594,"z":0.6000048518180847},"fault":{"name":"fault_free","severity":1.0},"capture_flags":{"save_rgb":true,"save_depth":false,"video_rgb":true,"video_depth":false}}
{"frame":341,"timestamp":{"delta_seconds":0.05000000074505806,"elapsed_seconds":7.968085817992687},"control":{"throttle":0.0,"steer":0.8090000152587891,"brake":1.0,"hand_brake":false,"reverse":false,"manual_gear_shift":false,"gear":0},"transform":{"location":{"x":-64.64484405517578,"y":24.471010208129883,"z":-0.015568007715046406},"rotation":{"pitch":0.0,"yaw":0.15919795632362366,"roll":0.0}},"velocity":{"x":-2.3598968112992225e-08,"y":5.402723957104172e-08,"z":0.12242082506418228},"angular_velocity":{"x":-2.0957311789970845e-05,"y":-1.7367072359775193e-05,"z":-9.096023632082506e-07},"acceleration":{"x":-6.469542768172687e-07,"y":1.0159537850995548e-06,"z":-0.7668853998184204},"speed_mps":0.12242082506419648,"speed_kph":0.44071497023110734,"speed_limit_kph":30.0,"collisions_this_frame":[],"waypoint":{"x":-64.64469146728516,"y":24.504404067993164,"z":0.0},"lane_deviation_m":0.036844756454229355,"lane_width":3.5,"goal":{"x":-15.448323249816895,"y":-68.00706481933594,"z":0.6000048518180847},"fault":{"name":"fault_free","severity":1.0},"capture_flags":{"save_rgb":true,"save_depth":false,"video_rgb":true,"video_depth":false}}
{"frame":342,"timestamp":{"delta_seconds":0.05000000074505806,"elapsed_seconds":8.018085818737745},"control":{"throttle":0.0,"steer":0.968999981880188,"brake":1.0,"hand_brake":false,"reverse":false,"manual_gear_shift":false,"gear":0},"transform":{"location":{"x":-64.64484405517578,"y":24.471010208129883,"z":-0.010438079945743084},"rotation":{"pitch":0.0,"yaw":0.15919795632362366,"roll":0.0}},"velocity":{"x":-1.5373361250681228e-08,"y":5.7961479171808605e-08,"z":0.09031089395284653},"angular_velocity":{"x":-3.4361091820755973e-05,"y":-8.038407941057812e-06,"z":-8.651824714434042e-07},"acceleration":{"x":1.6451213014079258e-07,"y":7.868479201533773e-08,"z":-0.6421986222267151},"speed_mps":0.09031089395286644,"speed_kph":0.3251192182303192,"speed_limit_kph":30.0,"collisions_this_frame":[],"waypoint":{"x":-64.64469146728516,"y":24.504404067993164,"z":0.0},"lane_deviation_m":0.034987520426511765,"lane_width":3.5,"goal":{"x":-15.448323249816895,"y":-68.00706481933594,"z":0.6000048518180847},"fault":{"name":"fault_free","severity":1.0},"capture_flags":{"save_rgb":true,"save_depth":false,"video_rgb":true,"video_depth":false}}
{"frame":343,"timestamp":{"delta_seconds":0.05000000074505806,"elapsed_seconds":8.068085819482803},"control":{"throttle":0.0,"steer":0.878000020980835,"brake":1.0,"hand_brake":false,"reverse":false,"manual_gear_shift":false,"gear":0},"transform":{"location":{"x":-64.64484405517578,"y":24.471010208129883,"z":-0.006705322302877903},"rotation":{"pitch":0.0,"yaw":0.15919795632362366,"roll":0.0}},"velocity":{"x":1.1294383206461589e-08,"y":8.39991471934809e-08,"z":0.06511299312114716},"angular_velocity":{"x":-8.309423719765618e-05,"y":2.0616167603293434e-05,"z":-7.764105021124124e-07},"acceleration":{"x":5.333549211172794e-07,"y":5.207533604334458e-07,"z":-0.503957986831665},"speed_mps":0.06511299312120232,"speed_kph":0.23440677523632836,"speed_limit_kph":30.0,"collisions_this_frame":[],"waypoint":{"x":-64.64469146728516,"y":24.504404067993164,"z":0.0},"lane_deviation_m":0.03406074643135071,"lane_width":3.5,"goal":{"x":-15.448323249816895,"y":-68.00706481933594,"z":0.6000048518180847},"fault":{"name":"fault_free","severity":1.0},"capture_flags":{"save_rgb":true,"save_depth":false,"video_rgb":true,"video_depth":false}}
{"frame":344,"timestamp":{"delta_seconds":0.05000000074505806,"elapsed_seconds":8.118085820227861},"control":{"throttle":0.0,"steer":0.8019999861717224,"brake":1.0,"hand_brake":false,"reverse":false,"manual_gear_shift":false,"gear":0},"transform":{"location":{"x":-64.64484405517578,"y":24.471010208129883,"z":-0.004041633568704128},"rotation":{"pitch":0.0,"yaw":0.15919795632362366,"roll":0.0}},"velocity":{"x":1.3641824558874305e-08,"y":1.4178231033667998e-08,"z":0.04613758996129036},"angular_velocity":{"x":-4.3479831219883636e-05,"y":7.540530077676522e-06,"z":3.0985643206804525e-07},"acceleration":{"x":4.6948827048254316e-08,"y":-1.3964182699055527e-06,"z":-0.3795080780982971},"speed_mps":0.04613758996129456,"speed_kph":0.16609532386066042,"speed_limit_kph":30.0,"collisions_this_frame":[],"waypoint":{"x":-64.64469146728516,"y":24.504404067993164,"z":0.0},"lane_deviation_m":0.033637892454862595,"lane_width":3.5,"goal":{"x":-15.448323249816895,"y":-68.00706481933594,"z":0.6000048518180847},"fault":{"name":"fault_free","severity":1.0},"capture_flags":{"save_rgb":true,"save_depth":false,"video_rgb":true,"video_depth":false}}
{"frame":345,"timestamp":{"delta_seconds":0.05000000074505806,"elapsed_seconds":8.16808582097292},"control":{"throttle":0.0,"steer":0.8159999847412109,"brake":1.0,"hand_brake":false,"reverse":false,"manual_gear_shift":false,"gear":0},"transform":{"location":{"x":-64.64484405517578,"y":24.471010208129883,"z":-0.002169380197301507},"rotation":{"pitch":0.0,"yaw":0.15919795632362366,"roll":0.0}},"velocity":{"x":-2.3663686565811304e-09,"y":3.087552435943053e-10,"z":0.032249629497528076},"angular_velocity":{"x":5.276971569401212e-05,"y":1.247701766260434e-05,"z":-9.052060931935557e-07},"acceleration":{"x":-3.20163877631785e-07,"y":-2.773895175778307e-07,"z":-0.2777591943740845},"speed_mps":0.032249629497528166,"speed_kph":0.1160986661911014,"speed_limit_kph":30.0,"collisions_this_frame":[],"waypoint":{"x":-64.64469146728516,"y":24.504404067993164,"z":0.0},"lane_deviation_m":0.03346459940075874,"lane_width":3.5,"goal":{"x":-15.448323249816895,"y":-68.00706481933594,"z":0.6000048518180847},"fault":{"name":"fault_free","severity":1.0},"capture_flags":{"save_rgb":true,"save_depth":false,"video_rgb":true,"video_depth":false}}
{"frame":346,"timestamp":{"delta_seconds":0.05000000074505806,"elapsed_seconds":8.218085821717978},"control":{"throttle":0.0,"steer":0.8820000290870667,"brake":1.0,"hand_brake":false,"reverse":false,"manual_gear_shift":false,"gear":0},"transform":{"location":{"x":-64.64484405517578,"y":24.471010208129883,"z":-0.0008690643007867038},"rotation":{"pitch":0.0,"yaw":0.15919795632362366,"roll":0.0}},"velocity":{"x":-5.493098864661761e-09,"y":8.361660697175921e-09,"z":0.02229558862745762},"angular_velocity":{"x":-1.2400661034916993e-05,"y":-6.297386335063493e-06,"z":6.739788460663476e-08},"acceleration":{"x":-6.253460327343419e-08,"y":1.6105812505884387e-07,"z":-0.19908082485198975},"speed_mps":0.022295588627459863,"speed_kph":0.08026411905885551,"speed_limit_kph":30.0,"collisions_this_frame":[],"waypoint":{"x":-64.64469146728516,"y":24.504404067993164,"z":0.0},"lane_deviation_m":0.03340551629662514,"lane_width":3.5,"goal":{"x":-15.448323249816895,"y":-68.00706481933594,"z":0.6000048518180847},"fault":{"name":"fault_free","severity":1.0},"capture_flags":{"save_rgb":true,"save_depth":false,"video_rgb":true,"video_depth":false}}
{"frame":347,"timestamp":{"delta_seconds":0.05000000074505806,"elapsed_seconds":8.268085822463036},"control":{"throttle":0.0,"steer":0.9879999756813049,"brake":1.0,"hand_brake":false,"reverse":false,"manual_gear_shift":false,"gear":0},"transform":{"location":{"x":-64.64484405517578,"y":24.471010208129883,"z":2.5100707716774195e-05},"rotation":{"pitch":0.0,"yaw":0.15919795632362366,"roll":0.0}},"velocity":{"x":-5.31885691046341e-09,"y":-1.0962214247456359e-08,"z":0.015275229699909687},"angular_velocity":{"x":1.3962898265162949e-05,"y":-5.995219453325262e-06,"z":1.0102530012545685e-07},"acceleration":{"x":3.4848390839670174e-09,"y":-3.864774953399319e-07,"z":-0.14040717482566833},"speed_mps":0.015275229699914546,"speed_kph":0.054990826919692364,"speed_limit_kph":30.0,"collisions_this_frame":[],"waypoint":{"x":-64.64469146728516,"y":24.504404067993164,"z":0.0},"lane_deviation_m":0.0333942174911499,"lane_width":3.5,"goal":{"x":-15.448323249816895,"y":-68.00706481933594,"z":0.6000048518180847},"fault":{"name":"fault_free","severity":1.0},"capture_flags":{"save_rgb":true,"save_depth":false,"video_rgb":true,"video_depth":false}}
{"frame":348,"timestamp":{"delta_seconds":0.05000000074505806,"elapsed_seconds":8.318085823208094},"control":{"throttle":0.0,"steer":0.8529999852180481,"brake":1.0,"hand_brake":false,"reverse":false,"manual_gear_shift":false,"gear":0},"transform":{"location":{"x":-64.64484405517578,"y":24.471010208129883,"z":0.0006349944742396474},"rotation":{"pitch":0.0,"yaw":0.15919795632362366,"roll":0.0}},"velocity":{"x":1.2126133430712116e-09,"y":1.5208843073821754e-09,"z":0.010385360568761826},"angular_velocity":{"x":-2.1569052478298545e-05,"y":-3.3140977393486537e-06,"z":3.690578296300373e-07},"acceleration":{"x":1.3062941661701188e-07,"y":2.496619799785549e-07,"z":-0.09779737889766693},"speed_mps":0.010385360568762008,"speed_kph":0.037387298047543226,"speed_limit_kph":30.0,"collisions_this_frame":[],"waypoint":{"x":-64.64469146728516,"y":24.504404067993164,"z":0.0},"lane_deviation_m":0.033400245010852814,"lane_width":3.5,"goal":{"x":-15.448323249816895,"y":-68.00706481933594,"z":0.6000048518180847},"fault":{"name":"fault_free","severity":1.0},"capture_flags":{"save_rgb":true,"save_depth":false,"video_rgb":true,"video_depth":false}}
{"frame":349,"timestamp":{"delta_seconds":0.05000000074505806,"elapsed_seconds":8.368085823953152},"control":{"throttle":0.0,"steer":0.7570000290870667,"brake":1.0,"hand_brake":false,"reverse":false,"manual_gear_shift":false,"gear":0},"transform":{"location":{"x":-64.64484405517578,"y":24.471010208129883,"z":0.0010480880737304688},"rotation":{"pitch":0.0,"yaw":0.15919795632362366,"roll":0.0}},"velocity":{"x":1.2064333532180171e-08,"y":-3.4372245494296294e-08,"z":0.007017049472779036},"angular_velocity":{"x":5.264427454676479e-05,"y":1.825409708544612e-05,"z":-1.4103963508205197e-07},"acceleration":{"x":2.1703441177578497e-07,"y":-7.178625764936442e-07,"z":-0.06736622005701065},"speed_mps":0.007017049472873591,"speed_kph":0.02526137810234493,"speed_limit_kph":30.0,"collisions_this_frame":[],"waypoint":{"x":-64.64469146728516,"y":24.504404067993164,"z":0.0},"lane_deviation_m":0.03341064974665642,"lane_width":3.5,"goal":{"x":-15.448323249816895,"y":-68.00706481933594,"z":0.6000048518180847},"fault":{"name":"fault_free","severity":1.0},"capture_flags":{"save_rgb":true,"save_depth":false,"video_rgb":true,"video_depth":false}}
{"frame":350,"timestamp":{"delta_seconds":0.05000000074505806,"elapsed_seconds":8.41808582469821},"control":{"throttle":0.0,"steer":0.8270000219345093,"brake":1.0,"hand_brake":false,"reverse":false,"manual_gear_shift":false,"gear":0},"transform":{"location":{"x":-64.64484405517578,"y":24.471010208129883,"z":0.0013262939173728228},"rotation":{"pitch":0.0,"yaw":0.15919795632362366,"roll":0.0}},"velocity":{"x":7.983623762086722e-10,"y":-1.0009502560137662e-08,"z":0.004713020287454128},"angular_velocity":{"x":-8.816979061521124e-06,"y":-1.3408449603957706e-06,"z":5.241083727014484e-07},"acceleration":{"x":-2.2531942533987603e-07,"y":4.872548515777453e-07,"z":-0.046080581843853},"speed_mps":0.004713020287464825,"speed_kph":0.01696687303487337,"speed_limit_kph":30.0,"collisions_this_frame":[],"waypoint":{"x":-64.64469146728516,"y":24.504404067993164,"z":0.0},"lane_deviation_m":0.03342053294181824,"lane_width":3.5,"goal":{"x":-15.448323249816895,"y":-68.00706481933594,"z":0.6000048518180847},"fault":{"name":"fault_free","severity":1.0},"capture_flags":{"save_rgb":true,"save_depth":false,"video_rgb":true,"video_depth":false}}
{"frame":351,"timestamp":{"delta_seconds":0.05000000074505806,"elapsed_seconds":8.468085825443268},"control":{"throttle":0.0,"steer":0.8370000123977661,"brake":1.0,"hand_brake":false,"reverse":false,"manual_gear_shift":false,"gear":0},"transform":{"location":{"x":-64.64484405517578,"y":24.471010208129883,"z":0.00151256553363055},"rotation":{"pitch":0.0,"yaw":0.15919795632362366,"roll":0.0}},"velocity":{"x":-1.4143313187275908e-09,"y":1.188357767745174e-08,"z":0.003151225857436657},"angular_velocity":{"x":-7.942900083435234e-06,"y":3.0861744448884565e-07,"z":-1.5062714453506487e-07},"acceleration":{"x":-4.425387345463605e-08,"y":4.3786158698821964e-07,"z":-0.031235888600349426},"speed_mps":0.0031512258574593814,"speed_kph":0.011344413086853774,"speed_limit_kph":30.0,"collisions_this_frame":[],"waypoint":{"x":-64.64469146728516,"y":24.504404067993164,"z":0.0},"lane_deviation_m":0.03342844545841217,"lane_width":3.5,"goal":{"x":-15.448323249816895,"y":-68.00706481933594,"z":0.6000048518180847},"fault":{"name":"fault_free","severity":1.0},"capture_flags":{"save_rgb":true,"save_depth":false,"video_rgb":true,"video_depth":false}}
{"frame":352,"timestamp":{"delta_seconds":0.05000000074505806,"elapsed_seconds":8.518085826188326},"control":{"throttle":0.0,"steer":0.8209999799728394,"brake":1.0,"hand_brake":false,"reverse":false,"manual_gear_shift":false,"gear":0},"transform":{"location":{"x":-64.64484405517578,"y":24.471010208129883,"z":0.0015981292817741632},"rotation":{"pitch":0.0,"yaw":0.15919795632362366,"roll":0.0}},"velocity":{"x":1.1953870782122067e-08,"y":-6.289659637559453e-08,"z":0.000503864255733788},"angular_velocity":{"x":3.028777427971363e-05,"y":6.305371584858221e-07,"z":8.832026310301444e-07},"acceleration":{"x":2.6736404379335e-07,"y":-1.4956035556679126e-06,"z":-0.052947234362363815},"speed_mps":0.0005038642598012296,"speed_kph":0.0018139113352844266,"speed_limit_kph":30.0,"collisions_this_frame":[],"waypoint":{"x":-64.64469146728516,"y":24.504404067993164,"z":0.0},"lane_deviation_m":0.033432427793741226,"lane_width":3.5,"goal":{"x":-15.448323249816895,"y":-68.00706481933594,"z":0.6000048518180847},"fault":{"name":"fault_free","severity":1.0},"capture_flags":{"save_rgb":true,"save_depth":false,"video_rgb":true,"video_depth":false}}
{"frame":353,"timestamp":{"delta_seconds":0.05000000074505806,"elapsed_seconds":8.568085826933384},"control":{"throttle":0.0,"steer":0.8450000286102295,"brake":1.0,"hand_brake":false,"reverse":false,"manual_gear_shift":false,"gear":0},"transform":{"location":{"x":-64.64484405517578,"y":24.471010208129883,"z":0.0016386413481086493},"rotation":{"pitch":0.0,"yaw":0.15919795632362366,"roll":0.0}},"velocity":{"x":-1.853326914158515e-08,"y":4.9324334838729555e-08,"z":0.0009395122178830206},"angular_velocity":{"x":-4.7683210141258314e-05,"y":-1.895372952276375e-05,"z":-8.370470538920927e-08},"acceleration":{"x":-6.097428126849991e-07,"y":2.2444187379733194e-06,"z":0.008712959475815296},"speed_mps":0.000939512219360581,"speed_kph":0.0033822439896980918,"speed_limit_kph":30.0,"collisions_this_frame":[],"waypoint":{"x":-64.64469146728516,"y":24.504404067993164,"z":0.0},"lane_deviation_m":0.03343438729643822,"lane_width":3.5,"goal":{"x":-15.448323249816895,"y":-68.00706481933594,"z":0.6000048518180847},"fault":{"name":"fault_free","severity":1.0},"capture_flags":{"save_rgb":true,"save_depth":false,"video_rgb":true,"video_depth":false}}
{"frame":354,"timestamp":{"delta_seconds":0.05000000074505806,"elapsed_seconds":8.618085827678442},"control":{"throttle":0.0,"steer":0.9300000071525574,"brake":1.0,"hand_brake":false,"reverse":false,"manual_gear_shift":false,"gear":0},"transform":{"location":{"x":-64.64484405517578,"y":24.471010208129883,"z":0.0016878509195521474},"rotation":{"pitch":0.0,"yaw":0.15919795632362366,"roll":0.0}},"velocity":{"x":-2.5561861960454735e-08,"y":6.238931860025332e-08,"z":0.0009802245767787099},"angular_velocity":{"x":-4.806746437679976e-05,"y":-1.7835378457675688e-05,"z":-6.636078353494668e-08},"acceleration":{"x":-1.4057185637739167e-07,"y":2.6129967523047526e-07,"z":0.000814247177913785},"speed_mps":0.0009802245790974824,"speed_kph":0.003528808484750937,"speed_limit_kph":30.0,"collisions_this_frame":[],"waypoint":{"x":-64.64469146728516,"y":24.504404067993164,"z":0.0},"lane_deviation_m":0.03343683481216431,"lane_width":3.5,"goal":{"x":-15.448323249816895,"y":-68.00706481933594,"z":0.6000048518180847},"fault":{"name":"fault_free","severity":1.0},"capture_flags":{"save_rgb":true,"save_depth":false,"video_rgb":true,"video_depth":false}}
{"frame":355,"timestamp":{"delta_seconds":0.05000000074505806,"elapsed_seconds":8.6680858284235},"control":{"throttle":0.0,"steer":0.7839999794960022,"brake":1.0,"hand_brake":false,"reverse":false,"manual_gear_shift":false,"gear":0},"transform":{"location":{"x":-64.64484405517578,"y":24.471010208129883,"z":0.0017336654709652066},"rotation":{"pitch":0.0,"yaw":0.15919795632362366,"roll":0.0}},"velocity":{"x":1.8479020980066707e-08,"y":-5.4859437881304984e-08,"z":0.0008603858877904713},"angular_velocity":{"x":7.243653817567974e-05,"y":2.568734998931177e-05,"z":2.6671278519074804e-08},"acceleration":{"x":8.808176517050015e-07,"y":-2.3449752006854396e-06,"z":-0.0023967737797647715},"speed_mps":0.000860385889737872,"speed_kph":0.0030973892030563394,"speed_limit_kph":30.0,"collisions_this_frame":[],"waypoint":{"x":-64.64469146728516,"y":24.504404067993164,"z":0.0},"lane_deviation_m":0.03343917801976204,"lane_width":3.5,"goal":{"x":-15.448323249816895,"y":-68.00706481933594,"z":0.6000048518180847},"fault":{"name":"fault_free","severity":1.0},"capture_flags":{"save_rgb":true,"save_depth":false,"video_rgb":true,"video_depth":false}}
{"frame":356,"timestamp":{"delta_seconds":0.05000000074505806,"elapsed_seconds":8.718085829168558},"control":{"throttle":0.0,"steer":0.7369999885559082,"brake":1.0,"hand_brake":false,"reverse":false,"manual_gear_shift":false,"gear":0},"transform":{"location":{"x":-64.64484405517578,"y":24.471010208129883,"z":0.0017717742593958974},"rotation":{"pitch":0.0,"yaw":0.15919795632362366,"roll":0.0}},"velocity":{"x":-7.730875661859926e-11,"y":5.8199907115863425e-09,"z":0.000694007845595479},"angular_velocity":{"x":1.1051038200093899e-05,"y":6.187177859828807e-06,"z":-3.4608092391863465e-08},"acceleration":{"x":-3.7112658901605755e-07,"y":1.2135885754105402e-06,"z":-0.003327560843899846},"speed_mps":0.0006940078456198867,"speed_kph":0.002498428244231592,"speed_limit_kph":30.0,"collisions_this_frame":[],"waypoint":{"x":-64.64469146728516,"y":24.504404067993164,"z":0.0},"lane_deviation_m":0.033441174775362015,"lane_width":3.5,"goal":{"x":-15.448323249816895,"y":-68.00706481933594,"z":0.6000048518180847},"fault":{"name":"fault_free","severity":1.0},"capture_flags":{"save_rgb":true,"save_depth":false,"video_rgb":true,"video_depth":false}}
{"frame":357,"timestamp":{"delta_seconds":0.05000000074505806,"elapsed_seconds":8.768085829913616},"control":{"throttle":0.0,"steer":0.8169999718666077,"brake":1.0,"hand_brake":false,"reverse":false,"manual_gear_shift":false,"gear":0},"transform":{"location":{"x":-64.64484405517578,"y":24.471010208129883,"z":0.0018015288515016437},"rotation":{"pitch":0.0,"yaw":0.15919795632362366,"roll":0.0}},"velocity":{"x":5.619670950807176e-09,"y":-9.712065818234805e-09,"z":0.000532445905264467},"angular_velocity":{"x":6.249845228012418e-06,"y":6.2214430727181025e-06,"z":8.368665760372096e-08},"acceleration":{"x":1.1393959198358061e-07,"y":-3.1064109862199984e-07,"z":-0.00323123880662024},"speed_mps":0.0005324459053826996,"speed_kph":0.0019168052593777185,"speed_limit_kph":30.0,"collisions_this_frame":[],"waypoint":{"x":-64.64469146728516,"y":24.504404067993164,"z":0.0},"lane_deviation_m":0.03344276547431946,"lane_width":3.5,"goal":{"x":-15.448323249816895,"y":-68.00706481933594,"z":0.6000048518180847},"fault":{"name":"fault_free","severity":1.0},"capture_flags":{"save_rgb":true,"save_depth":false,"video_rgb":true,"video_depth":false}}
{"frame":358,"timestamp":{"delta_seconds":0.05000000074505806,"elapsed_seconds":8.818085830658674},"control":{"throttle":0.0,"steer":0.8230000138282776,"brake":1.0,"hand_brake":false,"reverse":false,"manual_gear_shift":false,"gear":0},"transform":{"location":{"x":-64.64484405517578,"y":24.471010208129883,"z":0.0018238830380141735},"rotation":{"pitch":0.0,"yaw":0.15919795632362366,"roll":0.0}},"velocity":{"x":2.0679908896426014e-09,"y":1.5903919958759616e-08,"z":0.0003939247108064592},"angular_velocity":{"x":-1.180421622848371e-05,"y":6.3772176872589625e-06,"z":-3.865149977855253e-09},"acceleration":{"x":-7.103360388782676e-08,"y":5.123197297507431e-07,"z":-0.0027704238891601562},"speed_mps":0.0003939247111329318,"speed_kph":0.0014181289600785545,"speed_limit_kph":30.0,"collisions_this_frame":[],"waypoint":{"x":-64.64469146728516,"y":24.504404067993164,"z":0.0},"lane_deviation_m":0.03344397991895676,"lane_width":3.5,"goal":{"x":-15.448323249816895,"y":-68.00706481933594,"z":0.6000048518180847},"fault":{"name":"fault_free","severity":1.0},"capture_flags":{"save_rgb":true,"save_depth":false,"video_rgb":true,"video_depth":false}}
{"frame":359,"timestamp":{"delta_seconds":0.05000000074505806,"elapsed_seconds":8.868085831403732},"control":{"throttle":0.0,"steer":0.6959999799728394,"brake":1.0,"hand_brake":false,"reverse":false,"manual_gear_shift":false,"gear":0},"transform":{"location":{"x":-64.64484405517578,"y":24.471010208129883,"z":0.0018402481218799949},"rotation":{"pitch":0.0,"yaw":0.15919795632362366,"roll":0.0}},"velocity":{"x":-9.928894151300938e-09,"y":4.323446844978207e-08,"z":0.00028560636565089226},"angular_velocity":{"x":-5.908017192268744e-05,"y":-1.3562385902332608e-05,"z":6.421029041803195e-08},"acceleration":{"x":-2.399377194706176e-07,"y":5.466109769258765e-07,"z":-0.0021663669031113386},"speed_mps":0.00028560636909584735,"speed_kph":0.0010281829287450506,"speed_limit_kph":30.0,"collisions_this_frame":[],"waypoint":{"x":-64.64469146728516,"y":24.504404067993164,"z":0.0},"lane_deviation_m":0.03344487398862839,"lane_width":3.5,"goal":{"x":-15.448323249816895,"y":-68.00706481933594,"z":0.6000048518180847},"fault":{"name":"fault_free","severity":1.0},"capture_flags":{"save_rgb":true,"save_depth":false,"video_rgb":true,"video_depth":false}}
{"frame":360,"timestamp":{"delta_seconds":0.05000000074505806,"elapsed_seconds":8.91808583214879},"control":{"throttle":0.0,"steer":0.8019999861717224,"brake":1.0,"hand_brake":false,"reverse":false,"manual_gear_shift":false,"gear":0},"transform":{"location":{"x":-64.64484405517578,"y":24.471010208129883,"z":0.001851959154009819},"rotation":{"pitch":0.0,"yaw":0.15919795632362366,"roll":0.0}},"velocity":{"x":-1.0435007524733919e-08,"y":3.05959559909752e-08,"z":0.00020329475228209049},"angular_velocity":{"x":-4.313880708650686e-05,"y":-1.2770526154781692e-05,"z":9.153659874527875e-08},"acceleration":{"x":-1.012226746865963e-08,"y":-2.527702349652827e-07,"z":-0.0016462323255836964},"speed_mps":0.00020329475485225494,"speed_kph":0.0007318611174681178,"speed_limit_kph":30.0,"collisions_this_frame":[],"waypoint":{"x":-64.64469146728516,"y":24.504404067993164,"z":0.0},"lane_deviation_m":0.03344551846385002,"lane_width":3.5,"goal":{"x":-15.448323249816895,"y":-68.00706481933594,"z":0.6000048518180847},"fault":{"name":"fault_free","severity":1.0},"capture_flags":{"save_rgb":true,"save_depth":false,"video_rgb":true,"video_depth":false}}
{"frame":361,"timestamp":{"delta_seconds":0.05000000074505806,"elapsed_seconds":8.968085832893848},"control":{"throttle":0.0,"steer":0.8379999995231628,"brake":1.0,"hand_brake":false,"reverse":false,"manual_gear_shift":false,"gear":0},"transform":{"location":{"x":-64.64484405517578,"y":24.471010208129883,"z":0.0018543624319136143},"rotation":{"pitch":0.0,"yaw":0.15919795632362366,"roll":0.0}},"velocity":{"x":-2.567013490661907e-09,"y":-1.5970778033391753e-09,"z":7.430076220771298e-05},"angular_velocity":{"x":1.4048706361791119e-05,"y":5.209868163547071e-07,"z":-7.321294503981335e-08},"acceleration":{"x":1.573598922277597e-07,"y":-6.438606305891881e-07,"z":-0.0025798799470067024},"speed_mps":7.43007622692212e-05,"speed_kph":0.00026748274416919636,"speed_limit_kph":30.0,"collisions_this_frame":[],"waypoint":{"x":-64.64469146728516,"y":24.504404067993164,"z":0.0},"lane_deviation_m":0.033445652574300766,"lane_width":3.5,"goal":{"x":-15.448323249816895,"y":-68.00706481933594,"z":0.6000048518180847},"fault":{"name":"fault_free","severity":1.0},"capture_flags":{"save_rgb":true,"save_depth":false,"video_rgb":true,"video_depth":false}}
{"frame":362,"timestamp":{"delta_seconds":0.05000000074505806,"elapsed_seconds":9.018085833638906},"control":{"throttle":0.0,"steer":0.9010000228881836,"brake":1.0,"hand_brake":false,"reverse":false,"manual_gear_shift":false,"gear":0},"transform":{"location":{"x":-64.64484405517578,"y":24.471010208129883,"z":0.0018587112426757812},"rotation":{"pitch":0.0,"yaw":0.15919795632362366,"roll":0.0}},"velocity":{"x":-8.731549927532001e-10,"y":-3.3210312277986986e-09,"z":9.13524636416696e-05},"angular_velocity":{"x":1.1887968867085874e-05,"y":1.5131081454455853e-06,"z":-4.498052774692951e-08},"acceleration":{"x":3.3877171290441765e-08,"y":-3.447906848919047e-08,"z":0.00034103402867913246},"speed_mps":9.13524637062089e-05,"speed_kph":0.0003288688693423521,"speed_limit_kph":30.0,"collisions_this_frame":[],"waypoint":{"x":-64.64469146728516,"y":24.504404067993164,"z":0.0},"lane_deviation_m":0.033445894718170166,"lane_width":3.5,"goal":{"x":-15.448323249816895,"y":-68.00706481933594,"z":0.6000048518180847},"fault":{"name":"fault_free","severity":1.0},"capture_flags":{"save_rgb":true,"save_depth":false,"video_rgb":true,"video_depth":false}}
{"frame":363,"timestamp":{"delta_seconds":0.05000000074505806,"elapsed_seconds":9.068085834383965},"control":{"throttle":0.0,"steer":0.7919999957084656,"brake":1.0,"hand_brake":false,"reverse":false,"manual_gear_shift":false,"gear":0},"transform":{"location":{"x":-64.64484405517578,"y":24.471010208129883,"z":0.0018631363054737449},"rotation":{"pitch":0.0,"yaw":0.15919795632362366,"roll":0.0}},"velocity":{"x":9.44358991006311e-09,"y":-2.633690066033978e-08,"z":8.377074846066535e-05},"angular_velocity":{"x":9.253990356228314e-06,"y":1.949731313288794e-06,"z":-1.0862581945048078e-08},"acceleration":{"x":2.0633490294130752e-07,"y":-4.6031740907892527e-07,"z":-0.00015163430362008512},"speed_mps":8.377075313302245e-05,"speed_kph":0.00030157471127888083,"speed_limit_kph":30.0,"collisions_this_frame":[],"waypoint":{"x":-64.64469146728516,"y":24.504404067993164,"z":0.0},"lane_deviation_m":0.033446140587329865,"lane_width":3.5,"goal":{"x":-15.448323249816895,"y":-68.00706481933594,"z":0.6000048518180847},"fault":{"name":"fault_free","severity":1.0},"capture_flags":{"save_rgb":true,"save_depth":false,"video_rgb":true,"video_depth":false}}
{"frame":364,"timestamp":{"delta_seconds":0.05000000074505806,"elapsed_seconds":9.118085835129023},"control":{"throttle":0.0,"steer":0.746999979019165,"brake":1.0,"hand_brake":false,"reverse":false,"manual_gear_shift":false,"gear":0},"transform":{"location":{"x":-64.64484405517578,"y":24.471010208129883,"z":0.0018669128185138106},"rotation":{"pitch":0.0,"yaw":0.15919795632362366,"roll":0.0}},"velocity":{"x":-1.4495198819020061e-08,"y":3.3061901660857984e-08,"z":7.015228038653731e-05},"angular_velocity":{"x":-3.8950958696659654e-05,"y":-1.778316800482571e-05,"z":3.4068627918770744e-09},"acceleration":{"x":-4.78775746159954e-07,"y":1.1879760677402373e-06,"z":-0.00027236936148256063},"speed_mps":7.015228967490283e-05,"speed_kph":0.00025254824282965017,"speed_limit_kph":30.0,"collisions_this_frame":[],"waypoint":{"x":-64.64469146728516,"y":24.504404067993164,"z":0.0},"lane_deviation_m":0.03344635292887688,"lane_width":3.5,"goal":{"x":-15.448323249816895,"y":-68.00706481933594,"z":0.6000048518180847},"fault":{"name":"fault_free","severity":1.0},"capture_flags":{"save_rgb":true,"save_depth":false,"video_rgb":true,"video_depth":false}}
{"frame":365,"timestamp":{"delta_seconds":0.05000000074505806,"elapsed_seconds":9.16808583587408},"control":{"throttle":0.0,"steer":0.8209999799728394,"brake":1.0,"hand_brake":false,"reverse":false,"manual_gear_shift":false,"gear":0},"transform":{"location":{"x":-64.64484405517578,"y":24.471010208129883,"z":0.001869964529760182},"rotation":{"pitch":0.0,"yaw":0.15919795632362366,"roll":0.0}},"velocity":{"x":-7.236310217706432e-09,"y":2.0506071507497836e-08,"z":5.463599882205017e-05},"angular_velocity":{"x":5.31170007889159e-06,"y":4.183858436590526e-06,"z":3.872993037390415e-09},"acceleration":{"x":1.4517777913169994e-07,"y":-2.5111660306720296e-07,"z":-0.0003103256458416581},"speed_mps":5.463600314944553e-05,"speed_kph":0.00019668961133800393,"speed_limit_kph":30.0,"collisions_this_frame":[],"waypoint":{"x":-64.64469146728516,"y":24.504404067993164,"z":0.0},"lane_deviation_m":0.033446524292230606,"lane_width":3.5,"goal":{"x":-15.448323249816895,"y":-68.00706481933594,"z":0.6000048518180847},"fault":{"name":"fault_free","severity":1.0},"capture_flags":{"save_rgb":true,"save_depth":false,"video_rgb":true,"video_depth":false}}
{"frame":366,"timestamp":{"delta_seconds":0.05000000074505806,"elapsed_seconds":9.218085836619139},"control":{"throttle":0.0,"steer":0.871999979019165,"brake":1.0,"hand_brake":false,"reverse":false,"manual_gear_shift":false,"gear":0},"transform":{"location":{"x":-64.64484405517578,"y":24.471010208129883,"z":0.001872329623438418},"rotation":{"pitch":0.0,"yaw":0.15919795632362366,"roll":0.0}},"velocity":{"x":-5.389261814592317e-10,"y":1.93963227701488e-08,"z":4.1828156099654734e-05},"angular_velocity":{"x":-1.2755122043017764e-05,"y":4.5929364205221646e-06,"z":-4.426750521702161e-08},"acceleration":{"x":1.3394767961472098e-07,"y":-2.2194974746980733e-08,"z":-0.00025615683989599347},"speed_mps":4.182816060030446e-05,"speed_kph":0.00015058137816109605,"speed_limit_kph":30.0,"collisions_this_frame":[],"waypoint":{"x":-64.64469146728516,"y":24.504404067993164,"z":0.0},"lane_deviation_m":0.03344665467739105,"lane_width":3.5,"goal":{"x":-15.448323249816895,"y":-68.00706481933594,"z":0.6000048518180847},"fault":{"name":"fault_free","severity":1.0},"capture_flags":{"save_rgb":true,"save_depth":false,"video_rgb":true,"video_depth":false}}
{"frame":367,"timestamp":{"delta_seconds":0.05000000074505806,"elapsed_seconds":9.268085837364197},"control":{"throttle":0.0,"steer":0.6980000138282776,"brake":1.0,"hand_brake":false,"reverse":false,"manual_gear_shift":false,"gear":0},"transform":{"location":{"x":-64.64484405517578,"y":24.471010208129883,"z":0.0018740080995485187},"rotation":{"pitch":0.0,"yaw":0.15919795632362366,"roll":0.0}},"velocity":{"x":-1.2417558648003535e-10,"y":7.392172651776718e-09,"z":3.0727384000783786e-05},"angular_velocity":{"x":1.4769626432098448e-05,"y":4.273758804629324e-06,"z":-2.0520278098956624e-07},"acceleration":{"x":8.295011788561624e-09,"y":-2.400830112492258e-07,"z":-0.00022201544197741896},"speed_mps":3.07273848902125e-05,"speed_kph":0.000110618585604765,"speed_limit_kph":30.0,"collisions_this_frame":[],"waypoint":{"x":-64.64469146728516,"y":24.504404067993164,"z":0.0},"lane_deviation_m":0.033446747809648514,"lane_width":3.5,"goal":{"x":-15.448323249816895,"y":-68.00706481933594,"z":0.6000048518180847},"fault":{"name":"fault_free","severity":1.0},"capture_flags":{"save_rgb":true,"save_depth":false,"video_rgb":true,"video_depth":false}}
{"frame":368,"timestamp":{"delta_seconds":0.05000000074505806,"elapsed_seconds":9.318085838109255},"control":{"throttle":0.0,"steer":0.8790000081062317,"brake":1.0,"hand_brake":false,"reverse":false,"manual_gear_shift":false,"gear":0},"transform":{"location":{"x":-64.64484405517578,"y":24.471010208129883,"z":0.0018752670148387551},"rotation":{"pitch":0.0,"yaw":0.15919795632362366,"roll":0.0}},"velocity":{"x":3.697895989418498e-09,"y":1.1763461316149915e-08,"z":2.1677016775356606e-05},"angular_velocity":{"x":-1.6870764738996513e-05,"y":5.630673058476532e-06,"z":6.046605705023467e-08},"acceleration":{"x":7.644143096285916e-08,"y":8.742577506382077e-08,"z":-0.0001810073445085436},"speed_mps":2.1677020282606845e-05,"speed_kph":7.803727301738465e-05,"speed_limit_kph":30.0,"collisions_this_frame":[],"waypoint":{"x":-64.64469146728516,"y":24.504404067993164,"z":0.0},"lane_deviation_m":0.033446818590164185,"lane_width":3.5,"goal":{"x":-15.448323249816895,"y":-68.00706481933594,"z":0.6000048518180847},"fault":{"name":"fault_free","severity":1.0},"capture_flags":{"save_rgb":true,"save_depth":false,"video_rgb":true,"video_depth":false}}
{"frame":369,"timestamp":{"delta_seconds":0.05000000074505806,"elapsed_seconds":9.368085838854313},"control":{"throttle":0.0,"steer":0.7699999809265137,"brake":1.0,"hand_brake":false,"reverse":false,"manual_gear_shift":false,"gear":0},"transform":{"location":{"x":-64.64484405517578,"y":24.471010208129883,"z":0.0018752670148387551},"rotation":{"pitch":0.0,"yaw":0.15919795632362366,"roll":0.0}},"velocity":{"x":2.164630252821098e-09,"y":-2.9075785334953252e-08,"z":5.0354001359664835e-06},"angular_velocity":{"x":1.623796924832277e-05,"y":-4.0058051808955497e-07,"z":2.566539194504003e-07},"acceleration":{"x":-3.066531562012642e-08,"y":-8.167849046003539e-07,"z":-0.00033283233642578125},"speed_mps":5.035484546318085e-06,"speed_kph":1.8127744366745106e-05,"speed_limit_kph":30.0,"collisions_this_frame":[],"waypoint":{"x":-64.64469146728516,"y":24.504404067993164,"z":0.0},"lane_deviation_m":0.033446818590164185,"lane_width":3.5,"goal":{"x":-15.448323249816895,"y":-68.00706481933594,"z":0.6000048518180847},"fault":{"name":"fault_free","severity":1.0},"capture_flags":{"save_rgb":true,"save_depth":false,"video_rgb":true,"video_depth":false}}
{"frame":370,"timestamp":{"delta_seconds":0.05000000074505806,"elapsed_seconds":9.418085839599371},"control":{"throttle":0.0,"steer":0.8220000267028809,"brake":1.0,"hand_brake":false,"reverse":false,"manual_gear_shift":false,"gear":0},"transform":{"location":{"x":-64.64484405517578,"y":24.471010208129883,"z":0.0018752670148387551},"rotation":{"pitch":0.0,"yaw":0.15919795632362366,"roll":0.0}},"velocity":{"x":-2.5404496284409106e-08,"y":-3.6106808209979135e-08,"z":8.792877451924141e-06},"angular_velocity":{"x":6.621485954383388e-05,"y":-2.188665712310467e-05,"z":1.6994160034755623e-07},"acceleration":{"x":-5.513825271918904e-07,"y":-1.4062045750051766e-07,"z":7.514954631915316e-05},"speed_mps":8.7929882846838e-06,"speed_kph":3.165475782486168e-05,"speed_limit_kph":30.0,"collisions_this_frame":[],"waypoint":{"x":-64.64469146728516,"y":24.504404067993164,"z":0.0},"lane_deviation_m":0.033446818590164185,"lane_width":3.5,"goal":{"x":-15.448323249816895,"y":-68.00706481933594,"z":0.6000048518180847},"fault":{"name":"fault_free","severity":1.0},"capture_flags":{"save_rgb":true,"save_depth":false,"video_rgb":true,"video_depth":false}}
{"frame":371,"timestamp":{"delta_seconds":0.05000000074505806,"elapsed_seconds":9.468085840344429},"control":{"throttle":0.0,"steer":0.6759999990463257,"brake":1.0,"hand_brake":false,"reverse":false,"manual_gear_shift":false,"gear":0},"transform":{"location":{"x":-64.64484405517578,"y":24.471010208129883,"z":0.001876563997939229},"rotation":{"pitch":0.0,"yaw":0.15919795632362366,"roll":0.0}},"velocity":{"x":3.198868947507094e-10,"y":-4.005491405223438e-08,"z":8.468628038826864e-06},"angular_velocity":{"x":2.784060052363202e-05,"y":-3.236076281609712e-06,"z":2.2307921199171687e-07},"acceleration":{"x":5.144876240592566e-07,"y":-7.89621168451049e-08,"z":-6.484988261945546e-06},"speed_mps":8.468722770198107e-06,"speed_kph":3.0487401972713184e-05,"speed_limit_kph":30.0,"collisions_this_frame":[],"waypoint":{"x":-64.64469146728516,"y":24.504404067993164,"z":0.0},"lane_deviation_m":0.033446893095970154,"lane_width":3.5,"goal":{"x":-15.448323249816895,"y":-68.00706481933594,"z":0.6000048518180847},"fault":{"name":"fault_free","severity":1.0},"capture_flags":{"save_rgb":true,"save_depth":false,"video_rgb":true,"video_depth":false}}
{"frame":372,"timestamp":{"delta_seconds":0.05000000074505806,"elapsed_seconds":9.518085841089487},"control":{"throttle":0.0,"steer":0.6909999847412109,"brake":1.0,"hand_brake":false,"reverse":false,"manual_gear_shift":false,"gear":0},"transform":{"location":{"x":-64.64484405517578,"y":24.471010208129883,"z":0.001876563997939229},"rotation":{"pitch":0.0,"yaw":0.15919795632362366,"roll":0.0}},"velocity":{"x":5.420813575796046e-09,"y":4.56337581056232e-08,"z":7.781982276355848e-06},"angular_velocity":{"x":-3.843603190034628e-05,"y":1.2253979548404459e-05,"z":-1.3073743332370213e-07},"acceleration":{"x":1.0201853228863911e-07,"y":1.713773372102878e-06,"z":-1.373291524942033e-05},"speed_mps":7.782117962008492e-06,"speed_kph":2.8015624663230574e-05,"speed_limit_kph":30.0,"collisions_this_frame":[],"waypoint":{"x":-64.64469146728516,"y":24.504404067993164,"z":0.0},"lane_deviation_m":0.033446893095970154,"lane_width":3.5,"goal":{"x":-15.448323249816895,"y":-68.00706481933594,"z":0.6000048518180847},"fault":{"name":"fault_free","severity":1.0},"capture_flags":{"save_rgb":true,"save_depth":false,"video_rgb":true,"video_depth":false}}
{"frame":373,"timestamp":{"delta_seconds":0.05000000074505806,"elapsed_seconds":9.568085841834545},"control":{"throttle":0.0,"steer":0.7850000262260437,"brake":1.0,"hand_brake":false,"reverse":false,"manual_gear_shift":false,"gear":0},"transform":{"location":{"x":-64.64484405517578,"y":24.471010208129883,"z":0.001876563997939229},"rotation":{"pitch":0.0,"yaw":0.15919795632362366,"roll":0.0}},"velocity":{"x":-5.820823822944021e-09,"y":-4.260015629142799e-08,"z":4.77790808872669e-06},"angular_velocity":{"x":3.957594890380278e-05,"y":-1.1494422324176412e-05,"z":1.358914261118116e-07},"acceleration":{"x":-2.248327461984445e-07,"y":-1.7646783589952975e-06,"z":-6.008148193359375e-05},"speed_mps":4.778101543461165e-06,"speed_kph":1.7201165556460194e-05,"speed_limit_kph":30.0,"collisions_this_frame":[],"waypoint":{"x":-64.64469146728516,"y":24.504404067993164,"z":0.0},"lane_deviation_m":0.033446893095970154,"lane_width":3.5,"goal":{"x":-15.448323249816895,"y":-68.00706481933594,"z":0.6000048518180847},"fault":{"name":"fault_free","severity":1.0},"capture_flags":{"save_rgb":true,"save_depth":false,"video_rgb":true,"video_depth":false}}
{"frame":374,"timestamp":{"delta_seconds":0.05000000074505806,"elapsed_seconds":9.618085842579603},"control":{"throttle":0.0,"steer":0.7509999871253967,"brake":1.0,"hand_brake":false,"reverse":false,"manual_gear_shift":false,"gear":0},"transform":{"location":{"x":-64.64484405517578,"y":24.471010208129883,"z":0.001876563997939229},"rotation":{"pitch":0.0,"yaw":0.15919795632362366,"roll":0.0}},"velocity":{"x":3.970138884312746e-09,"y":2.6215884574298798e-08,"z":4.77790808872669e-06},"angular_velocity":{"x":-1.9583794710342772e-05,"y":7.083197488100268e-06,"z":-1.5522488183705718e-07},"acceleration":{"x":1.9581925414513535e-07,"y":1.3763208244199632e-06,"z":0.0},"speed_mps":4.777981659542731e-06,"speed_kph":1.720073397435383e-05,"speed_limit_kph":30.0,"collisions_this_frame":[],"waypoint":{"x":-64.64469146728516,"y":24.504404067993164,"z":0.0},"lane_deviation_m":0.033446893095970154,"lane_width":3.5,"goal":{"x":-15.448323249816895,"y":-68.00706481933594,"z":0.6000048518180847},"fault":{"name":"fault_free","severity":1.0},"capture_flags":{"save_rgb":true,"save_depth":false,"video_rgb":true,"video_depth":false}}
{"frame":375,"timestamp":{"delta_seconds":0.05000000074505806,"elapsed_seconds":9.668085843324661},"control":{"throttle":0.0,"steer":0.7620000243186951,"brake":1.0,"hand_brake":false,"reverse":false,"manual_gear_shift":false,"gear":0},"transform":{"location":{"x":-64.64484405517578,"y":24.471010208129883,"z":0.0018776702927425504},"rotation":{"pitch":0.0,"yaw":0.15919795632362366,"roll":0.0}},"velocity":{"x":2.6313715650871927e-09,"y":3.729170217070532e-08,"z":3.604888888730784e-06},"angular_velocity":{"x":-3.4247572330059484e-05,"y":5.756819518865086e-06,"z":-1.8793281242324156e-07},"acceleration":{"x":-2.6775346384511067e-08,"y":2.2151635903355782e-07,"z":-2.346038309042342e-05},"speed_mps":3.605082730709764e-06,"speed_kph":1.297829783055515e-05,"speed_limit_kph":30.0,"collisions_this_frame":[],"waypoint":{"x":-64.64469146728516,"y":24.504404067993164,"z":0.0},"lane_deviation_m":0.03344695270061493,"lane_width":3.5,"goal":{"x":-15.448323249816895,"y":-68.00706481933594,"z":0.6000048518180847},"fault":{"name":"fault_free","severity":1.0},"capture_flags":{"save_rgb":true,"save_depth":false,"video_rgb":true,"video_depth":false}}
{"frame":376,"timestamp":{"delta_seconds":0.05000000074505806,"elapsed_seconds":9.71808584406972},"control":{"throttle":0.0,"steer":0.7519999742507935,"brake":1.0,"hand_brake":false,"reverse":false,"manual_gear_shift":false,"gear":0},"transform":{"location":{"x":-64.64484405517578,"y":24.471010208129883,"z":0.0018776702927425504},"rotation":{"pitch":0.0,"yaw":0.15919795632362366,"roll":0.0}},"velocity":{"x":2.2834582225073063e-08,"y":-3.289409988838088e-08,"z":1.8882750509874313e-06},"angular_velocity":{"x":2.671283800737001e-05,"y":2.6874318791669793e-05,"z":1.0076347933818397e-07},"acceleration":{"x":4.04064195436149e-07,"y":-1.4037161690794164e-06,"z":-3.4332275390625e-05},"speed_mps":1.8886995812289594e-06,"speed_kph":6.799318492424254e-06,"speed_limit_kph":30.0,"collisions_this_frame":[],"waypoint":{"x":-64.64469146728516,"y":24.504404067993164,"z":0.0},"lane_deviation_m":0.03344695270061493,"lane_width":3.5,"goal":{"x":-15.448323249816895,"y":-68.00706481933594,"z":0.6000048518180847},"fault":{"name":"fault_free","severity":1.0},"capture_flags":{"save_rgb":true,"save_depth":false,"video_rgb":true,"video_depth":false}}
{"frame":377,"timestamp":{"delta_seconds":0.05000000074505806,"elapsed_seconds":9.768085844814777},"control":{"throttle":0.0,"steer":0.7720000147819519,"brake":1.0,"hand_brake":false,"reverse":false,"manual_gear_shift":false,"gear":0},"transform":{"location":{"x":-64.64484405517578,"y":24.471010208129883,"z":0.0018776702927425504},"rotation":{"pitch":0.0,"yaw":0.15919795632362366,"roll":0.0}},"velocity":{"x":0.0,"y":0.0,"z":0.0},"angular_velocity":{"x":0.0,"y":0.0,"z":0.0},"acceleration":{"x":-4.5669165160688863e-07,"y":6.578819693459081e-07,"z":-3.776550147449598e-05},"speed_mps":0.0,"speed_kph":0.0,"speed_limit_kph":30.0,"collisions_this_frame":[],"waypoint":{"x":-64.64469146728516,"y":24.504404067993164,"z":0.0},"lane_deviation_m":0.03344695270061493,"lane_width":3.5,"goal":{"x":-15.448323249816895,"y":-68.00706481933594,"z":0.6000048518180847},"fault":{"name":"fault_free","severity":1.0},"capture_flags":{"save_rgb":true,"save_depth":false,"video_rgb":true,"video_depth":false}}
{"frame":378,"timestamp":{"delta_seconds":0.05000000074505806,"elapsed_seconds":9.818085845559835},"control":{"throttle":0.0,"steer":0.8109999895095825,"brake":1.0,"hand_brake":false,"reverse":false,"manual_gear_shift":false,"gear":0},"transform":{"location":{"x":-64.64484405517578,"y":24.471010208129883,"z":0.0018776702927425504},"rotation":{"pitch":0.0,"yaw":0.15919795632362366,"roll":0.0}},"velocity":{"x":-6.852842737714582e-10,"y":6.101884969522686e-11,"z":1.0490417707842425e-06},"angular_velocity":{"x":5.473101509778644e-07,"y":-8.081677265181497e-07,"z":-6.830932708368209e-09},"acceleration":{"x":-1.3705685475429163e-08,"y":1.2203770216601129e-09,"z":2.09808349609375e-05},"speed_mps":1.0490419963890745e-06,"speed_kph":3.7765511870006684e-06,"speed_limit_kph":30.0,"collisions_this_frame":[],"waypoint":{"x":-64.64469146728516,"y":24.504404067993164,"z":0.0},"lane_deviation_m":0.03344695270061493,"lane_width":3.5,"goal":{"x":-15.448323249816895,"y":-68.00706481933594,"z":0.6000048518180847},"fault":{"name":"fault_free","severity":1.0},"capture_flags":{"save_rgb":true,"save_depth":false,"video_rgb":true,"video_depth":false}}
{"frame":379,"timestamp":{"delta_seconds":0.05000000074505806,"elapsed_seconds":9.868085846304893},"control":{"throttle":0.0,"steer":0.7910000085830688,"brake":1.0,"hand_brake":false,"reverse":false,"manual_gear_shift":false,"gear":0},"transform":{"location":{"x":-64.64484405517578,"y":24.471010208129883,"z":0.0018776702927425504},"rotation":{"pitch":0.0,"yaw":0.15919795632362366,"roll":0.0}},"velocity":{"x":-9.48841560877156e-10,"y":-9.086221219867241e-10,"z":2.0885468074993696e-06},"angular_velocity":{"x":2.077009412460029e-06,"y":-1.2366729151835898e-06,"z":-1.5120289020842392e-08},"acceleration":{"x":-5.2711457421139585e-09,"y":-1.9392818018104663e-08,"z":2.0790101189049892e-05},"speed_mps":2.08854722068003e-06,"speed_kph":7.5187699944481085e-06,"speed_limit_kph":30.0,"collisions_this_frame":[],"waypoint":{"x":-64.64469146728516,"y":24.504404067993164,"z":0.0},"lane_deviation_m":0.03344695270061493,"lane_width":3.5,"goal":{"x":-15.448323249816895,"y":-68.00706481933594,"z":0.6000048518180847},"fault":{"name":"fault_free","severity":1.0},"capture_flags":{"save_rgb":true,"save_depth":false,"video_rgb":true,"video_depth":false}}
{"frame":380,"timestamp":{"delta_seconds":0.05000000074505806,"elapsed_seconds":9.918085847049952},"control":{"throttle":0.0,"steer":0.7829999923706055,"brake":1.0,"hand_brake":false,"reverse":false,"manual_gear_shift":false,"gear":0},"transform":{"location":{"x":-64.64484405517578,"y":24.471010208129883,"z":0.0018776702927425504},"rotation":{"pitch":0.0,"yaw":0.15919795632362366,"roll":0.0}},"velocity":{"x":1.4306260176510932e-08,"y":4.433244171764272e-08,"z":1.7738342421580455e-06},"angular_velocity":{"x":-6.614429003093392e-05,"y":1.6555863112444058e-05,"z":2.4336927140211628e-08},"acceleration":{"x":3.0510204851452727e-07,"y":9.04821263247868e-07,"z":-6.294251306826482e-06},"speed_mps":1.7744458157749686e-06,"speed_kph":6.388004936789887e-06,"speed_limit_kph":30.0,"collisions_this_frame":[],"waypoint":{"x":-64.64469146728516,"y":24.504404067993164,"z":0.0},"lane_deviation_m":0.03344695270061493,"lane_width":3.5,"goal":{"x":-15.448323249816895,"y":-68.00706481933594,"z":0.6000048518180847},"fault":{"name":"fault_free","severity":1.0},"capture_flags":{"save_rgb":true,"save_depth":false,"video_rgb":true,"video_depth":false}}
{"frame":381,"timestamp":{"delta_seconds":0.05000000074505806,"elapsed_seconds":9.96808584779501},"control":{"throttle":0.0,"steer":0.7129999995231628,"brake":1.0,"hand_brake":false,"reverse":false,"manual_gear_shift":false,"gear":0},"transform":{"location":{"x":-64.64484405517578,"y":24.471010208129883,"z":0.0018776702927425504},"rotation":{"pitch":0.0,"yaw":0.15919795632362366,"roll":0.0}},"velocity":{"x":-5.1760236097209145e-09,"y":-3.0521476457323615e-09,"z":1.3542174883696134e-06},"angular_velocity":{"x":6.447772648243699e-06,"y":-6.461352768383222e-06,"z":-2.3359239875730964e-08},"acceleration":{"x":-3.896456917118485e-07,"y":-9.476917739448254e-07,"z":-8.392335075768642e-06},"speed_mps":1.3542308195546886e-06,"speed_kph":4.875230950396879e-06,"speed_limit_kph":30.0,"collisions_this_frame":[],"waypoint":{"x":-64.64469146728516,"y":24.504404067993164,"z":0.0},"lane_deviation_m":0.03344695270061493,"lane_width":3.5,"goal":{"x":-15.448323249816895,"y":-68.00706481933594,"z":0.6000048518180847},"fault":{"name":"fault_free","severity":1.0},"capture_flags":{"save_rgb":true,"save_depth":false,"video_rgb":true,"video_depth":false}}
