{"frame":4535,"timestamp":{"delta_seconds":0.05000000074505806,"elapsed_seconds":46.199402400292456},"control":{"throttle":0.75,"steer":0.0,"brake":0.0,"hand_brake":false,"reverse":false,"manual_gear_shift":false,"gear":0},"transform":{"location":{"x":-64.64484405517578,"y":24.471010208129883,"z":0.48239994049072266},"rotation":{"pitch":0.0,"yaw":0.15919795632362366,"roll":0.0}},"velocity":{"x":0.0,"y":0.0,"z":-1.470000147819519},"angular_velocity":{"x":0.0,"y":0.0,"z":0.0},"acceleration":{"x":0.0,"y":0.0,"z":-9.80000114440918},"speed_mps":1.470000147819519,"speed_kph":5.2920005321502686,"speed_limit_kph":30.0,"collisions_this_frame":[],"waypoint":{"x":-64.64469146728516,"y":24.504404067993164,"z":0.0},"lane_deviation_m":0.4835544228553772,"lane_width":3.5,"goal":{"x":-18.782678604125977,"y":-64.70809173583984,"z":0.9000048637390137},"fault":{"name":"camera_blackout","severity":1.0},"capture_flags":{"save_rgb":true,"save_depth":false,"video_rgb":true,"video_depth":false}}
{"frame":4536,"timestamp":{"delta_seconds":0.05000000074505806,"elapsed_seconds":46.249402401037514},"control":{"throttle":0.75,"steer":0.0,"brake":0.0,"hand_brake":false,"reverse":false,"manual_gear_shift":false,"gear":0},"transform":{"location":{"x":-64.64484405517578,"y":24.471010208129883,"z":0.394199937582016},"rotation":{"pitch":0.0,"yaw":0.15919795632362366,"roll":0.0}},"velocity":{"x":0.0,"y":0.0,"z":-1.9600002765655518},"angular_velocity":{"x":0.0,"y":0.0,"z":0.0},"acceleration":{"x":0.0,"y":0.0,"z":-9.800003051757812},"speed_mps":1.9600002765655518,"speed_kph":7.056000995635986,"speed_limit_kph":30.0,"collisions_this_frame":[],"waypoint":{"x":-64.64469146728516,"y":24.504404067993164,"z":0.0},"lane_deviation_m":0.39561188220977783,"lane_width":3.5,"goal":{"x":-18.782678604125977,"y":-64.70809173583984,"z":0.9000048637390137},"fault":{"name":"camera_blackout","severity":1.0},"capture_flags":{"save_rgb":true,"save_depth":false,"video_rgb":true,"video_depth":false}}
{"frame":4537,"timestamp":{"delta_seconds":0.05000000074505806,"elapsed_seconds":46.29940240178257},"control":{"throttle":0.75,"steer":0.0,"brake":0.0,"hand_brake":false,"reverse":false,"manual_gear_shift":false,"gear":0},"transform":{"location":{"x":-64.64484405517578,"y":24.471010208129883,"z":0.28150004148483276},"rotation":{"pitch":0.0,"yaw":0.15919795632362366,"roll":0.0}},"velocity":{"x":0.0,"y":0.0,"z":-2.450000286102295},"angular_velocity":{"x":0.0,"y":0.0,"z":0.0},"acceleration":{"x":0.0,"y":0.0,"z":-9.800000190734863},"speed_mps":2.450000286102295,"speed_kph":8.820001029968262,"speed_limit_kph":30.0,"collisions_this_frame":[],"waypoint":{"x":-64.64469146728516,"y":24.504404067993164,"z":0.0},"lane_deviation_m":0.2834738790988922,"lane_width":3.5,"goal":{"x":-18.782678604125977,"y":-64.70809173583984,"z":0.9000048637390137},"fault":{"name":"camera_blackout","severity":1.0},"capture_flags":{"save_rgb":true,"save_depth":false,"video_rgb":true,"video_depth":false}}
{"frame":4538,"timestamp":{"delta_seconds":0.05000000074505806,"elapsed_seconds":46.34940240252763},"control":{"throttle":0.75,"steer":0.0,"brake":0.0,"hand_brake":false,"reverse":false,"manual_gear_shift":false,"gear":0},"transform":{"location":{"x":-64.64484405517578,"y":24.471010208129883,"z":0.1442999690771103},"rotation":{"pitch":0.0,"yaw":0.15919795632362366,"roll":0.0}},"velocity":{"x":0.0,"y":0.0,"z":-2.93999981880188},"angular_velocity":{"x":0.0,"y":0.0,"z":0.0},"acceleration":{"x":0.0,"y":0.0,"z":-9.7999906539917},"speed_mps":2.93999981880188,"speed_kph":10.583999347686769,"speed_limit_kph":30.0,"collisions_this_frame":[],"waypoint":{"x":-64.64469146728516,"y":24.504404067993164,"z":0.0},"lane_deviation_m":0.1481136530637741,"lane_width":3.5,"goal":{"x":-18.782678604125977,"y":-64.70809173583984,"z":0.9000048637390137},"fault":{"name":"camera_blackout","severity":1.0},"capture_flags":{"save_rgb":true,"save_depth":false,"video_rgb":true,"video_depth":false}}
{"frame":4539,"timestamp":{"delta_seconds":0.05000000074505806,"elapsed_seconds":46.39940240327269},"control":{"throttle":0.75,"steer":0.0,"brake":0.0,"hand_brake":false,"reverse":false,"manual_gear_shift":false,"gear":0},"transform":{"location":{"x":-64.64484405517578,"y":24.471010208129883,"z":0.008085555396974087},"rotation":{"pitch":0.0,"yaw":0.15919795632362366,"roll":0.0}},"velocity":{"x":-5.419469744083472e-07,"y":-8.412019269599114e-06,"z":-2.06459641456604},"angular_velocity":{"x":0.0008732697460800409,"y":-0.0008259261958301067,"z":-2.5191848607164502e-08},"acceleration":{"x":-1.0838939488166943e-05,"y":-0.00016824038175400347,"z":17.508068084716797},"speed_mps":2.064596414583248,"speed_kph":7.432547092499693,"speed_limit_kph":30.0,"collisions_this_frame":[],"waypoint":{"x":-64.64469146728516,"y":24.504404067993164,"z":0.0},"lane_deviation_m":0.034359123557806015,"lane_width":3.5,"goal":{"x":-18.782678604125977,"y":-64.70809173583984,"z":0.9000048637390137},"fault":{"name":"camera_blackout","severity":1.0},"capture_flags":{"save_rgb":true,"save_depth":false,"video_rgb":true,"video_depth":false}}
{"frame":4540,"timestamp":{"delta_seconds":0.05000000074505806,"elapsed_seconds":46.44940240401775},"control":{"throttle":0.75,"steer":0.0,"brake":0.0,"hand_brake":false,"reverse":false,"manual_gear_shift":false,"gear":0},"transform":{"location":{"x":-64.64484405517578,"y":24.471010208129883,"z":-0.05158817023038864},"rotation":{"pitch":0.0,"yaw":0.15919795632362366,"roll":0.0}},"velocity":{"x":-1.7941823671208113e-07,"y":-1.4597358131140936e-06,"z":-0.7380887269973755},"angular_velocity":{"x":0.00017217978893313557,"y":-0.0002615972189232707,"z":2.631870721359064e-09},"acceleration":{"x":7.250574526551645e-06,"y":0.0001390456745866686,"z":26.530153274536133},"speed_mps":0.7380887269988408,"speed_kph":2.657119417195827,"speed_limit_kph":30.0,"collisions_this_frame":[],"waypoint":{"x":-64.64469146728516,"y":24.504404067993164,"z":0.0},"lane_deviation_m":0.061453334987163544,"lane_width":3.5,"goal":{"x":-18.782678604125977,"y":-64.70809173583984,"z":0.9000048637390137},"fault":{"name":"camera_blackout","severity":1.0},"capture_flags":{"save_rgb":true,"save_depth":false,"video_rgb":true,"video_depth":false}}
{"frame":4541,"timestamp":{"delta_seconds":0.05000000074505806,"elapsed_seconds":46.499402404762805},"control":{"throttle":0.75,"steer":0.0,"brake":0.0,"hand_brake":false,"reverse":false,"manual_gear_shift":false,"gear":0},"transform":{"location":{"x":-64.64484405517578,"y":24.471010208129883,"z":-0.06773189455270767},"rotation":{"pitch":0.0,"yaw":0.15919795632362366,"roll":0.0}},"velocity":{"x":-3.280591798215937e-08,"y":1.2364070300918684e-07,"z":-0.1120968759059906},"angular_velocity":{"x":4.701039506471716e-05,"y":-4.777070353156887e-05,"z":-3.4607359200578003e-09},"acceleration":{"x":2.9322463888092898e-06,"y":3.166752867400646e-05,"z":12.51983642578125},"speed_mps":0.11209687590606358,"speed_kph":0.40354875326182893,"speed_limit_kph":30.0,"collisions_this_frame":[],"waypoint":{"x":-64.64469146728516,"y":24.504404067993164,"z":0.0},"lane_deviation_m":0.07551676779985428,"lane_width":3.5,"goal":{"x":-18.782678604125977,"y":-64.70809173583984,"z":0.9000048637390137},"fault":{"name":"camera_blackout","severity":1.0},"capture_flags":{"save_rgb":true,"save_depth":false,"video_rgb":true,"video_depth":false}}
{"frame":4542,"timestamp":{"delta_seconds":0.05000000074505806,"elapsed_seconds":46.54940240550786},"control":{"throttle":0.75,"steer":0.0,"brake":0.0,"hand_brake":false,"reverse":false,"manual_gear_shift":false,"gear":0},"transform":{"location":{"x":-64.64484405517578,"y":24.471010208129883,"z":-0.06445319950580597},"rotation":{"pitch":0.0,"yaw":0.15919795632362366,"roll":0.0}},"velocity":{"x":5.457875928982503e-09,"y":8.52586623523166e-08,"z":0.15056157112121582},"angular_velocity":{"x":-4.805379285244271e-05,"y":7.451097189914435e-06,"z":3.2838367580723116e-09},"acceleration":{"x":7.652758426957007e-07,"y":-7.676408131374046e-07,"z":5.253169059753418},"speed_mps":0.15056157112124005,"speed_kph":0.5420216560364642,"speed_limit_kph":30.0,"collisions_this_frame":[],"waypoint":{"x":-64.64469146728516,"y":24.504404067993164,"z":0.0},"lane_deviation_m":0.07259055227041245,"lane_width":3.5,"goal":{"x":-18.782678604125977,"y":-64.70809173583984,"z":0.9000048637390137},"fault":{"name":"camera_blackout","severity":1.0},"capture_flags":{"save_rgb":true,"save_depth":false,"video_rgb":true,"video_depth":false}}
{"frame":4543,"timestamp":{"delta_seconds":0.05000000074505806,"elapsed_seconds":46.59940240625292},"control":{"throttle":0.75,"steer":0.0,"brake":0.0,"hand_brake":false,"reverse":false,"manual_gear_shift":false,"gear":0},"transform":{"location":{"x":-64.64484405517578,"y":24.471010208129883,"z":-0.05396205931901932},"rotation":{"pitch":0.0,"yaw":0.15919795632362366,"roll":0.0}},"velocity":{"x":1.620716538752731e-08,"y":1.847302257829142e-07,"z":0.23337243497371674},"angular_velocity":{"x":-4.269638520781882e-05,"y":2.1952277165837586e-05,"z":5.017054549583122e-10},"acceleration":{"x":2.1498578917089617e-07,"y":1.989431211768533e-06,"z":1.656217336654663},"speed_mps":0.23337243497379043,"speed_kph":0.8401407659056456,"speed_limit_kph":30.0,"collisions_this_frame":[],"waypoint":{"x":-64.64469146728516,"y":24.504404067993164,"z":0.0},"lane_deviation_m":0.06345925480127335,"lane_width":3.5,"goal":{"x":-18.782678604125977,"y":-64.70809173583984,"z":0.9000048637390137},"fault":{"name":"camera_blackout","severity":1.0},"capture_flags":{"save_rgb":true,"save_depth":false,"video_rgb":true,"video_depth":false}}
{"frame":4544,"timestamp":{"delta_seconds":0.05000000074505806,"elapsed_seconds":46.64940240699798},"control":{"throttle":0.75,"steer":0.0,"brake":0.0,"hand_brake":false,"reverse":false,"manual_gear_shift":false,"gear":0},"transform":{"location":{"x":-64.64484405517578,"y":24.471010208129883,"z":-0.04207824543118477},"rotation":{"pitch":0.0,"yaw":0.15919795632362366,"roll":0.0}},"velocity":{"x":2.3526395054318527e-08,"y":1.8543867552622828e-09,"z":0.23370592296123505},"angular_velocity":{"x":-1.3488269360095728e-05,"y":3.167600152664818e-05,"z":2.7403021518601633e-10},"acceleration":{"x":1.4638459333582432e-07,"y":-3.6575167996488744e-06,"z":0.006669759750366211},"speed_mps":0.23370592296123624,"speed_kph":0.8413413226604505,"speed_limit_kph":30.0,"collisions_this_frame":[],"waypoint":{"x":-64.64469146728516,"y":24.504404067993164,"z":0.0},"lane_deviation_m":0.05371919646859169,"lane_width":3.5,"goal":{"x":-18.782678604125977,"y":-64.70809173583984,"z":0.9000048637390137},"fault":{"name":"camera_blackout","severity":1.0},"capture_flags":{"save_rgb":true,"save_depth":false,"video_rgb":true,"video_depth":false}}
{"frame":4545,"timestamp":{"delta_seconds":0.05000000074505806,"elapsed_seconds":46.69940240774304},"control":{"throttle":0.75,"steer":0.0,"brake":0.0,"hand_brake":false,"reverse":false,"manual_gear_shift":false,"gear":0},"transform":{"location":{"x":-64.63247680664062,"y":24.471046447753906,"z":-0.031377408653497696},"rotation":{"pitch":0.014541472308337688,"yaw":0.15892018377780914,"roll":-6.103515261202119e-05}},"velocity":{"x":0.6032189130783081,"y":0.0016932974103838205,"z":0.2014356553554535},"angular_velocity":{"x":0.0018380200490355492,"y":-0.6498922109603882,"z":0.0004675326053984463},"acceleration":{"x":12.06437873840332,"y":0.03386591002345085,"z":-0.6454053521156311},"speed_mps":0.6359656025289233,"speed_kph":2.289476169104124,"speed_limit_kph":30.0,"collisions_this_frame":[],"waypoint":{"x":-64.63232421875,"y":24.504438400268555,"z":0.0},"lane_deviation_m":0.045821256935596466,"lane_width":3.5,"goal":{"x":-18.782678604125977,"y":-64.70809173583984,"z":0.9000048637390137},"fault":{"name":"camera_blackout","severity":1.0},"capture_flags":{"save_rgb":true,"save_depth":false,"video_rgb":true,"video_depth":false}}
{"frame":4546,"timestamp":{"delta_seconds":0.05000000074505806,"elapsed_seconds":46.749402408488095},"control":{"throttle":0.75,"steer":0.0,"brake":0.0,"hand_brake":false,"reverse":false,"manual_gear_shift":false,"gear":0},"transform":{"location":{"x":-64.58267974853516,"y":24.47118377685547,"z":-0.022708091884851456},"rotation":{"pitch":0.04654773697257042,"yaw":0.15889814496040344,"roll":-6.103514533606358e-05}},"velocity":{"x":1.2323728799819946,"y":0.0034191813319921494,"z":0.16076454520225525},"angular_velocity":{"x":0.0015348426532000303,"y":-0.5740026831626892,"z":0.0001668730255914852},"acceleration":{"x":12.58307933807373,"y":0.03451767936348915,"z":-0.8134222030639648},"speed_mps":1.242819313138553,"speed_kph":4.474149527298791,"speed_limit_kph":30.0,"collisions_this_frame":[],"waypoint":{"x":-64.58252716064453,"y":24.504575729370117,"z":0.0},"lane_deviation_m":0.04038196802139282,"lane_width":3.5,"goal":{"x":-18.782678604125977,"y":-64.70809173583984,"z":0.9000048637390137},"fault":{"name":"camera_blackout","severity":1.0},"capture_flags":{"save_rgb":true,"save_depth":false,"video_rgb":true,"video_depth":false}}
{"frame":4547,"timestamp":{"delta_seconds":0.05000000074505806,"elapsed_seconds":46.79940240923315},"control":{"throttle":0.75,"steer":-0.0020541141275316477,"brake":0.0,"hand_brake":false,"reverse":false,"manual_gear_shift":false,"gear":0},"transform":{"location":{"x":-64.5017318725586,"y":24.471338272094727,"z":-0.015995673835277557},"rotation":{"pitch":0.07300788909196854,"yaw":0.15566667914390564,"roll":0.00023225622135214508}},"velocity":{"x":1.7996680736541748,"y":0.0026576744858175516,"z":0.12241675704717636},"angular_velocity":{"x":-0.003982089459896088,"y":-0.38314199447631836,"z":-0.08334442973136902},"acceleration":{"x":11.345903396606445,"y":-0.015230136923491955,"z":-0.7669557332992554},"speed_mps":1.8038287338241812,"speed_kph":6.493783441767053,"speed_limit_kph":30.0,"collisions_this_frame":[],"waypoint":{"x":-64.5015869140625,"y":24.50480079650879,"z":0.0},"lane_deviation_m":0.03708939254283905,"lane_width":3.5,"goal":{"x":-18.782678604125977,"y":-64.70809173583984,"z":0.9000048637390137},"fault":{"name":"camera_blackout","severity":1.0},"capture_flags":{"save_rgb":true,"save_depth":false,"video_rgb":true,"video_depth":false}}
{"frame":4548,"timestamp":{"delta_seconds":0.05000000074505806,"elapsed_seconds":46.84940240997821},"control":{"throttle":0.75,"steer":-0.0020541141275316477,"brake":0.0,"hand_brake":false,"reverse":false,"manual_gear_shift":false,"gear":0},"transform":{"location":{"x":-64.3969497680664,"y":24.471508026123047,"z":-0.010951461270451546},"rotation":{"pitch":0.0876176655292511,"yaw":0.1508173793554306,"roll":0.0003755573707167059}},"velocity":{"x":2.2370376586914062,"y":0.003019866067916155,"z":0.09030738472938538},"angular_velocity":{"x":-0.0009057528804987669,"y":-0.17254818975925446,"z":-0.10212702304124832},"acceleration":{"x":8.747391700744629,"y":0.007243831641972065,"z":-0.6421874761581421},"speed_mps":2.2388617710192067,"speed_kph":8.059902375669145,"speed_limit_kph":30.0,"collisions_this_frame":[],"waypoint":{"x":-64.39681243896484,"y":24.50509262084961,"z":0.0},"lane_deviation_m":0.035325322300195694,"lane_width":3.5,"goal":{"x":-18.782678604125977,"y":-64.70809173583984,"z":0.9000048637390137},"fault":{"name":"camera_blackout","severity":1.0},"capture_flags":{"save_rgb":true,"save_depth":false,"video_rgb":true,"video_depth":false}}
{"frame":4549,"timestamp":{"delta_seconds":0.05000000074505806,"elapsed_seconds":46.89940241072327},"control":{"throttle":0.75,"steer":-0.0013186229625716805,"brake":0.0,"hand_brake":false,"reverse":false,"manual_gear_shift":false,"gear":0},"transform":{"location":{"x":-64.27485656738281,"y":24.471725463867188,"z":-0.007241630461066961},"rotation":{"pitch":0.0915040373802185,"yaw":0.14680525660514832,"roll":0.00028766272589564323}},"velocity":{"x":2.572375535964966,"y":0.004248976707458496,"z":0.06511035561561584},"angular_velocity":{"x":0.0018989722011610866,"y":-0.028278294950723648,"z":-0.058106545358896255},"acceleration":{"x":6.706757545471191,"y":0.024582212790846825,"z":-0.5039405822753906},"speed_mps":2.573202928305985,"speed_kph":9.263530541901547,"speed_limit_kph":30.0,"collisions_this_frame":[],"waypoint":{"x":-64.27472686767578,"y":24.50543212890625,"z":0.0},"lane_deviation_m":0.034476038068532944,"lane_width":3.5,"goal":{"x":-18.782678604125977,"y":-64.70809173583984,"z":0.9000048637390137},"fault":{"name":"camera_blackout","severity":1.0},"capture_flags":{"save_rgb":true,"save_depth":false,"video_rgb":true,"video_depth":false}}
{"frame":4550,"timestamp":{"delta_seconds":0.05000000074505806,"elapsed_seconds":46.94940241146833},"control":{"throttle":0.75,"steer":-0.0013186229625716805,"brake":0.0,"hand_brake":false,"reverse":false,"manual_gear_shift":false,"gear":0},"transform":{"location":{"x":-64.13732147216797,"y":24.47197723388672,"z":-0.004571838304400444},"rotation":{"pitch":0.09042487293481827,"yaw":0.1425752490758896,"roll":0.00023623197921551764}},"velocity":{"x":2.867130756378174,"y":0.004746371880173683,"z":0.046138323843479156},"angular_velocity":{"x":0.0006201565265655518,"y":0.04688185453414917,"z":-0.08530431985855103},"acceleration":{"x":5.89510440826416,"y":0.009947903454303741,"z":-0.37944063544273376},"speed_mps":2.8675058931313098,"speed_kph":10.323021215272716,"speed_limit_kph":30.0,"collisions_this_frame":[],"waypoint":{"x":-64.13719940185547,"y":24.505813598632812,"z":0.0},"lane_deviation_m":0.034144047647714615,"lane_width":3.5,"goal":{"x":-18.782678604125977,"y":-64.70809173583984,"z":0.9000048637390137},"fault":{"name":"camera_blackout","severity":1.0},"capture_flags":{"save_rgb":true,"save_depth":false,"video_rgb":true,"video_depth":false}}
{"frame":4551,"timestamp":{"delta_seconds":0.05000000074505806,"elapsed_seconds":46.999402412213385},"control":{"throttle":0.75,"steer":-0.0020725217182189226,"brake":0.0,"hand_brake":false,"reverse":false,"manual_gear_shift":false,"gear":0},"transform":{"location":{"x":-63.98521423339844,"y":24.472213745117188,"z":-0.0026821517385542393},"rotation":{"pitch":0.08746739476919174,"yaw":0.1363358497619629,"roll":0.0003951889229938388}},"velocity":{"x":3.1576366424560547,"y":0.0036994251422584057,"z":0.03224877268075943},"angular_velocity":{"x":-0.0034067686647176743,"y":0.06306809931993484,"z":-0.13977718353271484},"acceleration":{"x":5.810117721557617,"y":-0.02093893475830555,"z":-0.27779102325439453},"speed_mps":3.157803482623158,"speed_kph":11.368092537443369,"speed_limit_kph":30.0,"collisions_this_frame":[],"waypoint":{"x":-63.9743766784668,"y":24.505924224853516,"z":0.0},"lane_deviation_m":0.035511165857315063,"lane_width":3.5,"goal":{"x":-18.782678604125977,"y":-64.70809173583984,"z":0.9000048637390137},"fault":{"name":"camera_blackout","severity":1.0},"capture_flags":{"save_rgb":true,"save_depth":false,"video_rgb":true,"video_depth":false}}
{"frame":4552,"timestamp":{"delta_seconds":0.05000000074505806,"elapsed_seconds":47.04940241295844},"control":{"throttle":0.75,"steer":-0.0020725217182189226,"brake":0.0,"hand_brake":false,"reverse":false,"manual_gear_shift":false,"gear":0},"transform":{"location":{"x":-63.81913375854492,"y":24.47243309020996,"z":-0.001361846923828125},"rotation":{"pitch":0.08405230194330215,"yaw":0.12885762751102448,"roll":0.0004914975725114346}},"velocity":{"x":3.4319660663604736,"y":0.0034248398151248693,"z":0.022295931354165077},"angular_velocity":{"x":-0.0014377494808286428,"y":0.06964111328125,"z":-0.15540426969528198},"acceleration":{"x":5.486588478088379,"y":-0.005491706542670727,"z":-0.19905683398246765},"speed_mps":3.4320401977151276,"speed_kph":12.35534471177446,"speed_limit_kph":30.0,"collisions_this_frame":[],"waypoint":{"x":-63.79067611694336,"y":24.504383087158203,"z":0.0},"lane_deviation_m":0.04280764237046242,"lane_width":3.5,"goal":{"x":-18.782678604125977,"y":-64.70809173583984,"z":0.9000048637390137},"fault":{"name":"camera_blackout","severity":1.0},"capture_flags":{"save_rgb":true,"save_depth":false,"video_rgb":true,"video_depth":false}}
{"frame":4553,"timestamp":{"delta_seconds":0.05000000074505806,"elapsed_seconds":47.0994024137035},"control":{"throttle":0.75,"steer":-0.0024433888029307127,"brake":0.0,"hand_brake":false,"reverse":false,"manual_gear_shift":false,"gear":0},"transform":{"location":{"x":-63.63936996459961,"y":24.47262191772461,"z":-0.0004483032098505646},"rotation":{"pitch":0.08075331896543503,"yaw":0.11971550434827805,"roll":0.0006264285766519606}},"velocity":{"x":3.7016825675964355,"y":0.0024156596045941114,"z":0.015276212245225906},"angular_velocity":{"x":-0.002461386378854513,"y":0.06584811955690384,"z":-0.19311466813087463},"acceleration":{"x":5.394330024719238,"y":-0.020183604210615158,"z":-0.140394389629364},"speed_mps":3.7017148768265806,"speed_kph":13.326173556575691,"speed_limit_kph":30.0,"collisions_this_frame":[],"waypoint":{"x":-63.59187316894531,"y":24.500627517700195,"z":0.0},"lane_deviation_m":0.05514036864042282,"lane_width":3.5,"goal":{"x":-18.782678604125977,"y":-64.70809173583984,"z":0.9000048637390137},"fault":{"name":"camera_blackout","severity":1.0},"capture_flags":{"save_rgb":true,"save_depth":false,"video_rgb":true,"video_depth":false}}
{"frame":6041,"timestamp":{"delta_seconds":0.05000000074505806,"elapsed_seconds":63.05446591600776},"control":{"throttle":0.75,"steer":0.0,"brake":0.0,"hand_brake":false,"reverse":false,"manual_gear_shift":false,"gear":0},"transform":{"location":{"x":-64.64484405517578,"y":24.471010208129883,"z":0.48239994049072266},"rotation":{"pitch":0.0,"yaw":0.15919795632362366,"roll":0.0}},"velocity":{"x":0.0,"y":0.0,"z":-1.470000147819519},"angular_velocity":{"x":0.0,"y":0.0,"z":0.0},"acceleration":{"x":0.0,"y":0.0,"z":-9.80000114440918},"speed_mps":1.470000147819519,"speed_kph":5.2920005321502686,"speed_limit_kph":30.0,"collisions_this_frame":[],"waypoint":{"x":-64.64469146728516,"y":24.504404067993164,"z":0.0},"lane_deviation_m":0.4835544228553772,"lane_width":3.5,"goal":{"x":-27.16025161743164,"y":137.04421997070312,"z":0.5999999642372131},"fault":{"name":"none","severity":0.0},"capture_flags":{"save_rgb":true,"save_depth":false,"video_rgb":true,"video_depth":false}}
{"frame":6042,"timestamp":{"delta_seconds":0.05000000074505806,"elapsed_seconds":63.104465916752815},"control":{"throttle":0.75,"steer":0.0,"brake":0.0,"hand_brake":false,"reverse":false,"manual_gear_shift":false,"gear":0},"transform":{"location":{"x":-64.64484405517578,"y":24.471010208129883,"z":0.394199937582016},"rotation":{"pitch":0.0,"yaw":0.15919795632362366,"roll":0.0}},"velocity":{"x":0.0,"y":0.0,"z":-1.9600002765655518},"angular_velocity":{"x":0.0,"y":0.0,"z":0.0},"acceleration":{"x":0.0,"y":0.0,"z":-9.800003051757812},"speed_mps":1.9600002765655518,"speed_kph":7.056000995635986,"speed_limit_kph":30.0,"collisions_this_frame":[],"waypoint":{"x":-64.64469146728516,"y":24.504404067993164,"z":0.0},"lane_deviation_m":0.39561188220977783,"lane_width":3.5,"goal":{"x":-27.16025161743164,"y":137.04421997070312,"z":0.5999999642372131},"fault":{"name":"none","severity":0.0},"capture_flags":{"save_rgb":true,"save_depth":false,"video_rgb":true,"video_depth":false}}
{"frame":6043,"timestamp":{"delta_seconds":0.05000000074505806,"elapsed_seconds":63.15446591749787},"control":{"throttle":0.75,"steer":0.0,"brake":0.0,"hand_brake":false,"reverse":false,"manual_gear_shift":false,"gear":0},"transform":{"location":{"x":-64.64484405517578,"y":24.471010208129883,"z":0.28150004148483276},"rotation":{"pitch":0.0,"yaw":0.15919795632362366,"roll":0.0}},"velocity":{"x":0.0,"y":0.0,"z":-2.450000286102295},"angular_velocity":{"x":0.0,"y":0.0,"z":0.0},"acceleration":{"x":0.0,"y":0.0,"z":-9.800000190734863},"speed_mps":2.450000286102295,"speed_kph":8.820001029968262,"speed_limit_kph":30.0,"collisions_this_frame":[],"waypoint":{"x":-64.64469146728516,"y":24.504404067993164,"z":0.0},"lane_deviation_m":0.2834738790988922,"lane_width":3.5,"goal":{"x":-27.16025161743164,"y":137.04421997070312,"z":0.5999999642372131},"fault":{"name":"none","severity":0.0},"capture_flags":{"save_rgb":true,"save_depth":false,"video_rgb":true,"video_depth":false}}
{"frame":6044,"timestamp":{"delta_seconds":0.05000000074505806,"elapsed_seconds":63.20446591824293},"control":{"throttle":0.75,"steer":0.0,"brake":0.0,"hand_brake":false,"reverse":false,"manual_gear_shift":false,"gear":0},"transform":{"location":{"x":-64.64484405517578,"y":24.471010208129883,"z":0.1442999690771103},"rotation":{"pitch":0.0,"yaw":0.15919795632362366,"roll":0.0}},"velocity":{"x":0.0,"y":0.0,"z":-2.93999981880188},"angular_velocity":{"x":0.0,"y":0.0,"z":0.0},"acceleration":{"x":0.0,"y":0.0,"z":-9.7999906539917},"speed_mps":2.93999981880188,"speed_kph":10.583999347686769,"speed_limit_kph":30.0,"collisions_this_frame":[],"waypoint":{"x":-64.64469146728516,"y":24.504404067993164,"z":0.0},"lane_deviation_m":0.1481136530637741,"lane_width":3.5,"goal":{"x":-27.16025161743164,"y":137.04421997070312,"z":0.5999999642372131},"fault":{"name":"none","severity":0.0},"capture_flags":{"save_rgb":true,"save_depth":false,"video_rgb":true,"video_depth":false}}
{"frame":6045,"timestamp":{"delta_seconds":0.05000000074505806,"elapsed_seconds":63.25446591898799},"control":{"throttle":0.75,"steer":0.0,"brake":0.0,"hand_brake":false,"reverse":false,"manual_gear_shift":false,"gear":0},"transform":{"location":{"x":-64.64484405517578,"y":24.471010208129883,"z":0.008085555396974087},"rotation":{"pitch":0.0,"yaw":0.15919795632362366,"roll":0.0}},"velocity":{"x":-5.419469744083472e-07,"y":-8.412019269599114e-06,"z":-2.06459641456604},"angular_velocity":{"x":0.0008732697460800409,"y":-0.0008259261958301067,"z":-2.5191848607164502e-08},"acceleration":{"x":-1.0838939488166943e-05,"y":-0.00016824038175400347,"z":17.508068084716797},"speed_mps":2.064596414583248,"speed_kph":7.432547092499693,"speed_limit_kph":30.0,"collisions_this_frame":[],"waypoint":{"x":-64.64469146728516,"y":24.504404067993164,"z":0.0},"lane_deviation_m":0.034359123557806015,"lane_width":3.5,"goal":{"x":-27.16025161743164,"y":137.04421997070312,"z":0.5999999642372131},"fault":{"name":"none","severity":0.0},"capture_flags":{"save_rgb":true,"save_depth":false,"video_rgb":true,"video_depth":false}}
{"frame":6046,"timestamp":{"delta_seconds":0.05000000074505806,"elapsed_seconds":63.30446591973305},"control":{"throttle":0.75,"steer":0.0,"brake":0.0,"hand_brake":false,"reverse":false,"manual_gear_shift":false,"gear":0},"transform":{"location":{"x":-64.64484405517578,"y":24.471010208129883,"z":-0.05158817023038864},"rotation":{"pitch":0.0,"yaw":0.15919795632362366,"roll":0.0}},"velocity":{"x":-1.7941823671208113e-07,"y":-1.4597358131140936e-06,"z":-0.7380887269973755},"angular_velocity":{"x":0.00017217978893313557,"y":-0.0002615972189232707,"z":2.631870721359064e-09},"acceleration":{"x":7.250574526551645e-06,"y":0.0001390456745866686,"z":26.530153274536133},"speed_mps":0.7380887269988408,"speed_kph":2.657119417195827,"speed_limit_kph":30.0,"collisions_this_frame":[],"waypoint":{"x":-64.64469146728516,"y":24.504404067993164,"z":0.0},"lane_deviation_m":0.061453334987163544,"lane_width":3.5,"goal":{"x":-27.16025161743164,"y":137.04421997070312,"z":0.5999999642372131},"fault":{"name":"none","severity":0.0},"capture_flags":{"save_rgb":true,"save_depth":false,"video_rgb":true,"video_depth":false}}
{"frame":6047,"timestamp":{"delta_seconds":0.05000000074505806,"elapsed_seconds":63.354465920478106},"control":{"throttle":0.75,"steer":0.0,"brake":0.0,"hand_brake":false,"reverse":false,"manual_gear_shift":false,"gear":0},"transform":{"location":{"x":-64.64484405517578,"y":24.471010208129883,"z":-0.06773189455270767},"rotation":{"pitch":0.0,"yaw":0.15919795632362366,"roll":0.0}},"velocity":{"x":-3.280591798215937e-08,"y":1.2364070300918684e-07,"z":-0.1120968759059906},"angular_velocity":{"x":4.701039506471716e-05,"y":-4.777070353156887e-05,"z":-3.4607359200578003e-09},"acceleration":{"x":2.9322463888092898e-06,"y":3.166752867400646e-05,"z":12.51983642578125},"speed_mps":0.11209687590606358,"speed_kph":0.40354875326182893,"speed_limit_kph":30.0,"collisions_this_frame":[],"waypoint":{"x":-64.64469146728516,"y":24.504404067993164,"z":0.0},"lane_deviation_m":0.07551676779985428,"lane_width":3.5,"goal":{"x":-27.16025161743164,"y":137.04421997070312,"z":0.5999999642372131},"fault":{"name":"none","severity":0.0},"capture_flags":{"save_rgb":true,"save_depth":false,"video_rgb":true,"video_depth":false}}
{"frame":6048,"timestamp":{"delta_seconds":0.05000000074505806,"elapsed_seconds":63.404465921223164},"control":{"throttle":0.75,"steer":0.0,"brake":0.0,"hand_brake":false,"reverse":false,"manual_gear_shift":false,"gear":0},"transform":{"location":{"x":-64.64484405517578,"y":24.471010208129883,"z":-0.06445319950580597},"rotation":{"pitch":0.0,"yaw":0.15919795632362366,"roll":0.0}},"velocity":{"x":5.457875928982503e-09,"y":8.52586623523166e-08,"z":0.15056157112121582},"angular_velocity":{"x":-4.805379285244271e-05,"y":7.451097189914435e-06,"z":3.2838367580723116e-09},"acceleration":{"x":7.652758426957007e-07,"y":-7.676408131374046e-07,"z":5.253169059753418},"speed_mps":0.15056157112124005,"speed_kph":0.5420216560364642,"speed_limit_kph":30.0,"collisions_this_frame":[],"waypoint":{"x":-64.64469146728516,"y":24.504404067993164,"z":0.0},"lane_deviation_m":0.07259055227041245,"lane_width":3.5,"goal":{"x":-27.16025161743164,"y":137.04421997070312,"z":0.5999999642372131},"fault":{"name":"none","severity":0.0},"capture_flags":{"save_rgb":true,"save_depth":false,"video_rgb":true,"video_depth":false}}
{"frame":6049,"timestamp":{"delta_seconds":0.05000000074505806,"elapsed_seconds":63.45446592196822},"control":{"throttle":0.75,"steer":0.0,"brake":0.0,"hand_brake":false,"reverse":false,"manual_gear_shift":false,"gear":0},"transform":{"location":{"x":-64.64484405517578,"y":24.471010208129883,"z":-0.05396205931901932},"rotation":{"pitch":0.0,"yaw":0.15919795632362366,"roll":0.0}},"velocity":{"x":1.620716538752731e-08,"y":1.847302257829142e-07,"z":0.23337243497371674},"angular_velocity":{"x":-4.269638520781882e-05,"y":2.1952277165837586e-05,"z":5.017054549583122e-10},"acceleration":{"x":2.1498578917089617e-07,"y":1.989431211768533e-06,"z":1.656217336654663},"speed_mps":0.23337243497379043,"speed_kph":0.8401407659056456,"speed_limit_kph":30.0,"collisions_this_frame":[],"waypoint":{"x":-64.64469146728516,"y":24.504404067993164,"z":0.0},"lane_deviation_m":0.06345925480127335,"lane_width":3.5,"goal":{"x":-27.16025161743164,"y":137.04421997070312,"z":0.5999999642372131},"fault":{"name":"none","severity":0.0},"capture_flags":{"save_rgb":true,"save_depth":false,"video_rgb":true,"video_depth":false}}
{"frame":6050,"timestamp":{"delta_seconds":0.05000000074505806,"elapsed_seconds":63.50446592271328},"control":{"throttle":0.75,"steer":0.0,"brake":0.0,"hand_brake":false,"reverse":false,"manual_gear_shift":false,"gear":0},"transform":{"location":{"x":-64.64484405517578,"y":24.471010208129883,"z":-0.04207824543118477},"rotation":{"pitch":0.0,"yaw":0.15919795632362366,"roll":0.0}},"velocity":{"x":2.3526395054318527e-08,"y":1.8543867552622828e-09,"z":0.23370592296123505},"angular_velocity":{"x":-1.3488269360095728e-05,"y":3.167600152664818e-05,"z":2.7403021518601633e-10},"acceleration":{"x":1.4638459333582432e-07,"y":-3.6575167996488744e-06,"z":0.006669759750366211},"speed_mps":0.23370592296123624,"speed_kph":0.8413413226604505,"speed_limit_kph":30.0,"collisions_this_frame":[],"waypoint":{"x":-64.64469146728516,"y":24.504404067993164,"z":0.0},"lane_deviation_m":0.05371919646859169,"lane_width":3.5,"goal":{"x":-27.16025161743164,"y":137.04421997070312,"z":0.5999999642372131},"fault":{"name":"none","severity":0.0},"capture_flags":{"save_rgb":true,"save_depth":false,"video_rgb":true,"video_depth":false}}
{"frame":6051,"timestamp":{"delta_seconds":0.05000000074505806,"elapsed_seconds":63.55446592345834},"control":{"throttle":0.75,"steer":0.0,"brake":0.0,"hand_brake":false,"reverse":false,"manual_gear_shift":false,"gear":0},"transform":{"location":{"x":-64.63247680664062,"y":24.471046447753906,"z":-0.031377408653497696},"rotation":{"pitch":0.014541472308337688,"yaw":0.15892018377780914,"roll":-6.103515261202119e-05}},"velocity":{"x":0.6032189130783081,"y":0.0016932974103838205,"z":0.2014356553554535},"angular_velocity":{"x":0.0018380200490355492,"y":-0.6498922109603882,"z":0.0004675326053984463},"acceleration":{"x":12.06437873840332,"y":0.03386591002345085,"z":-0.6454053521156311},"speed_mps":0.6359656025289233,"speed_kph":2.289476169104124,"speed_limit_kph":30.0,"collisions_this_frame":[],"waypoint":{"x":-64.63232421875,"y":24.504438400268555,"z":0.0},"lane_deviation_m":0.045821256935596466,"lane_width":3.5,"goal":{"x":-27.16025161743164,"y":137.04421997070312,"z":0.5999999642372131},"fault":{"name":"none","severity":0.0},"capture_flags":{"save_rgb":true,"save_depth":false,"video_rgb":true,"video_depth":false}}
{"frame":6052,"timestamp":{"delta_seconds":0.05000000074505806,"elapsed_seconds":63.604465924203396},"control":{"throttle":0.75,"steer":0.0,"brake":0.0,"hand_brake":false,"reverse":false,"manual_gear_shift":false,"gear":0},"transform":{"location":{"x":-64.58267974853516,"y":24.47118377685547,"z":-0.022708091884851456},"rotation":{"pitch":0.04654773697257042,"yaw":0.15889814496040344,"roll":-6.103514533606358e-05}},"velocity":{"x":1.2323728799819946,"y":0.0034191813319921494,"z":0.16076454520225525},"angular_velocity":{"x":0.0015348426532000303,"y":-0.5740026831626892,"z":0.0001668730255914852},"acceleration":{"x":12.58307933807373,"y":0.03451767936348915,"z":-0.8134222030639648},"speed_mps":1.242819313138553,"speed_kph":4.474149527298791,"speed_limit_kph":30.0,"collisions_this_frame":[],"waypoint":{"x":-64.58252716064453,"y":24.504575729370117,"z":0.0},"lane_deviation_m":0.04038196802139282,"lane_width":3.5,"goal":{"x":-27.16025161743164,"y":137.04421997070312,"z":0.5999999642372131},"fault":{"name":"none","severity":0.0},"capture_flags":{"save_rgb":true,"save_depth":false,"video_rgb":true,"video_depth":false}}
{"frame":6053,"timestamp":{"delta_seconds":0.05000000074505806,"elapsed_seconds":63.654465924948454},"control":{"throttle":0.75,"steer":-0.00659796129912138,"brake":0.0,"hand_brake":false,"reverse":false,"manual_gear_shift":false,"gear":0},"transform":{"location":{"x":-64.50173950195312,"y":24.471187591552734,"z":-0.015995711088180542},"rotation":{"pitch":0.072987399995327,"yaw":0.14860133826732635,"roll":0.0008801890071481466}},"velocity":{"x":1.7993444204330444,"y":-0.0024880394339561462,"z":0.12241803854703903},"angular_velocity":{"x":-0.014931951649487019,"y":-0.38299450278282166,"z":-0.2667500078678131},"acceleration":{"x":11.339430809020996,"y":-0.11814441531896591,"z":-0.766930103302002},"speed_mps":1.8035056722520886,"speed_kph":6.492620420107519,"speed_limit_kph":30.0,"collisions_this_frame":[],"waypoint":{"x":-64.50159454345703,"y":24.50480079650879,"z":0.0},"lane_deviation_m":0.03722541406750679,"lane_width":3.5,"goal":{"x":-27.16025161743164,"y":137.04421997070312,"z":0.5999999642372131},"fault":{"name":"none","severity":0.0},"capture_flags":{"save_rgb":true,"save_depth":false,"video_rgb":true,"video_depth":false}}
{"frame":6054,"timestamp":{"delta_seconds":0.05000000074505806,"elapsed_seconds":63.70446592569351},"control":{"throttle":0.75,"steer":-0.00659796129912138,"brake":0.0,"hand_brake":false,"reverse":false,"manual_gear_shift":false,"gear":0},"transform":{"location":{"x":-64.39677429199219,"y":24.471099853515625,"z":-0.010952758602797985},"rotation":{"pitch":0.0878225639462471,"yaw":0.1330658495426178,"roll":0.0013424165081232786}},"velocity":{"x":2.246703863143921,"y":-0.004041912034153938,"z":0.0903078094124794},"angular_velocity":{"x":-0.004370400216430426,"y":-0.1845662146806717,"z":-0.3308732211589813},"acceleration":{"x":8.947189331054688,"y":-0.03107745200395584,"z":-0.6422045826911926},"speed_mps":2.248521755767462,"speed_kph":8.094678320762863,"speed_limit_kph":30.0,"collisions_this_frame":[],"waypoint":{"x":-64.3966293334961,"y":24.50509262084961,"z":0.0},"lane_deviation_m":0.035714033991098404,"lane_width":3.5,"goal":{"x":-27.16025161743164,"y":137.04421997070312,"z":0.5999999642372131},"fault":{"name":"none","severity":0.0},"capture_flags":{"save_rgb":true,"save_depth":false,"video_rgb":true,"video_depth":false}}
{"frame":6055,"timestamp":{"delta_seconds":0.05000000074505806,"elapsed_seconds":63.75446592643857},"control":{"throttle":0.75,"steer":-0.008298455737531185,"brake":0.0,"hand_brake":false,"reverse":false,"manual_gear_shift":false,"gear":0},"transform":{"location":{"x":-64.27448272705078,"y":24.47088623046875,"z":-0.007242774590849876},"rotation":{"pitch":0.09169528633356094,"yaw":0.11171107739210129,"roll":0.0017992242937907577}},"velocity":{"x":2.5761520862579346,"y":-0.008121462538838387,"z":0.06511251628398895},"angular_velocity":{"x":-0.008149633184075356,"y":-0.02735806629061699,"z":-0.4634832739830017},"acceleration":{"x":6.588964462280273,"y":-0.08159101009368896,"z":-0.5039058923721313},"speed_mps":2.5769876153101148,"speed_kph":9.277155415116413,"speed_limit_kph":30.0,"collisions_this_frame":[],"waypoint":{"x":-64.27434539794922,"y":24.50543212890625,"z":0.0},"lane_deviation_m":0.035297248512506485,"lane_width":3.5,"goal":{"x":-27.16025161743164,"y":137.04421997070312,"z":0.5999999642372131},"fault":{"name":"none","severity":0.0},"capture_flags":{"save_rgb":true,"save_depth":false,"video_rgb":true,"video_depth":false}}
{"frame":6056,"timestamp":{"delta_seconds":0.05000000074505806,"elapsed_seconds":63.80446592718363},"control":{"throttle":0.75,"steer":-0.008298455737531185,"brake":0.0,"hand_brake":false,"reverse":false,"manual_gear_shift":false,"gear":0},"transform":{"location":{"x":-64.1368179321289,"y":24.470563888549805,"z":-0.004572257865220308},"rotation":{"pitch":0.09052049368619919,"yaw":0.08644963055849075,"roll":0.001996345352381468}},"velocity":{"x":2.869276762008667,"y":-0.010343735106289387,"z":0.04613782837986946},"angular_velocity":{"x":-0.0017297144513577223,"y":0.048948921263217926,"z":-0.5234255194664001},"acceleration":{"x":5.862493515014648,"y":-0.044445451349020004,"z":-0.379493772983551},"speed_mps":2.869666327130473,"speed_kph":10.330798777669703,"speed_limit_kph":30.0,"collisions_this_frame":[],"waypoint":{"x":-64.13668823242188,"y":24.505815505981445,"z":0.0},"lane_deviation_m":0.03554713353514671,"lane_width":3.5,"goal":{"x":-27.16025161743164,"y":137.04421997070312,"z":0.5999999642372131},"fault":{"name":"none","severity":0.0},"capture_flags":{"save_rgb":true,"save_depth":false,"video_rgb":true,"video_depth":false}}
{"frame":6057,"timestamp":{"delta_seconds":0.05000000074505806,"elapsed_seconds":63.854465927928686},"control":{"throttle":0.75,"steer":0.006716287694871426,"brake":0.0,"hand_brake":false,"reverse":false,"manual_gear_shift":false,"gear":0},"transform":{"location":{"x":-63.98463821411133,"y":24.47086524963379,"z":-0.0026823042426258326},"rotation":{"pitch":0.08747422695159912,"yaw":0.0935143455862999,"roll":-0.0011291501577943563}},"velocity":{"x":3.1587986946105957,"y":0.013128625229001045,"z":0.032250214368104935},"angular_velocity":{"x":0.05803561210632324,"y":0.06471111625432968,"z":0.35924670100212097},"acceleration":{"x":5.790438652038574,"y":0.46944722533226013,"z":-0.2777522802352905},"speed_mps":3.1589906030567416,"speed_kph":11.37236617100427,"speed_limit_kph":30.0,"collisions_this_frame":[],"waypoint":{"x":-63.973724365234375,"y":24.505922317504883,"z":0.0},"lane_deviation_m":0.03681446239352226,"lane_width":3.5,"goal":{"x":-27.16025161743164,"y":137.04421997070312,"z":0.5999999642372131},"fault":{"name":"none","severity":0.0},"capture_flags":{"save_rgb":true,"save_depth":false,"video_rgb":true,"video_depth":false}}
{"frame":6058,"timestamp":{"delta_seconds":0.05000000074505806,"elapsed_seconds":63.904465928673744},"control":{"throttle":0.75,"steer":0.006716287694871426,"brake":0.0,"hand_brake":false,"reverse":false,"manual_gear_shift":false,"gear":0},"transform":{"location":{"x":-63.818519592285156,"y":24.471630096435547,"z":-0.001361579867079854},"rotation":{"pitch":0.08401132375001907,"yaw":0.11616428941488266,"roll":-0.0027465817984193563}},"velocity":{"x":3.432565212249756,"y":0.01990709826350212,"z":0.022296007722616196},"angular_velocity":{"x":0.017884189262986183,"y":0.07050564140081406,"z":0.49134546518325806},"acceleration":{"x":5.475330352783203,"y":0.13556945323944092,"z":-0.19908413290977478},"speed_mps":3.432695346352317,"speed_kph":12.357703246868342,"speed_limit_kph":30.0,"collisions_this_frame":[],"waypoint":{"x":-63.78998947143555,"y":24.50437355041504,"z":0.0},"lane_deviation_m":0.04345060884952545,"lane_width":3.5,"goal":{"x":-27.16025161743164,"y":137.04421997070312,"z":0.5999999642372131},"fault":{"name":"none","severity":0.0},"capture_flags":{"save_rgb":true,"save_depth":false,"video_rgb":true,"video_depth":false}}
{"frame":6059,"timestamp":{"delta_seconds":0.05000000074505806,"elapsed_seconds":63.9544659294188},"control":{"throttle":0.75,"steer":0.0030513936653733253,"brake":0.0,"hand_brake":false,"reverse":false,"manual_gear_shift":false,"gear":0},"transform":{"location":{"x":-63.638729095458984,"y":24.472394943237305,"z":-0.0004479980270843953},"rotation":{"pitch":0.0806918516755104,"yaw":0.13236583769321442,"roll":-0.0021972658578306437}},"velocity":{"x":3.702057361602783,"y":0.016635065898299217,"z":0.015277223661541939},"angular_velocity":{"x":-0.01485304906964302,"y":0.06599712371826172,"z":0.2732103765010834},"acceleration":{"x":5.389842987060547,"y":-0.06544064730405807,"z":-0.14037567377090454},"speed_mps":3.7021262576494616,"speed_kph":13.327654527538062,"speed_limit_kph":30.0,"collisions_this_frame":[],"waypoint":{"x":-63.59115982055664,"y":24.5006103515625,"z":0.0},"lane_deviation_m":0.05530954524874687,"lane_width":3.5,"goal":{"x":-27.16025161743164,"y":137.04421997070312,"z":0.5999999642372131},"fault":{"name":"none","severity":0.0},"capture_flags":{"save_rgb":true,"save_depth":false,"video_rgb":true,"video_depth":false}}
{"frame":6060,"timestamp":{"delta_seconds":0.05000000074505806,"elapsed_seconds":64.00446593016386},"control":{"throttle":0.75,"steer":0.0030513936653733253,"brake":0.0,"hand_brake":false,"reverse":false,"manual_gear_shift":false,"gear":0},"transform":{"location":{"x":-63.44612503051758,"y":24.473169326782227,"z":0.00018215179443359375},"rotation":{"pitch":0.07723577320575714,"yaw":0.14564523100852966,"roll":-0.0016784665640443563}},"velocity":{"x":3.9518349170684814,"y":0.0175675917416811,"z":0.010388039983808994},"angular_velocity":{"x":-0.0077971783466637135,"y":0.06957651674747467,"z":0.2663636803627014},"acceleration":{"x":4.995551109313965,"y":0.018650516867637634,"z":-0.09778366982936859},"speed_mps":3.951887617761411,"speed_kph":14.22679542394108,"speed_limit_kph":30.0,"collisions_this_frame":[],"waypoint":{"x":-63.4460563659668,"y":24.507734298706055,"z":0.0},"lane_deviation_m":0.034565519541502,"lane_width":3.5,"goal":{"x":-27.16025161743164,"y":137.04421997070312,"z":0.5999999642372131},"fault":{"name":"none","severity":0.0},"capture_flags":{"save_rgb":true,"save_depth":false,"video_rgb":true,"video_depth":false}}
{"frame":6061,"timestamp":{"delta_seconds":0.05000000074505806,"elapsed_seconds":64.05446593090892},"control":{"throttle":0.75,"steer":-0.013422755524516106,"brake":0.0,"hand_brake":false,"reverse":false,"manual_gear_shift":false,"gear":0},"transform":{"location":{"x":-63.24132537841797,"y":24.47301483154297,"z":0.0006154251168482006},"rotation":{"pitch":0.07380702346563339,"yaw":0.11138741672039032,"roll":0.0029839584603905678}},"velocity":{"x":4.191815376281738,"y":-0.016412273049354553,"z":0.007014798931777477},"angular_velocity":{"x":-0.08562882989645004,"y":0.06702809780836105,"z":-1.0137583017349243},"acceleration":{"x":4.799609184265137,"y":-0.6795972585678101,"z":-0.06746482104063034},"speed_mps":4.191853375172218,"speed_kph":15.090672150619984,"speed_limit_kph":30.0,"collisions_this_frame":[],"waypoint":{"x":-63.24126052856445,"y":24.508302688598633,"z":0.0},"lane_deviation_m":0.03529328107833862,"lane_width":3.5,"goal":{"x":-27.16025161743164,"y":137.04421997070312,"z":0.5999999642372131},"fault":{"name":"none","severity":0.0},"capture_flags":{"save_rgb":true,"save_depth":false,"video_rgb":true,"video_depth":false}}
{"frame":6062,"timestamp":{"delta_seconds":0.05000000074505806,"elapsed_seconds":64.10446593165398},"control":{"throttle":0.75,"steer":-0.013422755524516106,"brake":0.0,"hand_brake":false,"reverse":false,"manual_gear_shift":false,"gear":0},"transform":{"location":{"x":-63.02473831176758,"y":24.47213363647461,"z":0.0009124373900704086},"rotation":{"pitch":0.0706309825181961,"yaw":0.05258563905954361,"roll":0.0054862285032868385}},"velocity":{"x":4.425151348114014,"y":-0.02823615074157715,"z":0.004713173024356365},"angular_velocity":{"x":-0.03016347438097,"y":0.060811687260866165,"z":-1.2434628009796143},"acceleration":{"x":4.666719436645508,"y":-0.2364775538444519,"z":-0.04603251814842224},"speed_mps":4.425243942193914,"speed_kph":15.93087819189809,"speed_limit_kph":30.0,"collisions_this_frame":[],"waypoint":{"x":-63.0246696472168,"y":24.5089054107666,"z":0.0},"lane_deviation_m":0.03678315877914429,"lane_width":3.5,"goal":{"x":-27.16025161743164,"y":137.04421997070312,"z":0.5999999642372131},"fault":{"name":"none","severity":0.0},"capture_flags":{"save_rgb":true,"save_depth":false,"video_rgb":true,"video_depth":false}}
{"frame":6063,"timestamp":{"delta_seconds":0.05000000074505806,"elapsed_seconds":64.15446593239903},"control":{"throttle":0.75,"steer":-0.0013128176797181368,"brake":0.0,"hand_brake":false,"reverse":false,"manual_gear_shift":false,"gear":0},"transform":{"location":{"x":-62.79662322998047,"y":24.47162628173828,"z":0.0011149978963658214},"rotation":{"pitch":0.06782377511262894,"yaw":0.024730725213885307,"roll":0.002745239296928048}},"velocity":{"x":4.653988361358643,"y":-0.008360733278095722,"z":0.003151588374748826},"angular_velocity":{"x":0.05920824036002159,"y":0.052807144820690155,"z":-0.3162418305873871},"acceleration":{"x":4.576740264892578,"y":0.3975083827972412,"z":-0.031231693923473358},"speed_mps":4.653996938335041,"speed_kph":16.754388978006148,"speed_limit_kph":30.0,"collisions_this_frame":[],"waypoint":{"x":-62.77653121948242,"y":24.50827407836914,"z":0.0},"lane_deviation_m":0.04180900752544403,"lane_width":3.5,"goal":{"x":-27.16025161743164,"y":137.04421997070312,"z":0.5999999642372131},"fault":{"name":"none","severity":0.0},"capture_flags":{"save_rgb":true,"save_depth":false,"video_rgb":true,"video_depth":false}}
{"frame":6064,"timestamp":{"delta_seconds":0.05000000074505806,"elapsed_seconds":64.20446593314409},"control":{"throttle":0.75,"steer":-0.0013128176797181368,"brake":0.0,"hand_brake":false,"reverse":false,"manual_gear_shift":false,"gear":0},"transform":{"location":{"x":-62.556785583496094,"y":24.47165870666504,"z":0.0024034881498664618},"rotation":{"pitch":0.12502659857273102,"yaw":0.010654550045728683,"roll":-0.1350708156824112}},"velocity":{"x":4.878612041473389,"y":-0.02629421092569828,"z":0.02033313736319542},"angular_velocity":{"x":0.8037829995155334,"y":-0.5049285292625427,"z":-0.3907049298286438},"acceleration":{"x":4.492473602294922,"y":-0.3586695194244385,"z":0.34363096952438354},"speed_mps":4.878725271340085,"speed_kph":17.563410976824304,"speed_limit_kph":30.0,"collisions_this_frame":[],"waypoint":{"x":-62.513980865478516,"y":24.50429344177246,"z":0.0},"lane_deviation_m":0.05387992784380913,"lane_width":3.5,"goal":{"x":-27.16025161743164,"y":137.04421997070312,"z":0.5999999642372131},"fault":{"name":"none","severity":0.0},"capture_flags":{"save_rgb":true,"save_depth":false,"video_rgb":true,"video_depth":false}}
{"frame":6065,"timestamp":{"delta_seconds":0.05000000074505806,"elapsed_seconds":64.25446593388915},"control":{"throttle":0.4886130392551422,"steer":-0.001740914536640048,"brake":0.0,"hand_brake":false,"reverse":false,"manual_gear_shift":false,"gear":0},"transform":{"location":{"x":-62.30647277832031,"y":24.47072982788086,"z":0.003093147184699774},"rotation":{"pitch":0.13404928147792816,"yaw":-0.01458740234375,"roll":-0.14520263671875}},"velocity":{"x":5.081207752227783,"y":-0.020261820405721664,"z":0.014502715319395065},"angular_velocity":{"x":0.041738756000995636,"y":-0.04425155371427536,"z":-0.5189011693000793},"acceleration":{"x":4.051914215087891,"y":0.12064781039953232,"z":-0.11660844087600708},"speed_mps":5.081268846598998,"speed_kph":18.29256784775639,"speed_limit_kph":30.0,"collisions_this_frame":[],"waypoint":{"x":-62.24003219604492,"y":24.496498107910156,"z":0.0},"lane_deviation_m":0.07132967561483383,"lane_width":3.5,"goal":{"x":-27.16025161743164,"y":137.04421997070312,"z":0.5999999642372131},"fault":{"name":"none","severity":0.0},"capture_flags":{"save_rgb":true,"save_depth":false,"video_rgb":true,"video_depth":false}}
{"frame":6066,"timestamp":{"delta_seconds":0.05000000074505806,"elapsed_seconds":64.30446593463421},"control":{"throttle":0.4886130392551422,"steer":-0.001740914536640048,"brake":0.0,"hand_brake":false,"reverse":false,"manual_gear_shift":false,"gear":0},"transform":{"location":{"x":-62.04801940917969,"y":24.469667434692383,"z":0.003341941861435771},"rotation":{"pitch":0.11512283235788345,"yaw":-0.0343322791159153,"roll":-0.0885620191693306}},"velocity":{"x":5.221131324768066,"y":-0.004900012630969286,"z":-0.03642787039279938},"angular_velocity":{"x":-5.373641014099121,"y":2.0803699493408203,"z":-1.7704685926437378},"acceleration":{"x":2.798471450805664,"y":0.3072361648082733,"z":-1.0186116695404053},"speed_mps":5.221260701242516,"speed_kph":18.796538524473057,"speed_limit_kph":30.0,"collisions_this_frame":[],"waypoint":{"x":-61.95731735229492,"y":24.484548568725586,"z":0.0},"lane_deviation_m":0.09197542816400528,"lane_width":3.5,"goal":{"x":-27.16025161743164,"y":137.04421997070312,"z":0.5999999642372131},"fault":{"name":"none","severity":0.0},"capture_flags":{"save_rgb":true,"save_depth":false,"video_rgb":true,"video_depth":false}}
{"frame":6067,"timestamp":{"delta_seconds":0.05000000074505806,"elapsed_seconds":64.35446593537927},"control":{"throttle":0.10646719485521317,"steer":0.0010555697372183204,"brake":0.0,"hand_brake":false,"reverse":false,"manual_gear_shift":false,"gear":0},"transform":{"location":{"x":-61.78848648071289,"y":24.46934700012207,"z":0.002503089839592576},"rotation":{"pitch":0.05763313174247742,"yaw":-0.0218505822122097,"roll":-0.006805420387536287}},"velocity":{"x":5.230327129364014,"y":0.008469575084745884,"z":-0.016786545515060425},"angular_velocity":{"x":-0.5300409197807312,"y":0.6573487520217896,"z":1.3726370334625244},"acceleration":{"x":0.1839160919189453,"y":0.26739177107810974,"z":0.39282649755477905},"speed_mps":5.2303609246373854,"speed_kph":18.82929932869459,"speed_limit_kph":30.0,"collisions_this_frame":[],"waypoint":{"x":-61.714866638183594,"y":24.471139907836914,"z":0.0},"lane_deviation_m":0.0736842006444931,"lane_width":3.5,"goal":{"x":-27.16025161743164,"y":137.04421997070312,"z":0.5999999642372131},"fault":{"name":"none","severity":0.0},"capture_flags":{"save_rgb":true,"save_depth":false,"video_rgb":true,"video_depth":false}}
{"frame":6068,"timestamp":{"delta_seconds":0.05000000074505806,"elapsed_seconds":64.40446593612432},"control":{"throttle":0.10646719485521317,"steer":0.0010555697372183204,"brake":0.0,"hand_brake":false,"reverse":false,"manual_gear_shift":false,"gear":0},"transform":{"location":{"x":-61.531063079833984,"y":24.46990966796875,"z":0.002118186792358756},"rotation":{"pitch":0.03284637629985809,"yaw":-0.0802001804113388,"roll":0.0020974786020815372}},"velocity":{"x":5.097027778625488,"y":0.0036902897991240025,"z":-0.007409886922687292},"angular_velocity":{"x":-0.06979993730783463,"y":0.44916632771492004,"z":-2.8352084159851074},"acceleration":{"x":-2.665987014770508,"y":-0.09558570384979248,"z":0.1875331699848175},"speed_mps":5.097034500642789,"speed_kph":18.34932420231404,"speed_limit_kph":30.0,"collisions_this_frame":[],"waypoint":{"x":-61.514732360839844,"y":24.45786476135254,"z":0.0},"lane_deviation_m":0.020402422174811363,"lane_width":3.5,"goal":{"x":-27.16025161743164,"y":137.04421997070312,"z":0.5999999642372131},"fault":{"name":"none","severity":0.0},"capture_flags":{"save_rgb":true,"save_depth":false,"video_rgb":true,"video_depth":false}}
{"frame":6069,"timestamp":{"delta_seconds":0.05000000074505806,"elapsed_seconds":64.45446593686938},"control":{"throttle":0.10646719485521317,"steer":-0.009752044454216957,"brake":0.0,"hand_brake":false,"reverse":false,"manual_gear_shift":false,"gear":0},"transform":{"location":{"x":-61.27486801147461,"y":24.469484329223633,"z":0.00196464522741735},"rotation":{"pitch":0.02058618888258934,"yaw":-0.130279541015625,"roll":0.00623262720182538}},"velocity":{"x":5.1432013511657715,"y":-0.02324245311319828,"z":-0.003019485389813781},"angular_velocity":{"x":-0.0673399344086647,"y":0.12711943686008453,"z":0.37158873677253723},"acceleration":{"x":0.9234714508056641,"y":-0.5386548638343811,"z":0.0878080353140831},"speed_mps":5.143254754292476,"speed_kph":18.515717115452915,"speed_limit_kph":30.0,"collisions_this_frame":[],"waypoint":{"x":-61.23614501953125,"y":24.436058044433594,"z":0.0},"lane_deviation_m":0.05119225010275841,"lane_width":3.5,"goal":{"x":-27.16025161743164,"y":137.04421997070312,"z":0.5999999642372131},"fault":{"name":"none","severity":0.0},"capture_flags":{"save_rgb":true,"save_depth":false,"video_rgb":true,"video_depth":false}}
{"frame":6070,"timestamp":{"delta_seconds":0.05000000074505806,"elapsed_seconds":64.50446593761444},"control":{"throttle":0.10646719485521317,"steer":-0.009752044454216957,"brake":0.0,"hand_brake":false,"reverse":false,"manual_gear_shift":false,"gear":0},"transform":{"location":{"x":-61.022518157958984,"y":24.46849250793457,"z":0.0019389343215152621},"rotation":{"pitch":0.010511660948395729,"yaw":-0.23968505859375,"roll":0.008202576078474522}},"velocity":{"x":4.983895301818848,"y":-0.03761998191475868,"z":-0.0010272979270666838},"angular_velocity":{"x":-0.022013651207089424,"y":0.25610727071762085,"z":-3.858691692352295},"acceleration":{"x":-3.1861209869384766,"y":-0.28755056858062744,"z":0.03984374925494194},"speed_mps":4.98403738929317,"speed_kph":17.942534601455414,"speed_limit_kph":30.0,"collisions_this_frame":[],"waypoint":{"x":-61.02264404296875,"y":24.514469146728516,"z":0.0},"lane_deviation_m":0.04601767659187317,"lane_width":3.5,"goal":{"x":-27.16025161743164,"y":137.04421997070312,"z":0.5999999642372131},"fault":{"name":"none","severity":0.0},"capture_flags":{"save_rgb":true,"save_depth":false,"video_rgb":true,"video_depth":false}}
{"frame":6071,"timestamp":{"delta_seconds":0.05000000074505806,"elapsed_seconds":64.5544659383595},"control":{"throttle":0.20261430740356445,"steer":-0.008303900249302387,"brake":0.0,"hand_brake":false,"reverse":false,"manual_gear_shift":false,"gear":0},"transform":{"location":{"x":-60.77004623413086,"y":24.466609954833984,"z":0.0019098663469776511},"rotation":{"pitch":0.0070897359400987625,"yaw":-0.2998047173023224,"roll":0.008566005155444145}},"velocity":{"x":5.059554100036621,"y":-0.04953721910715103,"z":0.00048770903958939016},"angular_velocity":{"x":-0.009834807366132736,"y":0.03478527069091797,"z":1.1357413530349731},"acceleration":{"x":1.5131759643554688,"y":-0.23834474384784698,"z":0.030300140380859375},"speed_mps":5.0597966229023825,"speed_kph":18.21526784244858,"speed_limit_kph":30.0,"collisions_this_frame":[],"waypoint":{"x":-60.770179748535156,"y":24.51517105102539,"z":0.0},"lane_deviation_m":0.048598822206258774,"lane_width":3.5,"goal":{"x":-27.16025161743164,"y":137.04421997070312,"z":0.5999999642372131},"fault":{"name":"none","severity":0.0},"capture_flags":{"save_rgb":true,"save_depth":false,"video_rgb":true,"video_depth":false}}
{"frame":6072,"timestamp":{"delta_seconds":0.05000000074505806,"elapsed_seconds":64.60446593910456},"control":{"throttle":0.20261430740356445,"steer":-0.008303900249302387,"brake":0.0,"hand_brake":false,"reverse":false,"manual_gear_shift":false,"gear":0},"transform":{"location":{"x":-60.51971435546875,"y":24.464508056640625,"z":0.0019204330164939165},"rotation":{"pitch":0.003339962335303426,"yaw":-0.3882445991039276,"roll":0.008024660870432854}},"velocity":{"x":4.993088722229004,"y":-0.053921058773994446,"z":0.0012281894451007247},"angular_velocity":{"x":0.023621391505002975,"y":0.08779549598693848,"z":-3.0049002170562744},"acceleration":{"x":-1.3293075561523438,"y":-0.08767679333686829,"z":0.014809607528150082},"speed_mps":4.9933800152881505,"speed_kph":17.97616805503734,"speed_limit_kph":30.0,"collisions_this_frame":[],"waypoint":{"x":-60.51985549926758,"y":24.515867233276367,"z":0.0},"lane_deviation_m":0.05139526352286339,"lane_width":3.5,"goal":{"x":-27.16025161743164,"y":137.04421997070312,"z":0.5999999642372131},"fault":{"name":"none","severity":0.0},"capture_flags":{"save_rgb":true,"save_depth":false,"video_rgb":true,"video_depth":false}}
{"frame":6073,"timestamp":{"delta_seconds":0.05000000074505806,"elapsed_seconds":64.65446593984962},"control":{"throttle":0.14671316742897034,"steer":0.008639276027679443,"brake":0.0,"hand_brake":false,"reverse":false,"manual_gear_shift":false,"gear":0},"transform":{"location":{"x":-60.26910400390625,"y":24.462980270385742,"z":0.0018819808028638363},"rotation":{"pitch":0.001796339638531208,"yaw":-0.3978576064109802,"roll":0.0022706089075654745}},"velocity":{"x":5.005850315093994,"y":-0.0226194616407156,"z":-0.0050000762566924095},"angular_velocity":{"x":0.08728054910898209,"y":0.017618099227547646,"z":0.22154493629932404},"acceleration":{"x":0.2552318572998047,"y":0.6260318756103516,"z":-0.12456531822681427},"speed_mps":5.005903916170798,"speed_kph":18.02125409821487,"speed_limit_kph":30.0,"collisions_this_frame":[],"waypoint":{"x":-60.26925277709961,"y":24.516563415527344,"z":0.0},"lane_deviation_m":0.05361638963222504,"lane_width":3.5,"goal":{"x":-27.16025161743164,"y":137.04421997070312,"z":0.5999999642372131},"fault":{"name":"none","severity":0.0},"capture_flags":{"save_rgb":true,"save_depth":false,"video_rgb":true,"video_depth":false}}
{"frame":6074,"timestamp":{"delta_seconds":0.05000000074505806,"elapsed_seconds":64.70446594059467},"control":{"throttle":0.14671316742897034,"steer":0.008639276027679443,"brake":0.0,"hand_brake":false,"reverse":false,"manual_gear_shift":false,"gear":0},"transform":{"location":{"x":-60.018798828125,"y":24.462160110473633,"z":0.0019318771082907915},"rotation":{"pitch":0.000956226431299001,"yaw":-0.3789672553539276,"roll":-0.00128173828125}},"velocity":{"x":4.989302158355713,"y":-0.011084530502557755,"z":0.0022360514849424362},"angular_velocity":{"x":0.04529543220996857,"y":0.044789303094148636,"z":-0.6807742118835449},"acceleration":{"x":-0.330963134765625,"y":0.2306986153125763,"z":0.14472255110740662},"speed_mps":4.989314972430151,"speed_kph":17.961533900748545,"speed_limit_kph":30.0,"collisions_this_frame":[],"waypoint":{"x":-60.018951416015625,"y":24.517257690429688,"z":0.0},"lane_deviation_m":0.05513164773583412,"lane_width":3.5,"goal":{"x":-27.16025161743164,"y":137.04421997070312,"z":0.5999999642372131},"fault":{"name":"none","severity":0.0},"capture_flags":{"save_rgb":true,"save_depth":false,"video_rgb":true,"video_depth":false}}
