{"frame":25707,"timestamp":{"delta_seconds":0.05000000074505806,"elapsed_seconds":242.05905940197408},"control":{"throttle":0.75,"steer":0.0,"brake":0.0,"hand_brake":false,"reverse":false,"manual_gear_shift":false,"gear":0},"transform":{"location":{"x":-64.64484405517578,"y":24.471010208129883,"z":0.48239994049072266},"rotation":{"pitch":0.0,"yaw":0.15919795632362366,"roll":0.0}},"velocity":{"x":0.0,"y":0.0,"z":-1.470000147819519},"angular_velocity":{"x":0.0,"y":0.0,"z":0.0},"acceleration":{"x":0.0,"y":0.0,"z":-9.80000114440918},"speed_mps":1.470000147819519,"speed_kph":5.2920005321502686,"speed_limit_kph":30.0,"collisions_this_frame":[],"waypoint":{"x":-64.64469146728516,"y":24.504404067993164,"z":0.0},"lane_deviation_m":0.4835544228553772,"lane_width":3.5,"goal":{"x":-18.385923385620117,"y":130.21006774902344,"z":0.5999999642372131},"fault":{"name":"fault_free","severity":1.0},"capture_flags":{"save_rgb":true,"save_depth":false,"video_rgb":true,"video_depth":false}}
{"frame":25708,"timestamp":{"delta_seconds":0.05000000074505806,"elapsed_seconds":242.10905940271914},"control":{"throttle":0.75,"steer":0.0,"brake":0.0,"hand_brake":false,"reverse":false,"manual_gear_shift":false,"gear":0},"transform":{"location":{"x":-64.64484405517578,"y":24.471010208129883,"z":0.394199937582016},"rotation":{"pitch":0.0,"yaw":0.15919795632362366,"roll":0.0}},"velocity":{"x":0.0,"y":0.0,"z":-1.9600002765655518},"angular_velocity":{"x":0.0,"y":0.0,"z":0.0},"acceleration":{"x":0.0,"y":0.0,"z":-9.800003051757812},"speed_mps":1.9600002765655518,"speed_kph":7.056000995635986,"speed_limit_kph":30.0,"collisions_this_frame":[],"waypoint":{"x":-64.64469146728516,"y":24.504404067993164,"z":0.0},"lane_deviation_m":0.39561188220977783,"lane_width":3.5,"goal":{"x":-18.385923385620117,"y":130.21006774902344,"z":0.5999999642372131},"fault":{"name":"fault_free","severity":1.0},"capture_flags":{"save_rgb":true,"save_depth":false,"video_rgb":true,"video_depth":false}}
{"frame":25709,"timestamp":{"delta_seconds":0.05000000074505806,"elapsed_seconds":242.1590594034642},"control":{"throttle":0.75,"steer":0.0,"brake":0.0,"hand_brake":false,"reverse":false,"manual_gear_shift":false,"gear":0},"transform":{"location":{"x":-64.64484405517578,"y":24.471010208129883,"z":0.28150004148483276},"rotation":{"pitch":0.0,"yaw":0.15919795632362366,"roll":0.0}},"velocity":{"x":0.0,"y":0.0,"z":-2.450000286102295},"angular_velocity":{"x":0.0,"y":0.0,"z":0.0},"acceleration":{"x":0.0,"y":0.0,"z":-9.800000190734863},"speed_mps":2.450000286102295,"speed_kph":8.820001029968262,"speed_limit_kph":30.0,"collisions_this_frame":[],"waypoint":{"x":-64.64469146728516,"y":24.504404067993164,"z":0.0},"lane_deviation_m":0.2834738790988922,"lane_width":3.5,"goal":{"x":-18.385923385620117,"y":130.21006774902344,"z":0.5999999642372131},"fault":{"name":"fault_free","severity":1.0},"capture_flags":{"save_rgb":true,"save_depth":false,"video_rgb":true,"video_depth":false}}
{"frame":25710,"timestamp":{"delta_seconds":0.05000000074505806,"elapsed_seconds":242.20905940420926},"control":{"throttle":0.75,"steer":0.0,"brake":0.0,"hand_brake":false,"reverse":false,"manual_gear_shift":false,"gear":0},"transform":{"location":{"x":-64.64484405517578,"y":24.471010208129883,"z":0.1442999690771103},"rotation":{"pitch":0.0,"yaw":0.15919795632362366,"roll":0.0}},"velocity":{"x":0.0,"y":0.0,"z":-2.93999981880188},"angular_velocity":{"x":0.0,"y":0.0,"z":0.0},"acceleration":{"x":0.0,"y":0.0,"z":-9.7999906539917},"speed_mps":2.93999981880188,"speed_kph":10.583999347686769,"speed_limit_kph":30.0,"collisions_this_frame":[],"waypoint":{"x":-64.64469146728516,"y":24.504404067993164,"z":0.0},"lane_deviation_m":0.1481136530637741,"lane_width":3.5,"goal":{"x":-18.385923385620117,"y":130.21006774902344,"z":0.5999999642372131},"fault":{"name":"fault_free","severity":1.0},"capture_flags":{"save_rgb":true,"save_depth":false,"video_rgb":true,"video_depth":false}}
{"frame":25711,"timestamp":{"delta_seconds":0.05000000074505806,"elapsed_seconds":242.25905940495431},"control":{"throttle":0.75,"steer":0.0,"brake":0.0,"hand_brake":false,"reverse":false,"manual_gear_shift":false,"gear":0},"transform":{"location":{"x":-64.64484405517578,"y":24.471010208129883,"z":0.008085555396974087},"rotation":{"pitch":0.0,"yaw":0.15919795632362366,"roll":0.0}},"velocity":{"x":-5.419469744083472e-07,"y":-8.412019269599114e-06,"z":-2.06459641456604},"angular_velocity":{"x":0.0008732697460800409,"y":-0.0008259261958301067,"z":-2.5191848607164502e-08},"acceleration":{"x":-1.0838939488166943e-05,"y":-0.00016824038175400347,"z":17.508068084716797},"speed_mps":2.064596414583248,"speed_kph":7.432547092499693,"speed_limit_kph":30.0,"collisions_this_frame":[],"waypoint":{"x":-64.64469146728516,"y":24.504404067993164,"z":0.0},"lane_deviation_m":0.034359123557806015,"lane_width":3.5,"goal":{"x":-18.385923385620117,"y":130.21006774902344,"z":0.5999999642372131},"fault":{"name":"fault_free","severity":1.0},"capture_flags":{"save_rgb":true,"save_depth":false,"video_rgb":true,"video_depth":false}}
{"frame":25712,"timestamp":{"delta_seconds":0.05000000074505806,"elapsed_seconds":242.30905940569937},"control":{"throttle":0.75,"steer":0.0,"brake":0.0,"hand_brake":false,"reverse":false,"manual_gear_shift":false,"gear":0},"transform":{"location":{"x":-64.64484405517578,"y":24.471010208129883,"z":-0.05158817023038864},"rotation":{"pitch":0.0,"yaw":0.15919795632362366,"roll":0.0}},"velocity":{"x":-1.7941823671208113e-07,"y":-1.4597358131140936e-06,"z":-0.7380887269973755},"angular_velocity":{"x":0.00017217978893313557,"y":-0.0002615972189232707,"z":2.631870721359064e-09},"acceleration":{"x":7.250574526551645e-06,"y":0.0001390456745866686,"z":26.530153274536133},"speed_mps":0.7380887269988408,"speed_kph":2.657119417195827,"speed_limit_kph":30.0,"collisions_this_frame":[],"waypoint":{"x":-64.64469146728516,"y":24.504404067993164,"z":0.0},"lane_deviation_m":0.061453334987163544,"lane_width":3.5,"goal":{"x":-18.385923385620117,"y":130.21006774902344,"z":0.5999999642372131},"fault":{"name":"fault_free","severity":1.0},"capture_flags":{"save_rgb":true,"save_depth":false,"video_rgb":true,"video_depth":false}}
{"frame":25713,"timestamp":{"delta_seconds":0.05000000074505806,"elapsed_seconds":242.35905940644443},"control":{"throttle":0.75,"steer":0.0,"brake":0.0,"hand_brake":false,"reverse":false,"manual_gear_shift":false,"gear":0},"transform":{"location":{"x":-64.64484405517578,"y":24.471010208129883,"z":-0.06773189455270767},"rotation":{"pitch":0.0,"yaw":0.15919795632362366,"roll":0.0}},"velocity":{"x":-3.280591798215937e-08,"y":1.2364070300918684e-07,"z":-0.1120968759059906},"angular_velocity":{"x":4.701039506471716e-05,"y":-4.777070353156887e-05,"z":-3.4607359200578003e-09},"acceleration":{"x":2.9322463888092898e-06,"y":3.166752867400646e-05,"z":12.51983642578125},"speed_mps":0.11209687590606358,"speed_kph":0.40354875326182893,"speed_limit_kph":30.0,"collisions_this_frame":[],"waypoint":{"x":-64.64469146728516,"y":24.504404067993164,"z":0.0},"lane_deviation_m":0.07551676779985428,"lane_width":3.5,"goal":{"x":-18.385923385620117,"y":130.21006774902344,"z":0.5999999642372131},"fault":{"name":"fault_free","severity":1.0},"capture_flags":{"save_rgb":true,"save_depth":false,"video_rgb":true,"video_depth":false}}
{"frame":25714,"timestamp":{"delta_seconds":0.05000000074505806,"elapsed_seconds":242.4090594071895},"control":{"throttle":0.75,"steer":0.0,"brake":0.0,"hand_brake":false,"reverse":false,"manual_gear_shift":false,"gear":0},"transform":{"location":{"x":-64.64484405517578,"y":24.471010208129883,"z":-0.06445319950580597},"rotation":{"pitch":0.0,"yaw":0.15919795632362366,"roll":0.0}},"velocity":{"x":5.457875928982503e-09,"y":8.52586623523166e-08,"z":0.15056157112121582},"angular_velocity":{"x":-4.805379285244271e-05,"y":7.451097189914435e-06,"z":3.2838367580723116e-09},"acceleration":{"x":7.652758426957007e-07,"y":-7.676408131374046e-07,"z":5.253169059753418},"speed_mps":0.15056157112124005,"speed_kph":0.5420216560364642,"speed_limit_kph":30.0,"collisions_this_frame":[],"waypoint":{"x":-64.64469146728516,"y":24.504404067993164,"z":0.0},"lane_deviation_m":0.07259055227041245,"lane_width":3.5,"goal":{"x":-18.385923385620117,"y":130.21006774902344,"z":0.5999999642372131},"fault":{"name":"fault_free","severity":1.0},"capture_flags":{"save_rgb":true,"save_depth":false,"video_rgb":true,"video_depth":false}}
{"frame":25715,"timestamp":{"delta_seconds":0.05000000074505806,"elapsed_seconds":242.45905940793455},"control":{"throttle":0.75,"steer":0.0,"brake":0.0,"hand_brake":false,"reverse":false,"manual_gear_shift":false,"gear":0},"transform":{"location":{"x":-64.64484405517578,"y":24.471010208129883,"z":-0.05396205931901932},"rotation":{"pitch":0.0,"yaw":0.15919795632362366,"roll":0.0}},"velocity":{"x":1.620716538752731e-08,"y":1.847302257829142e-07,"z":0.23337243497371674},"angular_velocity":{"x":-4.269638520781882e-05,"y":2.1952277165837586e-05,"z":5.017054549583122e-10},"acceleration":{"x":2.1498578917089617e-07,"y":1.989431211768533e-06,"z":1.656217336654663},"speed_mps":0.23337243497379043,"speed_kph":0.8401407659056456,"speed_limit_kph":30.0,"collisions_this_frame":[],"waypoint":{"x":-64.64469146728516,"y":24.504404067993164,"z":0.0},"lane_deviation_m":0.06345925480127335,"lane_width":3.5,"goal":{"x":-18.385923385620117,"y":130.21006774902344,"z":0.5999999642372131},"fault":{"name":"fault_free","severity":1.0},"capture_flags":{"save_rgb":true,"save_depth":false,"video_rgb":true,"video_depth":false}}
{"frame":25716,"timestamp":{"delta_seconds":0.05000000074505806,"elapsed_seconds":242.5090594086796},"control":{"throttle":0.75,"steer":0.0,"brake":0.0,"hand_brake":false,"reverse":false,"manual_gear_shift":false,"gear":0},"transform":{"location":{"x":-64.64484405517578,"y":24.471010208129883,"z":-0.04207824543118477},"rotation":{"pitch":0.0,"yaw":0.15919795632362366,"roll":0.0}},"velocity":{"x":2.3526395054318527e-08,"y":1.8543867552622828e-09,"z":0.23370592296123505},"angular_velocity":{"x":-1.3488269360095728e-05,"y":3.167600152664818e-05,"z":2.7403021518601633e-10},"acceleration":{"x":1.4638459333582432e-07,"y":-3.6575167996488744e-06,"z":0.006669759750366211},"speed_mps":0.23370592296123624,"speed_kph":0.8413413226604505,"speed_limit_kph":30.0,"collisions_this_frame":[],"waypoint":{"x":-64.64469146728516,"y":24.504404067993164,"z":0.0},"lane_deviation_m":0.05371919646859169,"lane_width":3.5,"goal":{"x":-18.385923385620117,"y":130.21006774902344,"z":0.5999999642372131},"fault":{"name":"fault_free","severity":1.0},"capture_flags":{"save_rgb":true,"save_depth":false,"video_rgb":true,"video_depth":false}}
{"frame":25717,"timestamp":{"delta_seconds":0.05000000074505806,"elapsed_seconds":242.55905940942466},"control":{"throttle":0.75,"steer":0.0,"brake":0.0,"hand_brake":false,"reverse":false,"manual_gear_shift":false,"gear":0},"transform":{"location":{"x":-64.63247680664062,"y":24.471046447753906,"z":-0.031377408653497696},"rotation":{"pitch":0.014541472308337688,"yaw":0.15892018377780914,"roll":-6.103515261202119e-05}},"velocity":{"x":0.6032189130783081,"y":0.0016932974103838205,"z":0.2014356553554535},"angular_velocity":{"x":0.0018380200490355492,"y":-0.6498922109603882,"z":0.0004675326053984463},"acceleration":{"x":12.06437873840332,"y":0.03386591002345085,"z":-0.6454053521156311},"speed_mps":0.6359656025289233,"speed_kph":2.289476169104124,"speed_limit_kph":30.0,"collisions_this_frame":[],"waypoint":{"x":-64.63232421875,"y":24.504438400268555,"z":0.0},"lane_deviation_m":0.045821256935596466,"lane_width":3.5,"goal":{"x":-18.385923385620117,"y":130.21006774902344,"z":0.5999999642372131},"fault":{"name":"fault_free","severity":1.0},"capture_flags":{"save_rgb":true,"save_depth":false,"video_rgb":true,"video_depth":false}}
{"frame":25718,"timestamp":{"delta_seconds":0.05000000074505806,"elapsed_seconds":242.60905941016972},"control":{"throttle":0.75,"steer":0.0,"brake":0.0,"hand_brake":false,"reverse":false,"manual_gear_shift":false,"gear":0},"transform":{"location":{"x":-64.58267974853516,"y":24.47118377685547,"z":-0.022708091884851456},"rotation":{"pitch":0.04654773697257042,"yaw":0.15889814496040344,"roll":-6.103514533606358e-05}},"velocity":{"x":1.2323728799819946,"y":0.0034191813319921494,"z":0.16076454520225525},"angular_velocity":{"x":0.0015348426532000303,"y":-0.5740026831626892,"z":0.0001668730255914852},"acceleration":{"x":12.58307933807373,"y":0.03451767936348915,"z":-0.8134222030639648},"speed_mps":1.242819313138553,"speed_kph":4.474149527298791,"speed_limit_kph":30.0,"collisions_this_frame":[],"waypoint":{"x":-64.58252716064453,"y":24.504575729370117,"z":0.0},"lane_deviation_m":0.04038196802139282,"lane_width":3.5,"goal":{"x":-18.385923385620117,"y":130.21006774902344,"z":0.5999999642372131},"fault":{"name":"fault_free","severity":1.0},"capture_flags":{"save_rgb":true,"save_depth":false,"video_rgb":true,"video_depth":false}}
{"frame":25719,"timestamp":{"delta_seconds":0.05000000074505806,"elapsed_seconds":242.65905941091478},"control":{"throttle":0.75,"steer":-0.003659220412373543,"brake":0.0,"hand_brake":false,"reverse":false,"manual_gear_shift":false,"gear":0},"transform":{"location":{"x":-64.5017318725586,"y":24.471282958984375,"z":-0.015995826572179794},"rotation":{"pitch":0.07300788909196854,"yaw":0.153168186545372,"roll":0.00046179851051419973}},"velocity":{"x":1.7995798587799072,"y":0.0008375421748496592,"z":0.12241896986961365},"angular_velocity":{"x":-0.007879710756242275,"y":-0.38310834765434265,"z":-0.14823301136493683},"acceleration":{"x":11.344139099121094,"y":-0.05163278430700302,"z":-0.766911506652832},"speed_mps":1.803739109125026,"speed_kph":6.493460792850094,"speed_limit_kph":30.0,"collisions_this_frame":[],"waypoint":{"x":-64.5015869140625,"y":24.50480079650879,"z":0.0},"lane_deviation_m":0.037139371037483215,"lane_width":3.5,"goal":{"x":-18.385923385620117,"y":130.21006774902344,"z":0.5999999642372131},"fault":{"name":"fault_free","severity":1.0},"capture_flags":{"save_rgb":true,"save_depth":false,"video_rgb":true,"video_depth":false}}
{"frame":25720,"timestamp":{"delta_seconds":0.05000000074505806,"elapsed_seconds":242.70905941165984},"control":{"throttle":0.75,"steer":-0.003659220412373543,"brake":0.0,"hand_brake":false,"reverse":false,"manual_gear_shift":false,"gear":0},"transform":{"location":{"x":-64.39686584472656,"y":24.471364974975586,"z":-0.010952148586511612},"rotation":{"pitch":0.08771328628063202,"yaw":0.144558846950531,"roll":0.0007171953329816461}},"velocity":{"x":2.2414591312408447,"y":0.0005335703026503325,"z":0.0903078094124794},"angular_velocity":{"x":-0.0021217414177954197,"y":-0.17789551615715027,"z":-0.18188461661338806},"acceleration":{"x":8.83758544921875,"y":-0.006079437211155891,"z":-0.6422232389450073},"speed_mps":2.243277696176091,"speed_kph":8.075799706233928,"speed_limit_kph":30.0,"collisions_this_frame":[],"waypoint":{"x":-64.396728515625,"y":24.50509262084961,"z":0.0},"lane_deviation_m":0.03546156361699104,"lane_width":3.5,"goal":{"x":-18.385923385620117,"y":130.21006774902344,"z":0.5999999642372131},"fault":{"name":"fault_free","severity":1.0},"capture_flags":{"save_rgb":true,"save_depth":false,"video_rgb":true,"video_depth":false}}
{"frame":25721,"timestamp":{"delta_seconds":0.05000000074505806,"elapsed_seconds":242.7590594124049},"control":{"throttle":0.75,"steer":-0.0007934809545986354,"brake":0.0,"hand_brake":false,"reverse":false,"manual_gear_shift":false,"gear":0},"transform":{"location":{"x":-64.2746810913086,"y":24.471553802490234,"z":-0.007242164574563503},"rotation":{"pitch":0.09159283339977264,"yaw":0.14033760130405426,"roll":0.0002770097926259041}},"velocity":{"x":2.5740301609039307,"y":0.004296242259442806,"z":0.06511129438877106},"angular_velocity":{"x":0.00843733549118042,"y":-0.02771676518023014,"z":-0.042323168367147446},"acceleration":{"x":6.651420593261719,"y":0.0752534419298172,"z":-0.5039303302764893},"speed_mps":2.574857123725052,"speed_kph":9.269485645410189,"speed_limit_kph":30.0,"collisions_this_frame":[],"waypoint":{"x":-64.27455139160156,"y":24.50543212890625,"z":0.0},"lane_deviation_m":0.034644000232219696,"lane_width":3.5,"goal":{"x":-18.385923385620117,"y":130.21006774902344,"z":0.5999999642372131},"fault":{"name":"fault_free","severity":1.0},"capture_flags":{"save_rgb":true,"save_depth":false,"video_rgb":true,"video_depth":false}}
{"frame":25722,"timestamp":{"delta_seconds":0.05000000074505806,"elapsed_seconds":242.80905941314995},"control":{"throttle":0.75,"steer":-0.0007934809545986354,"brake":0.0,"hand_brake":false,"reverse":false,"manual_gear_shift":false,"gear":0},"transform":{"location":{"x":-64.1370849609375,"y":24.47182273864746,"z":-0.004571991041302681},"rotation":{"pitch":0.09046585112810135,"yaw":0.13756701350212097,"roll":4.4871809222968295e-05}},"velocity":{"x":2.868065357208252,"y":0.0053215292282402515,"z":0.04613584280014038},"angular_velocity":{"x":0.002564753405749798,"y":0.04779309034347534,"z":-0.053093861788511276},"acceleration":{"x":5.880703926086426,"y":0.020505739375948906,"z":-0.3795090317726135},"speed_mps":2.8684413411959993,"speed_kph":10.326388828305598,"speed_limit_kph":30.0,"collisions_this_frame":[],"waypoint":{"x":-64.136962890625,"y":24.505813598632812,"z":0.0},"lane_deviation_m":0.03429717943072319,"lane_width":3.5,"goal":{"x":-18.385923385620117,"y":130.21006774902344,"z":0.5999999642372131},"fault":{"name":"fault_free","severity":1.0},"capture_flags":{"save_rgb":true,"save_depth":false,"video_rgb":true,"video_depth":false}}
{"frame":25723,"timestamp":{"delta_seconds":0.05000000074505806,"elapsed_seconds":242.859059413895},"control":{"throttle":0.75,"steer":0.00455439044162631,"brake":0.0,"hand_brake":false,"reverse":false,"manual_gear_shift":false,"gear":0},"transform":{"location":{"x":-63.984954833984375,"y":24.47238540649414,"z":-0.00268211355432868},"rotation":{"pitch":0.08747422695159912,"yaw":0.14730221033096313,"roll":-0.0011596677359193563}},"velocity":{"x":3.1581521034240723,"y":0.015161891467869282,"z":0.03224817290902138},"angular_velocity":{"x":0.02125094272196293,"y":0.06379947811365128,"z":0.27871063351631165},"acceleration":{"x":5.801734924316406,"y":0.19680723547935486,"z":-0.27775341272354126},"speed_mps":3.1583531366791058,"speed_kph":11.37007129204478,"speed_limit_kph":30.0,"collisions_this_frame":[],"waypoint":{"x":-63.974090576171875,"y":24.505924224853516,"z":0.0},"lane_deviation_m":0.035356443375349045,"lane_width":3.5,"goal":{"x":-18.385923385620117,"y":130.21006774902344,"z":0.5999999642372131},"fault":{"name":"fault_free","severity":1.0},"capture_flags":{"save_rgb":true,"save_depth":false,"video_rgb":true,"video_depth":false}}
{"frame":25724,"timestamp":{"delta_seconds":0.05000000074505806,"elapsed_seconds":242.90905941464007},"control":{"throttle":0.75,"steer":0.00455439044162631,"brake":0.0,"hand_brake":false,"reverse":false,"manual_gear_shift":false,"gear":0},"transform":{"location":{"x":-63.81885528564453,"y":24.473175048828125,"z":-0.0013616943033412099},"rotation":{"pitch":0.08404546976089478,"yaw":0.163235142827034,"roll":-0.0017395017202943563}},"velocity":{"x":3.4322445392608643,"y":0.01892208680510521,"z":0.022296447306871414},"angular_velocity":{"x":0.006120259873569012,"y":0.07009633630514145,"z":0.3372567892074585},"acceleration":{"x":5.48184871673584,"y":0.07520391047000885,"z":-0.19903451204299927},"speed_mps":3.4323691168371724,"speed_kph":12.356528820613821,"speed_limit_kph":30.0,"collisions_this_frame":[],"waypoint":{"x":-63.79037857055664,"y":24.504379272460938,"z":0.0},"lane_deviation_m":0.042266786098480225,"lane_width":3.5,"goal":{"x":-18.385923385620117,"y":130.21006774902344,"z":0.5999999642372131},"fault":{"name":"fault_free","severity":1.0},"capture_flags":{"save_rgb":true,"save_depth":false,"video_rgb":true,"video_depth":false}}
{"frame":25725,"timestamp":{"delta_seconds":0.05000000074505806,"elapsed_seconds":242.95905941538513},"control":{"throttle":0.75,"steer":0.007229543291032314,"brake":0.0,"hand_brake":false,"reverse":false,"manual_gear_shift":false,"gear":0},"transform":{"location":{"x":-63.63908004760742,"y":24.47425651550293,"z":-0.00044811246334575117},"rotation":{"pitch":0.08072599768638611,"yaw":0.18823790550231934,"roll":-0.0025024411734193563}},"velocity":{"x":3.701781749725342,"y":0.027190832421183586,"z":0.015276727266609669},"angular_velocity":{"x":0.012564556673169136,"y":0.0660625547170639,"z":0.5563890337944031},"acceleration":{"x":5.390744209289551,"y":0.16537490487098694,"z":-0.1403944045305252},"speed_mps":3.7019131327414136,"speed_kph":13.326887277869089,"speed_limit_kph":30.0,"collisions_this_frame":[],"waypoint":{"x":-63.63901138305664,"y":24.507198333740234,"z":0.0},"lane_deviation_m":0.0329449400305748,"lane_width":3.5,"goal":{"x":-18.385923385620117,"y":130.21006774902344,"z":0.5999999642372131},"fault":{"name":"fault_free","severity":1.0},"capture_flags":{"save_rgb":true,"save_depth":false,"video_rgb":true,"video_depth":false}}
{"frame":25726,"timestamp":{"delta_seconds":0.05000000074505806,"elapsed_seconds":243.00905941613019},"control":{"throttle":0.75,"steer":0.007229543291032314,"brake":0.0,"hand_brake":false,"reverse":false,"manual_gear_shift":false,"gear":0},"transform":{"location":{"x":-63.44648742675781,"y":24.475587844848633,"z":0.00018196106248069555},"rotation":{"pitch":0.07726992666721344,"yaw":0.2180771380662918,"roll":-0.0028381342999637127}},"velocity":{"x":3.951605796813965,"y":0.03184296190738678,"z":0.010386571288108826},"angular_velocity":{"x":0.0027326818089932203,"y":0.06965667009353638,"z":0.6175179481506348},"acceleration":{"x":4.996480941772461,"y":0.09304258972406387,"z":-0.09780311584472656},"speed_mps":3.9517477435306883,"speed_kph":14.226291876710478,"speed_limit_kph":30.0,"collisions_this_frame":[],"waypoint":{"x":-63.44643020629883,"y":24.507732391357422,"z":0.0},"lane_deviation_m":0.03214511275291443,"lane_width":3.5,"goal":{"x":-18.385923385620117,"y":130.21006774902344,"z":0.5999999642372131},"fault":{"name":"fault_free","severity":1.0},"capture_flags":{"save_rgb":true,"save_depth":false,"video_rgb":true,"video_depth":false}}
{"frame":25727,"timestamp":{"delta_seconds":0.05000000074505806,"elapsed_seconds":243.05905941687524},"control":{"throttle":0.75,"steer":-0.00844254158437252,"brake":0.0,"hand_brake":false,"reverse":false,"manual_gear_shift":false,"gear":0},"transform":{"location":{"x":-63.2416877746582,"y":24.47616958618164,"z":0.0006151580600999296},"rotation":{"pitch":0.07384800165891647,"yaw":0.20443987846374512,"roll":0.0013356342678889632}},"velocity":{"x":4.191864490509033,"y":0.0020894440822303295,"z":0.007017116528004408},"angular_velocity":{"x":-0.0785527303814888,"y":0.06693439930677414,"z":-0.5760011076927185},"acceleration":{"x":4.805173873901367,"y":-0.5950703620910645,"z":-0.0673890933394432},"speed_mps":4.191870884520598,"speed_kph":15.090735184274152,"speed_limit_kph":30.0,"collisions_this_frame":[],"waypoint":{"x":-63.24163818359375,"y":24.508302688598633,"z":0.0},"lane_deviation_m":0.03213902935385704,"lane_width":3.5,"goal":{"x":-18.385923385620117,"y":130.21006774902344,"z":0.5999999642372131},"fault":{"name":"fault_free","severity":1.0},"capture_flags":{"save_rgb":true,"save_depth":false,"video_rgb":true,"video_depth":false}}
{"frame":25728,"timestamp":{"delta_seconds":0.05000000074505806,"elapsed_seconds":243.1090594176203},"control":{"throttle":0.75,"steer":-0.00844254158437252,"brake":0.0,"hand_brake":false,"reverse":false,"manual_gear_shift":false,"gear":0},"transform":{"location":{"x":-63.02509689331055,"y":24.47617530822754,"z":0.000912094081286341},"rotation":{"pitch":0.0706651359796524,"yaw":0.16854849457740784,"roll":0.003640606068074703}},"velocity":{"x":4.42529296875,"y":-0.006657393649220467,"z":0.004714164417237043},"angular_velocity":{"x":-0.02783951535820961,"y":0.06076874956488609,"z":-0.7739033699035645},"acceleration":{"x":4.668569564819336,"y":-0.17493677139282227,"z":-0.04605904221534729},"speed_mps":4.425300487368575,"speed_kph":15.93108175452687,"speed_limit_kph":30.0,"collisions_this_frame":[],"waypoint":{"x":-63.02505111694336,"y":24.50890350341797,"z":0.0},"lane_deviation_m":0.03274093568325043,"lane_width":3.5,"goal":{"x":-18.385923385620117,"y":130.21006774902344,"z":0.5999999642372131},"fault":{"name":"fault_free","severity":1.0},"capture_flags":{"save_rgb":true,"save_depth":false,"video_rgb":true,"video_depth":false}}
{"frame":25729,"timestamp":{"delta_seconds":0.05000000074505806,"elapsed_seconds":243.15905941836536},"control":{"throttle":0.75,"steer":0.0011195564875379205,"brake":0.0,"hand_brake":false,"reverse":false,"manual_gear_shift":false,"gear":0},"transform":{"location":{"x":-62.79697799682617,"y":24.476531982421875,"z":0.001114807091653347},"rotation":{"pitch":0.06785109639167786,"yaw":0.1571669727563858,"roll":0.0015450260834768414}},"velocity":{"x":4.654054641723633,"y":0.010430118069052696,"z":0.003152122488245368},"angular_velocity":{"x":0.04639589414000511,"y":0.05306554585695267,"z":-0.034272775053977966},"acceleration":{"x":4.575233459472656,"y":0.34175023436546326,"z":-0.031240839511156082},"speed_mps":4.654067396524078,"speed_kph":16.75464262748668,"speed_limit_kph":30.0,"collisions_this_frame":[],"waypoint":{"x":-62.77695083618164,"y":24.508277893066406,"z":0.0},"lane_deviation_m":0.03755173459649086,"lane_width":3.5,"goal":{"x":-18.385923385620117,"y":130.21006774902344,"z":0.5999999642372131},"fault":{"name":"fault_free","severity":1.0},"capture_flags":{"save_rgb":true,"save_depth":false,"video_rgb":true,"video_depth":false}}
{"frame":25730,"timestamp":{"delta_seconds":0.05000000074505806,"elapsed_seconds":243.20905941911042},"control":{"throttle":0.75,"steer":0.0011195564875379205,"brake":0.0,"hand_brake":false,"reverse":false,"manual_gear_shift":false,"gear":0},"transform":{"location":{"x":-62.55708312988281,"y":24.47749137878418,"z":0.0025082395877689123},"rotation":{"pitch":0.130893737077713,"yaw":0.15568968653678894,"roll":-0.1500854641199112}},"velocity":{"x":4.87885856628418,"y":-0.00894332304596901,"z":0.023793602362275124},"angular_velocity":{"x":1.073262333869934,"y":-0.6330757737159729,"z":-0.14400318264961243},"acceleration":{"x":4.4960784912109375,"y":-0.3874688148498535,"z":0.41282957792282104},"speed_mps":4.878924781992954,"speed_kph":17.564129215174635,"speed_limit_kph":30.0,"collisions_this_frame":[],"waypoint":{"x":-62.51434326171875,"y":24.50429916381836,"z":0.0},"lane_deviation_m":0.05051381140947342,"lane_width":3.5,"goal":{"x":-18.385923385620117,"y":130.21006774902344,"z":0.5999999642372131},"fault":{"name":"fault_free","severity":1.0},"capture_flags":{"save_rgb":true,"save_depth":false,"video_rgb":true,"video_depth":false}}
{"frame":25731,"timestamp":{"delta_seconds":0.05000000074505806,"elapsed_seconds":243.25905941985548},"control":{"throttle":0.4873823821544647,"steer":0.004126370884478092,"brake":0.0,"hand_brake":false,"reverse":false,"manual_gear_shift":false,"gear":0},"transform":{"location":{"x":-62.30674362182617,"y":24.47768783569336,"z":0.0032932281028479338},"rotation":{"pitch":0.14345446228981018,"yaw":0.1540801078081131,"roll":-0.1669922024011612}},"velocity":{"x":5.0811896324157715,"y":0.007836569100618362,"z":0.016087645664811134},"angular_velocity":{"x":0.10553503781557083,"y":-0.08122657984495163,"z":0.046574629843235016},"acceleration":{"x":4.046621322631836,"y":0.33559784293174744,"z":-0.15411913394927979},"speed_mps":5.08122114306471,"speed_kph":18.292396115032954,"speed_limit_kph":30.0,"collisions_this_frame":[],"waypoint":{"x":-62.24037170410156,"y":24.49650764465332,"z":0.0},"lane_deviation_m":0.06906708329916,"lane_width":3.5,"goal":{"x":-18.385923385620117,"y":130.21006774902344,"z":0.5999999642372131},"fault":{"name":"fault_free","severity":1.0},"capture_flags":{"save_rgb":true,"save_depth":false,"video_rgb":true,"video_depth":false}}
{"frame":25732,"timestamp":{"delta_seconds":0.05000000074505806,"elapsed_seconds":243.30905942060053},"control":{"throttle":0.4873823821544647,"steer":0.004126370884478092,"brake":0.0,"hand_brake":false,"reverse":false,"manual_gear_shift":false,"gear":0},"transform":{"location":{"x":-62.04804229736328,"y":24.477872848510742,"z":0.0033876800443977118},"rotation":{"pitch":0.11562826484441757,"yaw":0.16720421612262726,"roll":-0.0883178561925888}},"velocity":{"x":5.246039867401123,"y":0.03086865320801735,"z":-0.038409147411584854},"angular_velocity":{"x":-5.350924968719482,"y":2.0700414180755615,"z":-0.1663132756948471},"acceleration":{"x":3.2970046997070312,"y":0.46064168214797974,"z":-1.0899358987808228},"speed_mps":5.2462712879451585,"speed_kph":18.88657663660257,"speed_limit_kph":30.0,"collisions_this_frame":[],"waypoint":{"x":-61.95738983154297,"y":24.48455238342285,"z":0.0},"lane_deviation_m":0.09096132218837738,"lane_width":3.5,"goal":{"x":-18.385923385620117,"y":130.21006774902344,"z":0.5999999642372131},"fault":{"name":"fault_free","severity":1.0},"capture_flags":{"save_rgb":true,"save_depth":false,"video_rgb":true,"video_depth":false}}
{"frame":25733,"timestamp":{"delta_seconds":0.05000000074505806,"elapsed_seconds":243.3590594213456},"control":{"throttle":0.10646344721317291,"steer":-0.0056072198785841465,"brake":0.0,"hand_brake":false,"reverse":false,"manual_gear_shift":false,"gear":0},"transform":{"location":{"x":-61.78798294067383,"y":24.47848129272461,"z":0.002500152448192239},"rotation":{"pitch":0.05658811330795288,"yaw":0.18472638726234436,"roll":-0.0036621089093387127}},"velocity":{"x":5.184030532836914,"y":0.021201180294156075,"z":-0.01752755045890808},"angular_velocity":{"x":-0.5704503059387207,"y":0.7792980670928955,"z":3.294217586517334},"acceleration":{"x":-1.2401866912841797,"y":-0.1933494508266449,"z":0.41763192415237427},"speed_mps":5.184103516564492,"speed_kph":18.66277265963217,"speed_limit_kph":30.0,"collisions_this_frame":[],"waypoint":{"x":-61.714866638183594,"y":24.471139907836914,"z":0.0},"lane_deviation_m":0.07352645695209503,"lane_width":3.5,"goal":{"x":-18.385923385620117,"y":130.21006774902344,"z":0.5999999642372131},"fault":{"name":"fault_free","severity":1.0},"capture_flags":{"save_rgb":true,"save_depth":false,"video_rgb":true,"video_depth":false}}
{"frame":25734,"timestamp":{"delta_seconds":0.05000000074505806,"elapsed_seconds":243.40905942209065},"control":{"throttle":0.10646344721317291,"steer":-0.0056072198785841465,"brake":0.0,"hand_brake":false,"reverse":false,"manual_gear_shift":false,"gear":0},"transform":{"location":{"x":-61.530765533447266,"y":24.47939682006836,"z":0.002098159631714225},"rotation":{"pitch":0.0314803384244442,"yaw":0.12154028564691544,"roll":0.006438497453927994}},"velocity":{"x":5.123230934143066,"y":0.00759670278057456,"z":-0.007603988517075777},"angular_velocity":{"x":-0.08601567894220352,"y":0.3743840754032135,"z":-4.300872325897217},"acceleration":{"x":-1.2159919738769531,"y":-0.27208954095840454,"z":0.19847124814987183},"speed_mps":5.12324220929432,"speed_kph":18.443671953459553,"speed_limit_kph":30.0,"collisions_this_frame":[],"waypoint":{"x":-61.515323638916016,"y":24.45790672302246,"z":0.0},"lane_deviation_m":0.026545783504843712,"lane_width":3.5,"goal":{"x":-18.385923385620117,"y":130.21006774902344,"z":0.5999999642372131},"fault":{"name":"fault_free","severity":1.0},"capture_flags":{"save_rgb":true,"save_depth":false,"video_rgb":true,"video_depth":false}}
{"frame":25735,"timestamp":{"delta_seconds":0.05000000074505806,"elapsed_seconds":243.4590594228357},"control":{"throttle":0.10646344721317291,"steer":-0.0023181734140962362,"brake":0.0,"hand_brake":false,"reverse":false,"manual_gear_shift":false,"gear":0},"transform":{"location":{"x":-61.27668380737305,"y":24.479658126831055,"z":0.001951942453160882},"rotation":{"pitch":0.01760139688849449,"yaw":0.13756030797958374,"roll":0.006431692745536566}},"velocity":{"x":5.056704998016357,"y":0.006599638145416975,"z":-0.0029948423616588116},"angular_velocity":{"x":0.025988800451159477,"y":0.2296898514032364,"z":3.376694679260254},"acceleration":{"x":-1.3305187225341797,"y":-0.019941292703151703,"z":0.09218291938304901},"speed_mps":5.056710191544304,"speed_kph":18.204156689559493,"speed_limit_kph":30.0,"collisions_this_frame":[],"waypoint":{"x":-61.27677917480469,"y":24.513763427734375,"z":0.0},"lane_deviation_m":0.034161247313022614,"lane_width":3.5,"goal":{"x":-18.385923385620117,"y":130.21006774902344,"z":0.5999999642372131},"fault":{"name":"fault_free","severity":1.0},"capture_flags":{"save_rgb":true,"save_depth":false,"video_rgb":true,"video_depth":false}}
{"frame":25736,"timestamp":{"delta_seconds":0.05000000074505806,"elapsed_seconds":243.50905942358077},"control":{"throttle":0.10646344721317291,"steer":-0.0023181734140962362,"brake":0.0,"hand_brake":false,"reverse":false,"manual_gear_shift":false,"gear":0},"transform":{"location":{"x":-61.026023864746094,"y":24.4802188873291,"z":0.0019250105833634734},"rotation":{"pitch":0.008346490561962128,"yaw":0.08403423428535461,"roll":0.005487019196152687}},"velocity":{"x":4.985931396484375,"y":0.0036623035557568073,"z":-0.0009321498801000416},"angular_velocity":{"x":0.013355923816561699,"y":0.16108040511608124,"z":-4.051958084106445},"acceleration":{"x":-1.4154720306396484,"y":-0.058746691793203354,"z":0.04125384986400604},"speed_mps":4.98593282865096,"speed_kph":17.949358183143456,"speed_limit_kph":30.0,"collisions_this_frame":[],"waypoint":{"x":-61.026119232177734,"y":24.51445960998535,"z":0.0},"lane_deviation_m":0.03429492190480232,"lane_width":3.5,"goal":{"x":-18.385923385620117,"y":130.21006774902344,"z":0.5999999642372131},"fault":{"name":"fault_free","severity":1.0},"capture_flags":{"save_rgb":true,"save_depth":false,"video_rgb":true,"video_depth":false}}
{"frame":25737,"timestamp":{"delta_seconds":0.05000000074505806,"elapsed_seconds":243.55905942432582},"control":{"throttle":0.19105200469493866,"steer":0.008658072911202908,"brake":0.0,"hand_brake":false,"reverse":false,"manual_gear_shift":false,"gear":0},"transform":{"location":{"x":-60.77493667602539,"y":24.481088638305664,"z":0.001897735521197319},"rotation":{"pitch":0.0055392831563949585,"yaw":0.10172373801469803,"roll":0.0013916452880948782}},"velocity":{"x":4.998658180236816,"y":0.02438250742852688,"z":0.000599231687374413},"angular_velocity":{"x":0.06639104336500168,"y":0.09112659096717834,"z":1.0332762002944946},"acceleration":{"x":0.2545356750488281,"y":0.41440409421920776,"z":0.03062763251364231},"speed_mps":4.99871768242572,"speed_kph":17.995383656732592,"speed_limit_kph":30.0,"collisions_this_frame":[],"waypoint":{"x":-60.77503204345703,"y":24.51515769958496,"z":0.0},"lane_deviation_m":0.034122008830308914,"lane_width":3.5,"goal":{"x":-18.385923385620117,"y":130.21006774902344,"z":0.5999999642372131},"fault":{"name":"fault_free","severity":1.0},"capture_flags":{"save_rgb":true,"save_depth":false,"video_rgb":true,"video_depth":false}}
{"frame":25738,"timestamp":{"delta_seconds":0.05000000074505806,"elapsed_seconds":243.60905942507088},"control":{"throttle":0.19105200469493866,"steer":0.008658072911202908,"brake":0.0,"hand_brake":false,"reverse":false,"manual_gear_shift":false,"gear":0},"transform":{"location":{"x":-60.52391052246094,"y":24.482458114624023,"z":0.0019087600521743298},"rotation":{"pitch":0.0037566039245575666,"yaw":0.12958668172359467,"roll":-0.0008544920710846782}},"velocity":{"x":4.994140625,"y":0.032037124037742615,"z":0.0012040709843859076},"angular_velocity":{"x":0.01962638460099697,"y":0.07835792005062103,"z":-2.8800106048583984},"acceleration":{"x":-0.09035110473632812,"y":0.15309232473373413,"z":0.012096785940229893},"speed_mps":4.99424352724003,"speed_kph":17.97927669806411,"speed_limit_kph":30.0,"collisions_this_frame":[],"waypoint":{"x":-60.52400207519531,"y":24.51585578918457,"z":0.0},"lane_deviation_m":0.03345229849219322,"lane_width":3.5,"goal":{"x":-18.385923385620117,"y":130.21006774902344,"z":0.5999999642372131},"fault":{"name":"fault_free","severity":1.0},"capture_flags":{"save_rgb":true,"save_depth":false,"video_rgb":true,"video_depth":false}}
{"frame":25739,"timestamp":{"delta_seconds":0.05000000074505806,"elapsed_seconds":243.65905942581594},"control":{"throttle":0.14021949470043182,"steer":0.020737769082188606,"brake":0.0,"hand_brake":false,"reverse":false,"manual_gear_shift":false,"gear":0},"transform":{"location":{"x":-60.27349090576172,"y":24.484792709350586,"z":0.0018700789660215378},"rotation":{"pitch":0.002281283028423786,"yaw":0.20278288424015045,"roll":-0.005401611328125}},"velocity":{"x":5.001296043395996,"y":0.06458401679992676,"z":-0.004980525933206081},"angular_velocity":{"x":0.06110018119215965,"y":0.020650366321206093,"z":2.006467342376709},"acceleration":{"x":0.14310836791992188,"y":0.6509378552436829,"z":-0.12369193881750107},"speed_mps":5.0017155071588215,"speed_kph":18.00617582577176,"speed_limit_kph":30.0,"collisions_this_frame":[],"waypoint":{"x":-60.27357864379883,"y":24.516550064086914,"z":0.0},"lane_deviation_m":0.03181248903274536,"lane_width":3.5,"goal":{"x":-18.385923385620117,"y":130.21006774902344,"z":0.5999999642372131},"fault":{"name":"fault_free","severity":1.0},"capture_flags":{"save_rgb":true,"save_depth":false,"video_rgb":true,"video_depth":false}}
{"frame":25740,"timestamp":{"delta_seconds":0.05000000074505806,"elapsed_seconds":243.709059426561},"control":{"throttle":0.14021949470043182,"steer":0.020737769082188606,"brake":0.0,"hand_brake":false,"reverse":false,"manual_gear_shift":false,"gear":0},"transform":{"location":{"x":-60.0236930847168,"y":24.488134384155273,"z":0.0019326781621202826},"rotation":{"pitch":0.0008810943691059947,"yaw":0.27898314595222473,"roll":-0.007812499534338713}},"velocity":{"x":4.969658374786377,"y":0.07957631349563599,"z":0.00212579732760787},"angular_velocity":{"x":0.01500739250332117,"y":0.06889333575963974,"z":-1.845887541770935},"acceleration":{"x":-0.6327533721923828,"y":0.29984593391418457,"z":0.14212647080421448},"speed_mps":4.970295893683615,"speed_kph":17.893065217261015,"speed_limit_kph":30.0,"collisions_this_frame":[],"waypoint":{"x":-60.023773193359375,"y":24.517244338989258,"z":0.0},"lane_deviation_m":0.02917415089905262,"lane_width":3.5,"goal":{"x":-18.385923385620117,"y":130.21006774902344,"z":0.5999999642372131},"fault":{"name":"fault_free","severity":1.0},"capture_flags":{"save_rgb":true,"save_depth":false,"video_rgb":true,"video_depth":false}}
{"frame":25741,"timestamp":{"delta_seconds":0.05000000074505806,"elapsed_seconds":243.75905942730606},"control":{"throttle":0.2871815264225006,"steer":0.022578269243240356,"brake":0.0,"hand_brake":false,"reverse":false,"manual_gear_shift":false,"gear":0},"transform":{"location":{"x":-59.77457809448242,"y":24.491962432861328,"z":0.001774330041371286},"rotation":{"pitch":0.00013660377589985728,"yaw":0.3888630270957947,"roll":-0.00872802548110485}},"velocity":{"x":4.98581600189209,"y":0.09509091079235077,"z":-0.0020816039759665728},"angular_velocity":{"x":0.015179300680756569,"y":0.004425799008458853,"z":2.2834651470184326},"acceleration":{"x":0.3231525421142578,"y":0.31029194593429565,"z":-0.08414803445339203},"speed_mps":4.986723154448586,"speed_kph":17.95220335601491,"speed_limit_kph":30.0,"collisions_this_frame":[],"waypoint":{"x":-59.77465057373047,"y":24.51793670654297,"z":0.0},"lane_deviation_m":0.02603490650653839,"lane_width":3.5,"goal":{"x":-18.385923385620117,"y":130.21006774902344,"z":0.5999999642372131},"fault":{"name":"fault_free","severity":1.0},"capture_flags":{"save_rgb":true,"save_depth":false,"video_rgb":true,"video_depth":false}}
{"frame":25742,"timestamp":{"delta_seconds":0.05000000074505806,"elapsed_seconds":243.8090594280511},"control":{"throttle":0.2871815264225006,"steer":0.022578269243240356,"brake":0.0,"hand_brake":false,"reverse":false,"manual_gear_shift":false,"gear":0},"transform":{"location":{"x":-59.52534484863281,"y":24.496517181396484,"z":0.003271903842687607},"rotation":{"pitch":-0.06277626752853394,"yaw":0.5110799670219421,"roll":-0.1172790378332138}},"velocity":{"x":4.999095916748047,"y":0.08853762596845627,"z":0.017694387584924698},"angular_velocity":{"x":1.1098031997680664,"y":0.8182691931724548,"z":2.6186389923095703},"acceleration":{"x":0.2655982971191406,"y":-0.13106569647789001,"z":0.39551985263824463},"speed_mps":4.999911197952533,"speed_kph":17.999680312629117,"speed_limit_kph":30.0,"collisions_this_frame":[],"waypoint":{"x":-59.52540588378906,"y":24.51862907409668,"z":0.0},"lane_deviation_m":0.022352738305926323,"lane_width":3.5,"goal":{"x":-18.385923385620117,"y":130.21006774902344,"z":0.5999999642372131},"fault":{"name":"fault_free","severity":1.0},"capture_flags":{"save_rgb":true,"save_depth":false,"video_rgb":true,"video_depth":false}}
{"frame":25743,"timestamp":{"delta_seconds":0.05000000074505806,"elapsed_seconds":243.85905942879617},"control":{"throttle":0.09563831984996796,"steer":0.0008885199204087257,"brake":0.0,"hand_brake":false,"reverse":false,"manual_gear_shift":false,"gear":0},"transform":{"location":{"x":-59.27550506591797,"y":24.49935531616211,"z":0.004189681727439165},"rotation":{"pitch":-0.0832190215587616,"yaw":0.5630892515182495,"roll":-0.1305847018957138}},"velocity":{"x":4.992963790893555,"y":0.05207693949341774,"z":0.011227473616600037},"angular_velocity":{"x":-0.06202765926718712,"y":0.1780250519514084,"z":-0.6990254521369934},"acceleration":{"x":-0.12264251708984375,"y":-0.7292137145996094,"z":-0.12933827936649323},"speed_mps":4.993247989131418,"speed_kph":17.975692760873105,"speed_limit_kph":30.0,"collisions_this_frame":[],"waypoint":{"x":-59.27555847167969,"y":24.519323348999023,"z":0.0},"lane_deviation_m":0.020402906462550163,"lane_width":3.5,"goal":{"x":-18.385923385620117,"y":130.21006774902344,"z":0.5999999642372131},"fault":{"name":"fault_free","severity":1.0},"capture_flags":{"save_rgb":true,"save_depth":false,"video_rgb":true,"video_depth":false}}
{"frame":25744,"timestamp":{"delta_seconds":0.05000000074505806,"elapsed_seconds":243.90905942954123},"control":{"throttle":0.09563831984996796,"steer":0.0008885199204087257,"brake":0.0,"hand_brake":false,"reverse":false,"manual_gear_shift":false,"gear":0},"transform":{"location":{"x":-59.02688217163086,"y":24.501665115356445,"z":0.004002151545137167},"rotation":{"pitch":-0.07287128269672394,"yaw":0.5853897929191589,"roll":-0.09539794921875}},"velocity":{"x":4.956027507781982,"y":0.06362342089414597,"z":-0.033909499645233154},"angular_velocity":{"x":-4.140697002410889,"y":-2.100658655166626,"z":0.24619820713996887},"acceleration":{"x":-0.7387256622314453,"y":0.23092962801456451,"z":-0.9027394652366638},"speed_mps":4.95655187118466,"speed_kph":17.843586736264776,"speed_limit_kph":30.0,"collisions_this_frame":[],"waypoint":{"x":-59.02693176269531,"y":24.520015716552734,"z":0.0},"lane_deviation_m":0.01878201961517334,"lane_width":3.5,"goal":{"x":-18.385923385620117,"y":130.21006774902344,"z":0.5999999642372131},"fault":{"name":"fault_free","severity":1.0},"capture_flags":{"save_rgb":true,"save_depth":false,"video_rgb":true,"video_depth":false}}
{"frame":25745,"timestamp":{"delta_seconds":0.05000000074505806,"elapsed_seconds":243.9590594302863},"control":{"throttle":0.3623722493648529,"steer":0.010037205182015896,"brake":0.0,"hand_brake":false,"reverse":false,"manual_gear_shift":false,"gear":0},"transform":{"location":{"x":-58.77973175048828,"y":24.504987716674805,"z":0.002548484830185771},"rotation":{"pitch":-0.017580905929207802,"yaw":0.6208176016807556,"roll":-0.01031494140625}},"velocity":{"x":4.924102783203125,"y":0.08773067593574524,"z":-0.016458015888929367},"angular_velocity":{"x":-0.7759743928909302,"y":-0.6749399900436401,"z":0.8918263912200928},"acceleration":{"x":-0.6384944915771484,"y":0.4821451008319855,"z":0.34902966022491455},"speed_mps":4.924911751223153,"speed_kph":17.72968230440335,"speed_limit_kph":30.0,"collisions_this_frame":[],"waypoint":{"x":-58.77977752685547,"y":24.520702362060547,"z":0.0},"lane_deviation_m":0.015920016914606094,"lane_width":3.5,"goal":{"x":-18.385923385620117,"y":130.21006774902344,"z":0.5999999642372131},"fault":{"name":"fault_free","severity":1.0},"capture_flags":{"save_rgb":true,"save_depth":false,"video_rgb":true,"video_depth":false}}
{"frame":25746,"timestamp":{"delta_seconds":0.05000000074505806,"elapsed_seconds":244.00905943103135},"control":{"throttle":0.3623722493648529,"steer":0.010037205182015896,"brake":0.0,"hand_brake":false,"reverse":false,"manual_gear_shift":false,"gear":0},"transform":{"location":{"x":-58.53351593017578,"y":24.50902557373047,"z":0.0019221495604142547},"rotation":{"pitch":-9.56226431299001e-05,"yaw":0.6702837944030762,"roll":0.005088307429105043}},"velocity":{"x":4.923829078674316,"y":0.08912283927202225,"z":-0.0072957416996359825},"angular_velocity":{"x":-0.12229286134243011,"y":-0.20828557014465332,"z":1.024808406829834},"acceleration":{"x":-0.005474090576171875,"y":0.02784326672554016,"z":0.1832454800605774},"speed_mps":4.9246409924303745,"speed_kph":17.72870757274935,"speed_limit_kph":30.0,"collisions_this_frame":[],"waypoint":{"x":-58.53355026245117,"y":24.521385192871094,"z":0.0},"lane_deviation_m":0.012508237734436989,"lane_width":3.5,"goal":{"x":-18.385923385620117,"y":130.21006774902344,"z":0.5999999642372131},"fault":{"name":"fault_free","severity":1.0},"capture_flags":{"save_rgb":true,"save_depth":false,"video_rgb":true,"video_depth":false}}
{"frame":25747,"timestamp":{"delta_seconds":0.05000000074505806,"elapsed_seconds":244.0590594317764},"control":{"throttle":0.4829765558242798,"steer":0.01352666411548853,"brake":0.0,"hand_brake":false,"reverse":false,"manual_gear_shift":false,"gear":0},"transform":{"location":{"x":-58.28650665283203,"y":24.51346206665039,"z":0.0016761397710070014},"rotation":{"pitch":0.005566603969782591,"yaw":0.7333252429962158,"roll":0.005373400170356035}},"velocity":{"x":4.954405784606934,"y":0.09998275339603424,"z":-0.0026648235507309437},"angular_velocity":{"x":0.03224070742726326,"y":-0.0751073807477951,"z":1.3496031761169434},"acceleration":{"x":0.6115341186523438,"y":0.21719828248023987,"z":0.09261836111545563},"speed_mps":4.955415253115308,"speed_kph":17.83949491121511,"speed_limit_kph":30.0,"collisions_this_frame":[],"waypoint":{"x":-58.286529541015625,"y":24.522071838378906,"z":0.0},"lane_deviation_m":0.008771439082920551,"lane_width":3.5,"goal":{"x":-18.385923385620117,"y":130.21006774902344,"z":0.5999999642372131},"fault":{"name":"fault_free","severity":1.0},"capture_flags":{"save_rgb":true,"save_depth":false,"video_rgb":true,"video_depth":false}}
{"frame":25748,"timestamp":{"delta_seconds":0.05000000074505806,"elapsed_seconds":244.10905943252146},"control":{"throttle":0.4829765558242798,"steer":0.01352666411548853,"brake":0.0,"hand_brake":false,"reverse":false,"manual_gear_shift":false,"gear":0},"transform":{"location":{"x":-58.03705596923828,"y":24.518306732177734,"z":0.0016683577559888363},"rotation":{"pitch":0.008503585122525692,"yaw":0.8033182621002197,"roll":0.0031489399261772633}},"velocity":{"x":5.014196872711182,"y":0.10797532647848129,"z":0.006534490268677473},"angular_velocity":{"x":0.05669178068637848,"y":-0.05914730578660965,"z":1.422154426574707},"acceleration":{"x":1.195821762084961,"y":0.15985146164894104,"z":0.18398627638816833},"speed_mps":5.0153635609991225,"speed_kph":18.055308819596842,"speed_limit_kph":30.0,"collisions_this_frame":[],"waypoint":{"x":-58.037071228027344,"y":24.522764205932617,"z":0.0},"lane_deviation_m":0.004759487695991993,"lane_width":3.5,"goal":{"x":-18.385923385620117,"y":130.21006774902344,"z":0.5999999642372131},"fault":{"name":"fault_free","severity":1.0},"capture_flags":{"save_rgb":true,"save_depth":false,"video_rgb":true,"video_depth":false}}
{"frame":25749,"timestamp":{"delta_seconds":0.05000000074505806,"elapsed_seconds":244.15905943326652},"control":{"throttle":0.05250433087348938,"steer":0.017400862649083138,"brake":0.0,"hand_brake":false,"reverse":false,"manual_gear_shift":false,"gear":0},"transform":{"location":{"x":-57.78447723388672,"y":24.52381134033203,"z":0.001863937359303236},"rotation":{"pitch":0.010627773590385914,"yaw":0.8873180150985718,"roll":-0.00033569333027116954}},"velocity":{"x":5.075829982757568,"y":0.12545077502727509,"z":0.002930946182459593},"angular_velocity":{"x":0.061320167034864426,"y":-0.03517493978142738,"z":1.6535946130752563},"acceleration":{"x":1.2326622009277344,"y":0.34950897097587585,"z":-0.0720708817243576},"speed_mps":5.077380870218539,"speed_kph":18.27857113278674,"speed_limit_kph":30.0,"collisions_this_frame":[],"waypoint":{"x":-57.78447723388672,"y":24.523466110229492,"z":0.0},"lane_deviation_m":0.001895638764835894,"lane_width":3.5,"goal":{"x":-18.385923385620117,"y":130.21006774902344,"z":0.5999999642372131},"fault":{"name":"fault_free","severity":1.0},"capture_flags":{"save_rgb":true,"save_depth":false,"video_rgb":true,"video_depth":false}}
{"frame":25750,"timestamp":{"delta_seconds":0.05000000074505806,"elapsed_seconds":244.20905943401158},"control":{"throttle":0.05250433087348938,"steer":0.017400862649083138,"brake":0.0,"hand_brake":false,"reverse":false,"manual_gear_shift":false,"gear":0},"transform":{"location":{"x":-57.53341293334961,"y":24.529647827148438,"z":0.0019765852484852076},"rotation":{"pitch":0.006864339578896761,"yaw":0.9888001084327698,"roll":-0.0018615720327943563}},"velocity":{"x":4.969030380249023,"y":0.1284504234790802,"z":0.0012318039080128074},"angular_velocity":{"x":0.0025911962147802114,"y":0.14751246571540833,"z":1.711039423942566},"acceleration":{"x":-2.1359920501708984,"y":0.059992969036102295,"z":-0.03398284688591957},"speed_mps":4.970690490110059,"speed_kph":17.89448576439621,"speed_limit_kph":30.0,"collisions_this_frame":[],"waypoint":{"x":-57.53339767456055,"y":24.5241641998291,"z":0.0},"lane_deviation_m":0.005829004105180502,"lane_width":3.5,"goal":{"x":-18.385923385620117,"y":130.21006774902344,"z":0.5999999642372131},"fault":{"name":"fault_free","severity":1.0},"capture_flags":{"save_rgb":true,"save_depth":false,"video_rgb":true,"video_depth":false}}
{"frame":25751,"timestamp":{"delta_seconds":0.05000000074505806,"elapsed_seconds":244.25905943475664},"control":{"throttle":0.265800416469574,"steer":0.015506780706346035,"brake":0.0,"hand_brake":false,"reverse":false,"manual_gear_shift":false,"gear":0},"transform":{"location":{"x":-57.28404235839844,"y":24.535985946655273,"z":0.0018008040497079492},"rotation":{"pitch":0.004057132173329592,"yaw":1.0761746168136597,"roll":-0.0031433103140443563}},"velocity":{"x":4.97967529296875,"y":0.1408565789461136,"z":-0.002564382506534457},"angular_velocity":{"x":0.024587756022810936,"y":0.05363170802593231,"z":1.78629469871521},"acceleration":{"x":0.21289825439453125,"y":0.24812310934066772,"z":-0.07592372596263885},"speed_mps":4.981667710244578,"speed_kph":17.93400375688048,"speed_limit_kph":30.0,"collisions_this_frame":[],"waypoint":{"x":-57.28401184082031,"y":24.524858474731445,"z":0.0},"lane_deviation_m":0.011272286996245384,"lane_width":3.5,"goal":{"x":-18.385923385620117,"y":130.21006774902344,"z":0.5999999642372131},"fault":{"name":"fault_free","severity":1.0},"capture_flags":{"save_rgb":true,"save_depth":false,"video_rgb":true,"video_depth":false}}
{"frame":25752,"timestamp":{"delta_seconds":0.05000000074505806,"elapsed_seconds":244.3090594355017},"control":{"throttle":0.265800416469574,"steer":0.015506780706346035,"brake":0.0,"hand_brake":false,"reverse":false,"manual_gear_shift":false,"gear":0},"transform":{"location":{"x":-57.03597640991211,"y":24.54262351989746,"z":0.0017477035289630294},"rotation":{"pitch":0.0014753207797184587,"yaw":1.1606183052062988,"roll":-0.0035705561749637127}},"velocity":{"x":4.950445652008057,"y":0.14436814188957214,"z":-0.0007468414260074496},"angular_velocity":{"x":0.004688822664320469,"y":0.047337934374809265,"z":1.6510285139083862},"acceleration":{"x":-0.5845928192138672,"y":0.07023125886917114,"z":0.03635082021355629},"speed_mps":4.9525503401429685,"speed_kph":17.829181224514688,"speed_limit_kph":30.0,"collisions_this_frame":[],"waypoint":{"x":-57.03593063354492,"y":24.52554702758789,"z":0.0},"lane_deviation_m":0.017165755853056908,"lane_width":3.5,"goal":{"x":-18.385923385620117,"y":130.21006774902344,"z":0.5999999642372131},"fault":{"name":"fault_free","severity":1.0},"capture_flags":{"save_rgb":true,"save_depth":false,"video_rgb":true,"video_depth":false}}
{"frame":25753,"timestamp":{"delta_seconds":0.05000000074505806,"elapsed_seconds":244.35905943624675},"control":{"throttle":0.34823814034461975,"steer":0.025040296837687492,"brake":0.0,"hand_brake":false,"reverse":false,"manual_gear_shift":false,"gear":0},"transform":{"location":{"x":-56.788841247558594,"y":24.550167083740234,"z":0.001746711670421064},"rotation":{"pitch":-9.56226431299001e-05,"yaw":1.2719391584396362,"roll":-0.006683348678052425}},"velocity":{"x":4.9414496421813965,"y":0.17297673225402832,"z":7.021903729764745e-05},"angular_velocity":{"x":0.05985216423869133,"y":0.019828524440526962,"z":2.4382596015930176},"acceleration":{"x":-0.17992019653320312,"y":0.5721718072891235,"z":0.016341209411621094},"speed_mps":4.944476263573994,"speed_kph":17.80011454886638,"speed_limit_kph":30.0,"collisions_this_frame":[],"waypoint":{"x":-56.78877258300781,"y":24.526233673095703,"z":0.0},"lane_deviation_m":0.023997163400053978,"lane_width":3.5,"goal":{"x":-18.385923385620117,"y":130.21006774902344,"z":0.5999999642372131},"fault":{"name":"fault_free","severity":1.0},"capture_flags":{"save_rgb":true,"save_depth":false,"video_rgb":true,"video_depth":false}}
{"frame":25754,"timestamp":{"delta_seconds":0.05000000074505806,"elapsed_seconds":244.4090594369918},"control":{"throttle":0.34823814034461975,"steer":0.025040296837687492,"brake":0.0,"hand_brake":false,"reverse":false,"manual_gear_shift":false,"gear":0},"transform":{"location":{"x":-56.541419982910156,"y":24.558584213256836,"z":0.0017615127144381404},"rotation":{"pitch":-0.00012294339830987155,"yaw":1.3991481065750122,"roll":-0.008636474609375}},"velocity":{"x":4.954417705535889,"y":0.18901191651821136,"z":0.0003857803239952773},"angular_velocity":{"x":0.026391543447971344,"y":-0.008553857915103436,"z":2.584778308868408},"acceleration":{"x":0.25936126708984375,"y":0.3207036852836609,"z":0.006311225704848766},"speed_mps":4.958021828747817,"speed_kph":17.84887858349214,"speed_limit_kph":30.0,"collisions_this_frame":[],"waypoint":{"x":-56.54133224487305,"y":24.526920318603516,"z":0.0},"lane_deviation_m":0.03171297535300255,"lane_width":3.5,"goal":{"x":-18.385923385620117,"y":130.21006774902344,"z":0.5999999642372131},"fault":{"name":"fault_free","severity":1.0},"capture_flags":{"save_rgb":true,"save_depth":false,"video_rgb":true,"video_depth":false}}
{"frame":25755,"timestamp":{"delta_seconds":0.05000000074505806,"elapsed_seconds":244.45905943773687},"control":{"throttle":0.2721382677555084,"steer":0.024656573310494423,"brake":0.0,"hand_brake":false,"reverse":false,"manual_gear_shift":false,"gear":0},"transform":{"location":{"x":-56.29313278198242,"y":24.56764793395996,"z":0.0017787551041692495},"rotation":{"pitch":0.0006352075724862516,"yaw":1.528325080871582,"roll":-0.00921630859375}},"velocity":{"x":4.971741676330566,"y":0.2012592852115631,"z":0.00045548437628895044},"angular_velocity":{"x":0.00671573169529438,"y":-0.01641632243990898,"z":2.58426570892334},"acceleration":{"x":0.3464794158935547,"y":0.2449473738670349,"z":0.0013940810458734632},"speed_mps":4.975813582069987,"speed_kph":17.912928895451955,"speed_limit_kph":30.0,"collisions_this_frame":[],"waypoint":{"x":-56.29302215576172,"y":24.527610778808594,"z":0.0},"lane_deviation_m":0.04007679969072342,"lane_width":3.5,"goal":{"x":-18.385923385620117,"y":130.21006774902344,"z":0.5999999642372131},"fault":{"name":"fault_free","severity":1.0},"capture_flags":{"save_rgb":true,"save_depth":false,"video_rgb":true,"video_depth":false}}
{"frame":25756,"timestamp":{"delta_seconds":0.05000000074505806,"elapsed_seconds":244.50905943848193},"control":{"throttle":0.2721382677555084,"steer":0.024656573310494423,"brake":0.0,"hand_brake":false,"reverse":false,"manual_gear_shift":false,"gear":0},"transform":{"location":{"x":-56.04411315917969,"y":24.577308654785156,"z":0.0017966079758480191},"rotation":{"pitch":0.0013592075556516647,"yaw":1.6576765775680542,"roll":-0.009368897415697575}},"velocity":{"x":4.984732627868652,"y":0.21317027509212494,"z":0.000419216143200174},"angular_velocity":{"x":0.0015708502614870667,"y":-0.012382494285702705,"z":2.5889737606048584},"acceleration":{"x":0.25981903076171875,"y":0.23821979761123657,"z":-0.0007253646617755294},"speed_mps":4.989288637998743,"speed_kph":17.961439096795473,"speed_limit_kph":30.0,"collisions_this_frame":[],"waypoint":{"x":-56.043975830078125,"y":24.528303146362305,"z":0.0},"lane_deviation_m":0.04903862252831459,"lane_width":3.5,"goal":{"x":-18.385923385620117,"y":130.21006774902344,"z":0.5999999642372131},"fault":{"name":"fault_free","severity":1.0},"capture_flags":{"save_rgb":true,"save_depth":false,"video_rgb":true,"video_depth":false}}
{"frame":25757,"timestamp":{"delta_seconds":0.05000000074505806,"elapsed_seconds":244.55905943922698},"control":{"throttle":0.10756120085716248,"steer":0.0165985319763422,"brake":0.0,"hand_brake":false,"reverse":false,"manual_gear_shift":false,"gear":0},"transform":{"location":{"x":-55.79481506347656,"y":24.58702278137207,"z":0.0018146514194086194},"rotation":{"pitch":0.0014753207797184587,"yaw":1.7616811990737915,"roll":-0.006988524459302425}},"velocity":{"x":4.981908798217773,"y":0.20525461435317993,"z":0.0003464508044999093},"angular_velocity":{"x":-0.0461733415722847,"y":0.006094303447753191,"z":1.892545223236084},"acceleration":{"x":-0.056476593017578125,"y":-0.15831321477890015,"z":-0.0014553067740052938},"speed_mps":4.986135261954001,"speed_kph":17.950086943034403,"speed_limit_kph":30.0,"collisions_this_frame":[],"waypoint":{"x":-55.794654846191406,"y":24.528995513916016,"z":0.0},"lane_deviation_m":0.058055855333805084,"lane_width":3.5,"goal":{"x":-18.385923385620117,"y":130.21006774902344,"z":0.5999999642372131},"fault":{"name":"fault_free","severity":1.0},"capture_flags":{"save_rgb":true,"save_depth":false,"video_rgb":true,"video_depth":false}}
{"frame":25758,"timestamp":{"delta_seconds":0.05000000074505806,"elapsed_seconds":244.60905943997204},"control":{"throttle":0.10756120085716248,"steer":0.0165985319763422,"brake":0.0,"hand_brake":false,"reverse":false,"manual_gear_shift":false,"gear":0},"transform":{"location":{"x":-55.54648971557617,"y":24.59680938720703,"z":0.0018364714924246073},"rotation":{"pitch":0.00035516981733962893,"yaw":1.851610779762268,"roll":-0.005584716331213713}},"velocity":{"x":4.953462600708008,"y":0.207932710647583,"z":0.0002698326134122908},"angular_velocity":{"x":-0.0184734258800745,"y":0.030796688050031662,"z":1.7619976997375488},"acceleration":{"x":-0.5689239501953125,"y":0.05356192588806152,"z":-0.0015323638217523694},"speed_mps":4.95782490832218,"speed_kph":17.848169669959848,"speed_limit_kph":30.0,"collisions_this_frame":[],"waypoint":{"x":-55.546302795410156,"y":24.529685974121094,"z":0.0},"lane_deviation_m":0.06714878976345062,"lane_width":3.5,"goal":{"x":-18.385923385620117,"y":130.21006774902344,"z":0.5999999642372131},"fault":{"name":"fault_free","severity":1.0},"capture_flags":{"save_rgb":true,"save_depth":false,"video_rgb":true,"video_depth":false}}
