{"frame":3506,"timestamp":{"delta_seconds":0.05000000074505806,"elapsed_seconds":40.59521554131061},"control":{"throttle":0.0,"steer":0.0,"brake":1.0,"hand_brake":false,"reverse":false,"manual_gear_shift":false,"gear":0},"transform":{"location":{"x":-64.64484405517578,"y":24.471010208129883,"z":0.48239994049072266},"rotation":{"pitch":0.0,"yaw":0.15919795632362366,"roll":0.0}},"velocity":{"x":0.0,"y":0.0,"z":-1.470000147819519},"angular_velocity":{"x":0.0,"y":0.0,"z":0.0},"acceleration":{"x":0.0,"y":0.0,"z":-9.80000114440918},"speed_mps":1.470000147819519,"speed_kph":5.2920005321502686,"speed_limit_kph":30.0,"collisions_this_frame":[],"waypoint":{"x":-64.64469146728516,"y":24.504404067993164,"z":0.0},"lane_deviation_m":0.4835544228553772,"lane_width":3.5,"goal":{"x":55.54227828979492,"y":130.46006774902344,"z":0.6000292897224426},"fault":{"name":"none","severity":0.0},"capture_flags":{"save_rgb":true,"save_depth":false,"video_rgb":true,"video_depth":false}}
{"frame":3507,"timestamp":{"delta_seconds":0.05000000074505806,"elapsed_seconds":40.645215542055666},"control":{"throttle":0.0,"steer":0.34200000762939453,"brake":1.0,"hand_brake":false,"reverse":false,"manual_gear_shift":false,"gear":0},"transform":{"location":{"x":-64.64484405517578,"y":24.471010208129883,"z":0.394199937582016},"rotation":{"pitch":0.0,"yaw":0.15919795632362366,"roll":0.0}},"velocity":{"x":0.0,"y":0.0,"z":-1.9600002765655518},"angular_velocity":{"x":0.0,"y":0.0,"z":0.0},"acceleration":{"x":0.0,"y":0.0,"z":-9.800003051757812},"speed_mps":1.9600002765655518,"speed_kph":7.056000995635986,"speed_limit_kph":30.0,"collisions_this_frame":[],"waypoint":{"x":-64.64469146728516,"y":24.504404067993164,"z":0.0},"lane_deviation_m":0.39561188220977783,"lane_width":3.5,"goal":{"x":55.54227828979492,"y":130.46006774902344,"z":0.6000292897224426},"fault":{"name":"none","severity":0.0},"capture_flags":{"save_rgb":true,"save_depth":false,"video_rgb":true,"video_depth":false}}
{"frame":3508,"timestamp":{"delta_seconds":0.05000000074505806,"elapsed_seconds":40.695215542800725},"control":{"throttle":0.0,"steer":0.628000020980835,"brake":1.0,"hand_brake":false,"reverse":false,"manual_gear_shift":false,"gear":0},"transform":{"location":{"x":-64.64484405517578,"y":24.471010208129883,"z":0.28150004148483276},"rotation":{"pitch":0.0,"yaw":0.15919795632362366,"roll":0.0}},"velocity":{"x":0.0,"y":0.0,"z":-2.450000286102295},"angular_velocity":{"x":0.0,"y":0.0,"z":0.0},"acceleration":{"x":0.0,"y":0.0,"z":-9.800000190734863},"speed_mps":2.450000286102295,"speed_kph":8.820001029968262,"speed_limit_kph":30.0,"collisions_this_frame":[],"waypoint":{"x":-64.64469146728516,"y":24.504404067993164,"z":0.0},"lane_deviation_m":0.2834738790988922,"lane_width":3.5,"goal":{"x":55.54227828979492,"y":130.46006774902344,"z":0.6000292897224426},"fault":{"name":"none","severity":0.0},"capture_flags":{"save_rgb":true,"save_depth":false,"video_rgb":true,"video_depth":false}}
{"frame":3509,"timestamp":{"delta_seconds":0.05000000074505806,"elapsed_seconds":40.74521554354578},"control":{"throttle":0.0,"steer":0.7300000190734863,"brake":1.0,"hand_brake":false,"reverse":false,"manual_gear_shift":false,"gear":0},"transform":{"location":{"x":-64.64484405517578,"y":24.471010208129883,"z":0.1442999690771103},"rotation":{"pitch":0.0,"yaw":0.15919795632362366,"roll":0.0}},"velocity":{"x":0.0,"y":0.0,"z":-2.93999981880188},"angular_velocity":{"x":0.0,"y":0.0,"z":0.0},"acceleration":{"x":0.0,"y":0.0,"z":-9.7999906539917},"speed_mps":2.93999981880188,"speed_kph":10.583999347686769,"speed_limit_kph":30.0,"collisions_this_frame":[],"waypoint":{"x":-64.64469146728516,"y":24.504404067993164,"z":0.0},"lane_deviation_m":0.1481136530637741,"lane_width":3.5,"goal":{"x":55.54227828979492,"y":130.46006774902344,"z":0.6000292897224426},"fault":{"name":"none","severity":0.0},"capture_flags":{"save_rgb":true,"save_depth":false,"video_rgb":true,"video_depth":false}}
{"frame":3510,"timestamp":{"delta_seconds":0.05000000074505806,"elapsed_seconds":40.79521554429084},"control":{"throttle":0.0,"steer":0.7429999709129333,"brake":1.0,"hand_brake":false,"reverse":false,"manual_gear_shift":false,"gear":0},"transform":{"location":{"x":-64.64484405517578,"y":24.471010208129883,"z":0.008085555396974087},"rotation":{"pitch":0.0,"yaw":0.15919795632362366,"roll":0.0}},"velocity":{"x":-1.4789030444717355e-07,"y":-2.2099350189819233e-06,"z":-2.06459641456604},"angular_velocity":{"x":0.0009198705083690584,"y":-0.0008250255486927927,"z":1.682183938100934e-05},"acceleration":{"x":-2.95780614578689e-06,"y":-4.4198699470143765e-05,"z":17.508068084716797},"speed_mps":2.064596414567228,"speed_kph":7.432547092442021,"speed_limit_kph":30.0,"collisions_this_frame":[],"waypoint":{"x":-64.64469146728516,"y":24.504404067993164,"z":0.0},"lane_deviation_m":0.034359123557806015,"lane_width":3.5,"goal":{"x":55.54227828979492,"y":130.46006774902344,"z":0.6000292897224426},"fault":{"name":"none","severity":0.0},"capture_flags":{"save_rgb":true,"save_depth":false,"video_rgb":true,"video_depth":false}}
{"frame":3511,"timestamp":{"delta_seconds":0.05000000074505806,"elapsed_seconds":40.8452155450359},"control":{"throttle":0.0,"steer":0.7979999780654907,"brake":1.0,"hand_brake":false,"reverse":false,"manual_gear_shift":false,"gear":0},"transform":{"location":{"x":-64.64484405517578,"y":24.471010208129883,"z":-0.05158817023038864},"rotation":{"pitch":0.0,"yaw":0.15919795632362366,"roll":0.0}},"velocity":{"x":-1.556880988573539e-07,"y":-2.781507362215052e-07,"z":-0.7380887269973755},"angular_velocity":{"x":0.0001741829328238964,"y":-0.0002616539422888309,"z":3.809247800745652e-06},"acceleration":{"x":-1.5595588820360717e-07,"y":3.863568417727947e-05,"z":26.530153274536133},"speed_mps":0.7380887269974443,"speed_kph":2.6571194171907995,"speed_limit_kph":30.0,"collisions_this_frame":[],"waypoint":{"x":-64.64469146728516,"y":24.504404067993164,"z":0.0},"lane_deviation_m":0.061453334987163544,"lane_width":3.5,"goal":{"x":55.54227828979492,"y":130.46006774902344,"z":0.6000292897224426},"fault":{"name":"none","severity":0.0},"capture_flags":{"save_rgb":true,"save_depth":false,"video_rgb":true,"video_depth":false}}
{"frame":3512,"timestamp":{"delta_seconds":0.05000000074505806,"elapsed_seconds":40.89521554578096},"control":{"throttle":0.0,"steer":0.8740000128746033,"brake":1.0,"hand_brake":false,"reverse":false,"manual_gear_shift":false,"gear":0},"transform":{"location":{"x":-64.64484405517578,"y":24.471010208129883,"z":-0.06773189455270767},"rotation":{"pitch":0.0,"yaw":0.15919795632362366,"roll":0.0}},"velocity":{"x":-5.1942624423872985e-08,"y":2.0024689462161405e-08,"z":-0.1120968759059906},"angular_velocity":{"x":4.161716788075864e-05,"y":-4.7643694415455684e-05,"z":-6.684462050543516e-07},"acceleration":{"x":2.074909616567311e-06,"y":5.9635085563058965e-06,"z":12.51983642578125},"speed_mps":0.11209687590600442,"speed_kph":0.40354875326161593,"speed_limit_kph":30.0,"collisions_this_frame":[],"waypoint":{"x":-64.64469146728516,"y":24.504404067993164,"z":0.0},"lane_deviation_m":0.07551676779985428,"lane_width":3.5,"goal":{"x":55.54227828979492,"y":130.46006774902344,"z":0.6000292897224426},"fault":{"name":"none","severity":0.0},"capture_flags":{"save_rgb":true,"save_depth":false,"video_rgb":true,"video_depth":false}}
{"frame":3513,"timestamp":{"delta_seconds":0.05000000074505806,"elapsed_seconds":40.945215546526015},"control":{"throttle":0.0,"steer":0.8920000195503235,"brake":1.0,"hand_brake":false,"reverse":false,"manual_gear_shift":false,"gear":0},"transform":{"location":{"x":-64.64484405517578,"y":24.471010208129883,"z":-0.06445319950580597},"rotation":{"pitch":0.0,"yaw":0.15919795632362366,"roll":0.0}},"velocity":{"x":-6.901518245783222e-10,"y":4.852496005014473e-08,"z":0.15056157112121582},"angular_velocity":{"x":-5.218865771894343e-05,"y":7.339766398217762e-06,"z":-1.0482812484724491e-07},"acceleration":{"x":1.0250495279251481e-06,"y":5.700053975488117e-07,"z":5.253169059753418},"speed_mps":0.15056157112122365,"speed_kph":0.5420216560364052,"speed_limit_kph":30.0,"collisions_this_frame":[],"waypoint":{"x":-64.64469146728516,"y":24.504404067993164,"z":0.0},"lane_deviation_m":0.07259055227041245,"lane_width":3.5,"goal":{"x":55.54227828979492,"y":130.46006774902344,"z":0.6000292897224426},"fault":{"name":"none","severity":0.0},"capture_flags":{"save_rgb":true,"save_depth":false,"video_rgb":true,"video_depth":false}}
{"frame":3514,"timestamp":{"delta_seconds":0.05000000074505806,"elapsed_seconds":40.99521554727107},"control":{"throttle":0.0,"steer":0.7820000052452087,"brake":1.0,"hand_brake":false,"reverse":false,"manual_gear_shift":false,"gear":0},"transform":{"location":{"x":-64.64484405517578,"y":24.471010208129883,"z":-0.05396205931901932},"rotation":{"pitch":0.0,"yaw":0.15919795632362366,"roll":0.0}},"velocity":{"x":2.1699010588349665e-08,"y":8.89088358491108e-09,"z":0.23337243497371674},"angular_velocity":{"x":-4.0979204641189426e-05,"y":2.108048283844255e-05,"z":5.002069656256936e-07},"acceleration":{"x":4.477832362681511e-07,"y":-7.926815328573866e-07,"z":1.656217336654663},"speed_mps":0.2333724349737179,"speed_kph":0.8401407659053844,"speed_limit_kph":30.0,"collisions_this_frame":[],"waypoint":{"x":-64.64469146728516,"y":24.504404067993164,"z":0.0},"lane_deviation_m":0.06345925480127335,"lane_width":3.5,"goal":{"x":55.54227828979492,"y":130.46006774902344,"z":0.6000292897224426},"fault":{"name":"none","severity":0.0},"capture_flags":{"save_rgb":true,"save_depth":false,"video_rgb":true,"video_depth":false}}
{"frame":3515,"timestamp":{"delta_seconds":0.05000000074505806,"elapsed_seconds":41.04521554801613},"control":{"throttle":0.0,"steer":0.8209999799728394,"brake":1.0,"hand_brake":false,"reverse":false,"manual_gear_shift":false,"gear":0},"transform":{"location":{"x":-64.64484405517578,"y":24.471010208129883,"z":-0.04207824543118477},"rotation":{"pitch":0.0,"yaw":0.15919795632362366,"roll":0.0}},"velocity":{"x":2.8363704274170232e-08,"y":-3.453637820172162e-09,"z":0.23370583355426788},"angular_velocity":{"x":-7.019943950581364e-06,"y":3.062569521716796e-05,"z":4.2940438760297184e-08},"acceleration":{"x":1.3329386661098397e-07,"y":-2.4689043698344904e-07,"z":0.006667971611022949},"speed_mps":0.23370583355426963,"speed_kph":0.8413410007953707,"speed_limit_kph":30.0,"collisions_this_frame":[],"waypoint":{"x":-64.64469146728516,"y":24.504404067993164,"z":0.0},"lane_deviation_m":0.05371919646859169,"lane_width":3.5,"goal":{"x":55.54227828979492,"y":130.46006774902344,"z":0.6000292897224426},"fault":{"name":"none","severity":0.0},"capture_flags":{"save_rgb":true,"save_depth":false,"video_rgb":true,"video_depth":false}}
{"frame":3516,"timestamp":{"delta_seconds":0.05000000074505806,"elapsed_seconds":41.09521554876119},"control":{"throttle":0.0,"steer":0.8560000061988831,"brake":1.0,"hand_brake":false,"reverse":false,"manual_gear_shift":false,"gear":0},"transform":{"location":{"x":-64.64484405517578,"y":24.471010208129883,"z":-0.03129245713353157},"rotation":{"pitch":0.0,"yaw":0.15919795632362366,"roll":0.0}},"velocity":{"x":3.7680464970435423e-08,"y":3.099268752748685e-08,"z":0.20143479108810425},"angular_velocity":{"x":-3.0586619686800987e-05,"y":5.3120613301871344e-05,"z":-1.8372948318301496e-07},"acceleration":{"x":1.8633521392530383e-07,"y":6.889265478093876e-07,"z":-0.6454208493232727},"speed_mps":0.20143479108811016,"speed_kph":0.7251652479171966,"speed_limit_kph":30.0,"collisions_this_frame":[],"waypoint":{"x":-64.64469146728516,"y":24.504404067993164,"z":0.0},"lane_deviation_m":0.045764513313770294,"lane_width":3.5,"goal":{"x":55.54227828979492,"y":130.46006774902344,"z":0.6000292897224426},"fault":{"name":"none","severity":0.0},"capture_flags":{"save_rgb":true,"save_depth":false,"video_rgb":true,"video_depth":false}}
{"frame":3517,"timestamp":{"delta_seconds":0.05000000074505806,"elapsed_seconds":41.14521554950625},"control":{"throttle":0.0,"steer":0.7599999904632568,"brake":1.0,"hand_brake":false,"reverse":false,"manual_gear_shift":false,"gear":0},"transform":{"location":{"x":-64.64484405517578,"y":24.471010208129883,"z":-0.022435493767261505},"rotation":{"pitch":0.0,"yaw":0.15919795632362366,"roll":0.0}},"velocity":{"x":1.464326437883301e-08,"y":-2.90187731621927e-08,"z":0.16076640784740448},"angular_velocity":{"x":-4.542028909781948e-05,"y":-9.95300888462225e-06,"z":1.0574145790087641e-06},"acceleration":{"x":-4.6074401893747563e-07,"y":-1.2002292351098731e-06,"z":-0.8133676648139954},"speed_mps":0.16076640784740778,"speed_kph":0.578759068250668,"speed_limit_kph":30.0,"collisions_this_frame":[],"waypoint":{"x":-64.64469146728516,"y":24.504404067993164,"z":0.0},"lane_deviation_m":0.0402308888733387,"lane_width":3.5,"goal":{"x":55.54227828979492,"y":130.46006774902344,"z":0.6000292897224426},"fault":{"name":"none","severity":0.0},"capture_flags":{"save_rgb":true,"save_depth":false,"video_rgb":true,"video_depth":false}}
{"frame":3518,"timestamp":{"delta_seconds":0.05000000074505806,"elapsed_seconds":41.195215550251305},"control":{"throttle":0.0,"steer":0.7590000033378601,"brake":1.0,"hand_brake":false,"reverse":false,"manual_gear_shift":false,"gear":0},"transform":{"location":{"x":-64.64484405517578,"y":24.471010208129883,"z":-0.015568007715046406},"rotation":{"pitch":0.0,"yaw":0.15919795632362366,"roll":0.0}},"velocity":{"x":-6.809284247566438e-10,"y":6.0782568311879e-08,"z":0.12242137640714645},"angular_velocity":{"x":-6.0753671277780086e-05,"y":4.269095370545983e-06,"z":-4.2652141019061673e-07},"acceleration":{"x":-3.0648385518361465e-07,"y":1.7960268223760067e-06,"z":-0.7669006586074829},"speed_mps":0.12242137640716154,"speed_kph":0.44071695506578157,"speed_limit_kph":30.0,"collisions_this_frame":[],"waypoint":{"x":-64.64469146728516,"y":24.504404067993164,"z":0.0},"lane_deviation_m":0.036844756454229355,"lane_width":3.5,"goal":{"x":55.54227828979492,"y":130.46006774902344,"z":0.6000292897224426},"fault":{"name":"none","severity":0.0},"capture_flags":{"save_rgb":true,"save_depth":false,"video_rgb":true,"video_depth":false}}
{"frame":3519,"timestamp":{"delta_seconds":0.05000000074505806,"elapsed_seconds":41.24521555099636},"control":{"throttle":0.0,"steer":0.7770000100135803,"brake":1.0,"hand_brake":false,"reverse":false,"manual_gear_shift":false,"gear":0},"transform":{"location":{"x":-64.64484405517578,"y":24.471010208129883,"z":-0.010438041761517525},"rotation":{"pitch":0.0,"yaw":0.15919795632362366,"roll":0.0}},"velocity":{"x":-1.4431384087743027e-08,"y":5.055413510035578e-08,"z":0.09031112492084503},"angular_velocity":{"x":-2.8818285500165075e-05,"y":-5.592248726316029e-06,"z":-6.212111429704237e-07},"acceleration":{"x":-2.750091141479061e-07,"y":-2.045686642304645e-07,"z":-0.642204999923706},"speed_mps":0.09031112492086033,"speed_kph":0.32512004971509717,"speed_limit_kph":30.0,"collisions_this_frame":[],"waypoint":{"x":-64.64469146728516,"y":24.504404067993164,"z":0.0},"lane_deviation_m":0.03498750925064087,"lane_width":3.5,"goal":{"x":55.54227828979492,"y":130.46006774902344,"z":0.6000292897224426},"fault":{"name":"none","severity":0.0},"capture_flags":{"save_rgb":true,"save_depth":false,"video_rgb":true,"video_depth":false}}
{"frame":3520,"timestamp":{"delta_seconds":0.05000000074505806,"elapsed_seconds":41.29521555174142},"control":{"throttle":0.0,"steer":0.8569999933242798,"brake":1.0,"hand_brake":false,"reverse":false,"manual_gear_shift":false,"gear":0},"transform":{"location":{"x":-64.64484405517578,"y":24.471010208129883,"z":-0.006705284118652344},"rotation":{"pitch":0.0,"yaw":0.15919795632362366,"roll":0.0}},"velocity":{"x":4.7526951263421324e-09,"y":3.081856547737516e-08,"z":0.06511273980140686},"angular_velocity":{"x":-3.979634857387282e-05,"y":2.4453361220366787e-06,"z":-9.179680660054146e-08},"acceleration":{"x":3.836815665181348e-07,"y":-3.947113782487577e-07,"z":-0.5039677023887634},"speed_mps":0.06511273980141433,"speed_kph":0.23440586328509158,"speed_limit_kph":30.0,"collisions_this_frame":[],"waypoint":{"x":-64.64469146728516,"y":24.504404067993164,"z":0.0},"lane_deviation_m":0.03406073898077011,"lane_width":3.5,"goal":{"x":55.54227828979492,"y":130.46006774902344,"z":0.6000292897224426},"fault":{"name":"none","severity":0.0},"capture_flags":{"save_rgb":true,"save_depth":false,"video_rgb":true,"video_depth":false}}
{"frame":3521,"timestamp":{"delta_seconds":0.05000000074505806,"elapsed_seconds":41.34521555248648},"control":{"throttle":0.0,"steer":0.7910000085830688,"brake":1.0,"hand_brake":false,"reverse":false,"manual_gear_shift":false,"gear":0},"transform":{"location":{"x":-64.64484405517578,"y":24.471010208129883,"z":-0.004041633568704128},"rotation":{"pitch":0.0,"yaw":0.15919795632362366,"roll":0.0}},"velocity":{"x":-6.650743511471546e-09,"y":8.549734786811314e-08,"z":0.04613763839006424},"angular_velocity":{"x":-5.012149267713539e-05,"y":8.040536158659961e-06,"z":-1.0113031976288767e-06},"acceleration":{"x":-2.2806875676906202e-07,"y":1.0935756336039049e-06,"z":-0.3795020282268524},"speed_mps":0.04613763839014393,"speed_kph":0.16609549820451816,"speed_limit_kph":30.0,"collisions_this_frame":[],"waypoint":{"x":-64.64469146728516,"y":24.504404067993164,"z":0.0},"lane_deviation_m":0.033637892454862595,"lane_width":3.5,"goal":{"x":55.54227828979492,"y":130.46006774902344,"z":0.6000292897224426},"fault":{"name":"none","severity":0.0},"capture_flags":{"save_rgb":true,"save_depth":false,"video_rgb":true,"video_depth":false}}
{"frame":3522,"timestamp":{"delta_seconds":0.05000000074505806,"elapsed_seconds":41.39521555323154},"control":{"throttle":0.0,"steer":0.8930000066757202,"brake":1.0,"hand_brake":false,"reverse":false,"manual_gear_shift":false,"gear":0},"transform":{"location":{"x":-64.64484405517578,"y":24.471010208129883,"z":-0.002169380197301507},"rotation":{"pitch":0.0,"yaw":0.15919795632362366,"roll":0.0}},"velocity":{"x":-2.577059809993898e-08,"y":6.539139718597653e-08,"z":0.032249823212623596},"angular_velocity":{"x":-6.316570215858519e-05,"y":-2.8251488402020186e-05,"z":-4.93595507577993e-07},"acceleration":{"x":-3.823970757821371e-07,"y":-4.0211901364273217e-07,"z":-0.27775630354881287},"speed_mps":0.03224982321270019,"speed_kph":0.11609936356572068,"speed_limit_kph":30.0,"collisions_this_frame":[],"waypoint":{"x":-64.64469146728516,"y":24.504404067993164,"z":0.0},"lane_deviation_m":0.03346459940075874,"lane_width":3.5,"goal":{"x":55.54227828979492,"y":130.46006774902344,"z":0.6000292897224426},"fault":{"name":"none","severity":0.0},"capture_flags":{"save_rgb":true,"save_depth":false,"video_rgb":true,"video_depth":false}}
{"frame":3523,"timestamp":{"delta_seconds":0.05000000074505806,"elapsed_seconds":41.445215553976595},"control":{"throttle":0.0,"steer":0.8080000281333923,"brake":1.0,"hand_brake":false,"reverse":false,"manual_gear_shift":false,"gear":0},"transform":{"location":{"x":-64.64484405517578,"y":24.471010208129883,"z":-0.0008690643007867038},"rotation":{"pitch":0.0,"yaw":0.15919795632362366,"roll":0.0}},"velocity":{"x":-5.7057705227236966e-09,"y":1.4820002114390718e-08,"z":0.022295713424682617},"angular_velocity":{"x":-1.8168793758377433e-05,"y":-6.1653686316276435e-06,"z":2.3118076342143468e-08},"acceleration":{"x":4.0129657463694457e-07,"y":-1.0114279120898573e-06,"z":-0.19908219575881958},"speed_mps":0.022295713424688272,"speed_kph":0.08026456832887778,"speed_limit_kph":30.0,"collisions_this_frame":[],"waypoint":{"x":-64.64469146728516,"y":24.504404067993164,"z":0.0},"lane_deviation_m":0.03340551629662514,"lane_width":3.5,"goal":{"x":55.54227828979492,"y":130.46006774902344,"z":0.6000292897224426},"fault":{"name":"none","severity":0.0},"capture_flags":{"save_rgb":true,"save_depth":false,"video_rgb":true,"video_depth":false}}
{"frame":3524,"timestamp":{"delta_seconds":0.05000000074505806,"elapsed_seconds":41.49521555472165},"control":{"throttle":0.0,"steer":0.8399999737739563,"brake":1.0,"hand_brake":false,"reverse":false,"manual_gear_shift":false,"gear":0},"transform":{"location":{"x":-64.64484405517578,"y":24.471010208129883,"z":2.5100707716774195e-05},"rotation":{"pitch":0.0,"yaw":0.15919795632362366,"roll":0.0}},"velocity":{"x":5.3365192265175665e-09,"y":-3.8948510194813935e-08,"z":0.015275363810360432},"angular_velocity":{"x":1.3453917745209765e-05,"y":-3.7064858133817324e-06,"z":6.738247293469612e-07},"acceleration":{"x":2.2084579143211158e-07,"y":-1.0753702781585162e-06,"z":-0.140406996011734},"speed_mps":0.01527536381041102,"speed_kph":0.054991309717479675,"speed_limit_kph":30.0,"collisions_this_frame":[],"waypoint":{"x":-64.64469146728516,"y":24.504404067993164,"z":0.0},"lane_deviation_m":0.0333942174911499,"lane_width":3.5,"goal":{"x":55.54227828979492,"y":130.46006774902344,"z":0.6000292897224426},"fault":{"name":"none","severity":0.0},"capture_flags":{"save_rgb":true,"save_depth":false,"video_rgb":true,"video_depth":false}}
{"frame":3525,"timestamp":{"delta_seconds":0.05000000074505806,"elapsed_seconds":41.54521555546671},"control":{"throttle":0.0,"steer":0.7910000085830688,"brake":1.0,"hand_brake":false,"reverse":false,"manual_gear_shift":false,"gear":0},"transform":{"location":{"x":-64.64484405517578,"y":24.471010208129883,"z":0.0006349944742396474},"rotation":{"pitch":0.0,"yaw":0.15919795632362366,"roll":0.0}},"velocity":{"x":-1.504950830621965e-08,"y":5.768618294155203e-08,"z":0.010385475121438503},"angular_velocity":{"x":-2.314661833224818e-05,"y":-2.2801427803642582e-06,"z":-7.373988637482398e-07},"acceleration":{"x":-4.077205346675328e-07,"y":1.932693976414157e-06,"z":-0.09779777377843857},"speed_mps":0.010385475121609616,"speed_kph":0.03738771043779462,"speed_limit_kph":30.0,"collisions_this_frame":[],"waypoint":{"x":-64.64469146728516,"y":24.504404067993164,"z":0.0},"lane_deviation_m":0.033400245010852814,"lane_width":3.5,"goal":{"x":55.54227828979492,"y":130.46006774902344,"z":0.6000292897224426},"fault":{"name":"none","severity":0.0},"capture_flags":{"save_rgb":true,"save_depth":false,"video_rgb":true,"video_depth":false}}
{"frame":3526,"timestamp":{"delta_seconds":0.05000000074505806,"elapsed_seconds":41.59521555621177},"control":{"throttle":0.0,"steer":0.8309999704360962,"brake":1.0,"hand_brake":false,"reverse":false,"manual_gear_shift":false,"gear":0},"transform":{"location":{"x":-64.64484405517578,"y":24.471010208129883,"z":0.0010480880737304688},"rotation":{"pitch":0.0,"yaw":0.15919795632362366,"roll":0.0}},"velocity":{"x":-2.9250679656200873e-09,"y":1.7935189999818135e-09,"z":0.007016830146312714},"angular_velocity":{"x":5.7800370996119455e-06,"y":-1.5605505723215174e-06,"z":-1.4203901343989855e-07},"acceleration":{"x":2.424887952656718e-07,"y":-1.1178532304256805e-06,"z":-0.06737290322780609},"speed_mps":0.007016830146313552,"speed_kph":0.02526058852672879,"speed_limit_kph":30.0,"collisions_this_frame":[],"waypoint":{"x":-64.64469146728516,"y":24.504404067993164,"z":0.0},"lane_deviation_m":0.03341064974665642,"lane_width":3.5,"goal":{"x":55.54227828979492,"y":130.46006774902344,"z":0.6000292897224426},"fault":{"name":"none","severity":0.0},"capture_flags":{"save_rgb":true,"save_depth":false,"video_rgb":true,"video_depth":false}}
{"frame":3527,"timestamp":{"delta_seconds":0.05000000074505806,"elapsed_seconds":41.64521555695683},"control":{"throttle":0.0,"steer":0.878000020980835,"brake":1.0,"hand_brake":false,"reverse":false,"manual_gear_shift":false,"gear":0},"transform":{"location":{"x":-64.64484405517578,"y":24.471010208129883,"z":0.0013262939173728228},"rotation":{"pitch":0.0,"yaw":0.15919795632362366,"roll":0.0}},"velocity":{"x":-1.4855225938248395e-09,"y":1.2438284180404935e-08,"z":0.004713077563792467},"angular_velocity":{"x":-1.0092660886584781e-05,"y":-2.5250628254980256e-07,"z":-1.2921076120164798e-07},"acceleration":{"x":2.8790907435904955e-08,"y":2.1289530138801638e-07,"z":-0.04607505351305008},"speed_mps":0.004713077563809114,"speed_kph":0.01696707922971281,"speed_limit_kph":30.0,"collisions_this_frame":[],"waypoint":{"x":-64.64469146728516,"y":24.504404067993164,"z":0.0},"lane_deviation_m":0.03342053294181824,"lane_width":3.5,"goal":{"x":55.54227828979492,"y":130.46006774902344,"z":0.6000292897224426},"fault":{"name":"none","severity":0.0},"capture_flags":{"save_rgb":true,"save_depth":false,"video_rgb":true,"video_depth":false}}
{"frame":3528,"timestamp":{"delta_seconds":0.05000000074505806,"elapsed_seconds":41.695215557701886},"control":{"throttle":0.0,"steer":0.8489999771118164,"brake":1.0,"hand_brake":false,"reverse":false,"manual_gear_shift":false,"gear":0},"transform":{"location":{"x":-64.64484405517578,"y":24.471010208129883,"z":0.0015126037178561091},"rotation":{"pitch":0.0,"yaw":0.15919795632362366,"roll":0.0}},"velocity":{"x":-2.5637563183522616e-09,"y":3.311899376967631e-08,"z":0.003150415373966098},"angular_velocity":{"x":-2.40628796746023e-05,"y":1.3214792033977574e-06,"z":-3.779476855925168e-07},"acceleration":{"x":-2.156467360237002e-08,"y":4.1361417402185907e-07,"z":-0.03125324472784996},"speed_mps":0.003150415374141224,"speed_kph":0.011341495346908407,"speed_limit_kph":30.0,"collisions_this_frame":[],"waypoint":{"x":-64.64469146728516,"y":24.504404067993164,"z":0.0},"lane_deviation_m":0.03342844918370247,"lane_width":3.5,"goal":{"x":55.54227828979492,"y":130.46006774902344,"z":0.6000292897224426},"fault":{"name":"none","severity":0.0},"capture_flags":{"save_rgb":true,"save_depth":false,"video_rgb":true,"video_depth":false}}
{"frame":3529,"timestamp":{"delta_seconds":0.05000000074505806,"elapsed_seconds":41.745215558446944},"control":{"throttle":0.0,"steer":0.8309999704360962,"brake":1.0,"hand_brake":false,"reverse":false,"manual_gear_shift":false,"gear":0},"transform":{"location":{"x":-64.64484405517578,"y":24.471010208129883,"z":0.0015981292817741632},"rotation":{"pitch":0.0,"yaw":0.15919795632362366,"roll":0.0}},"velocity":{"x":1.1753308548634323e-08,"y":-6.274775898873486e-08,"z":0.000503864255733788},"angular_velocity":{"x":3.0278315534815192e-05,"y":6.309355740086176e-07,"z":8.95657592536736e-07},"acceleration":{"x":2.8634130444515904e-07,"y":-1.917335112011642e-06,"z":-0.05293101817369461},"speed_mps":0.0005038642597779542,"speed_kph":0.0018139113352006351,"speed_limit_kph":30.0,"collisions_this_frame":[],"waypoint":{"x":-64.64469146728516,"y":24.504404067993164,"z":0.0},"lane_deviation_m":0.033432427793741226,"lane_width":3.5,"goal":{"x":55.54227828979492,"y":130.46006774902344,"z":0.6000292897224426},"fault":{"name":"none","severity":0.0},"capture_flags":{"save_rgb":true,"save_depth":false,"video_rgb":true,"video_depth":false}}
{"frame":3530,"timestamp":{"delta_seconds":0.05000000074505806,"elapsed_seconds":41.795215559192},"control":{"throttle":0.0,"steer":0.7689999938011169,"brake":1.0,"hand_brake":false,"reverse":false,"manual_gear_shift":false,"gear":0},"transform":{"location":{"x":-64.64484405517578,"y":24.471010208129883,"z":0.0016386413481086493},"rotation":{"pitch":0.0,"yaw":0.15919795632362366,"roll":0.0}},"velocity":{"x":-1.821271489177434e-08,"y":4.9817629133031005e-08,"z":0.0009395122178830206},"angular_velocity":{"x":-4.783652184414677e-05,"y":-1.895418972708285e-05,"z":-6.584104284002024e-08},"acceleration":{"x":-5.993205149934511e-07,"y":2.2513077055918984e-06,"z":0.008712959475815296},"speed_mps":0.0009395122193803397,"speed_kph":0.0033822439897692232,"speed_limit_kph":30.0,"collisions_this_frame":[],"waypoint":{"x":-64.64469146728516,"y":24.504404067993164,"z":0.0},"lane_deviation_m":0.03343438729643822,"lane_width":3.5,"goal":{"x":55.54227828979492,"y":130.46006774902344,"z":0.6000292897224426},"fault":{"name":"none","severity":0.0},"capture_flags":{"save_rgb":true,"save_depth":false,"video_rgb":true,"video_depth":false}}
{"frame":3531,"timestamp":{"delta_seconds":0.05000000074505806,"elapsed_seconds":41.84521555993706},"control":{"throttle":0.0,"steer":0.9160000085830688,"brake":1.0,"hand_brake":false,"reverse":false,"manual_gear_shift":false,"gear":0},"transform":{"location":{"x":-64.64484405517578,"y":24.471010208129883,"z":0.0016878509195521474},"rotation":{"pitch":0.0,"yaw":0.15919795632362366,"roll":0.0}},"velocity":{"x":-2.5118481516983593e-08,"y":6.28269702929174e-08,"z":0.0009802245767787099},"angular_velocity":{"x":-4.8221198085229844e-05,"y":-1.7836042388807982e-05,"z":-4.993745505998959e-08},"acceleration":{"x":-1.381153253987577e-07,"y":2.601868231977278e-07,"z":0.000814247177913785},"speed_mps":0.0009802245791139738,"speed_kph":0.0035288084848103056,"speed_limit_kph":30.0,"collisions_this_frame":[],"waypoint":{"x":-64.64469146728516,"y":24.504404067993164,"z":0.0},"lane_deviation_m":0.03343683481216431,"lane_width":3.5,"goal":{"x":55.54227828979492,"y":130.46006774902344,"z":0.6000292897224426},"fault":{"name":"none","severity":0.0},"capture_flags":{"save_rgb":true,"save_depth":false,"video_rgb":true,"video_depth":false}}
{"frame":3532,"timestamp":{"delta_seconds":0.05000000074505806,"elapsed_seconds":41.89521556068212},"control":{"throttle":0.0,"steer":0.8640000224113464,"brake":1.0,"hand_brake":false,"reverse":false,"manual_gear_shift":false,"gear":0},"transform":{"location":{"x":-64.64484405517578,"y":24.471010208129883,"z":0.0017336654709652066},"rotation":{"pitch":0.0,"yaw":0.15919795632362366,"roll":0.0}},"velocity":{"x":1.8472753993137303e-08,"y":-5.4721297715332184e-08,"z":0.0008603858877904713},"angular_velocity":{"x":7.228056347230449e-05,"y":2.5687419110909104e-05,"z":3.235626522268831e-08},"acceleration":{"x":8.718246817807085e-07,"y":-2.3509653601649916e-06,"z":-0.0023967737797647715},"speed_mps":0.0008603858897289406,"speed_kph":0.003097389203024186,"speed_limit_kph":30.0,"collisions_this_frame":[],"waypoint":{"x":-64.64469146728516,"y":24.504404067993164,"z":0.0},"lane_deviation_m":0.03343917801976204,"lane_width":3.5,"goal":{"x":55.54227828979492,"y":130.46006774902344,"z":0.6000292897224426},"fault":{"name":"none","severity":0.0},"capture_flags":{"save_rgb":true,"save_depth":false,"video_rgb":true,"video_depth":false}}
{"frame":3533,"timestamp":{"delta_seconds":0.05000000074505806,"elapsed_seconds":41.945215561427176},"control":{"throttle":0.0,"steer":0.718999981880188,"brake":1.0,"hand_brake":false,"reverse":false,"manual_gear_shift":false,"gear":0},"transform":{"location":{"x":-64.64484405517578,"y":24.471010208129883,"z":0.0017717742593958974},"rotation":{"pitch":0.0,"yaw":0.15919795632362366,"roll":0.0}},"velocity":{"x":4.325613478517454e-11,"y":5.9401461527386346e-09,"z":0.000694007845595479},"angular_velocity":{"x":1.0894917977566365e-05,"y":6.187042799865594e-06,"z":-3.073623133786896e-08},"acceleration":{"x":-3.68589951449394e-07,"y":1.213228870255989e-06,"z":-0.003327560843899846},"speed_mps":0.0006940078456209018,"speed_kph":0.0024984282442352466,"speed_limit_kph":30.0,"collisions_this_frame":[],"waypoint":{"x":-64.64469146728516,"y":24.504404067993164,"z":0.0},"lane_deviation_m":0.033441174775362015,"lane_width":3.5,"goal":{"x":55.54227828979492,"y":130.46006774902344,"z":0.6000292897224426},"fault":{"name":"none","severity":0.0},"capture_flags":{"save_rgb":true,"save_depth":false,"video_rgb":true,"video_depth":false}}
{"frame":3534,"timestamp":{"delta_seconds":0.05000000074505806,"elapsed_seconds":41.995215562172234},"control":{"throttle":0.0,"steer":0.7950000166893005,"brake":1.0,"hand_brake":false,"reverse":false,"manual_gear_shift":false,"gear":0},"transform":{"location":{"x":-64.64484405517578,"y":24.471010208129883,"z":0.0018015288515016437},"rotation":{"pitch":0.0,"yaw":0.15919795632362366,"roll":0.0}},"velocity":{"x":5.6805151693595235e-09,"y":-9.755845020720244e-09,"z":0.000532445905264467},"angular_velocity":{"x":6.092500825616298e-06,"y":6.221403964445926e-06,"z":8.173869758820729e-08},"acceleration":{"x":1.127451838556226e-07,"y":-3.1391982702189125e-07,"z":-0.00323123880662024},"speed_mps":0.0005324459053841456,"speed_kph":0.0019168052593829242,"speed_limit_kph":30.0,"collisions_this_frame":[],"waypoint":{"x":-64.64469146728516,"y":24.504404067993164,"z":0.0},"lane_deviation_m":0.03344276547431946,"lane_width":3.5,"goal":{"x":55.54227828979492,"y":130.46006774902344,"z":0.6000292897224426},"fault":{"name":"none","severity":0.0},"capture_flags":{"save_rgb":true,"save_depth":false,"video_rgb":true,"video_depth":false}}
{"frame":3535,"timestamp":{"delta_seconds":0.05000000074505806,"elapsed_seconds":42.04521556291729},"control":{"throttle":0.0,"steer":0.8130000233650208,"brake":1.0,"hand_brake":false,"reverse":false,"manual_gear_shift":false,"gear":0},"transform":{"location":{"x":-64.64484405517578,"y":24.471010208129883,"z":0.001823921105824411},"rotation":{"pitch":0.0,"yaw":0.15919795632362366,"roll":0.0}},"velocity":{"x":2.4055260006150547e-09,"y":1.5895720295588944e-08,"z":0.0003939247108064592},"angular_velocity":{"x":-1.2451816473912913e-05,"y":6.645813755312702e-06,"z":6.527082874185908e-09},"acceleration":{"x":-6.549978337488938e-08,"y":5.130312956680427e-07,"z":-0.0027704238891601562},"speed_mps":0.0003939247111345174,"speed_kph":0.0014181289600842628,"speed_limit_kph":30.0,"collisions_this_frame":[],"waypoint":{"x":-64.64469146728516,"y":24.504404067993164,"z":0.0},"lane_deviation_m":0.03344397991895676,"lane_width":3.5,"goal":{"x":55.54227828979492,"y":130.46006774902344,"z":0.6000292897224426},"fault":{"name":"none","severity":0.0},"capture_flags":{"save_rgb":true,"save_depth":false,"video_rgb":true,"video_depth":false}}
{"frame":3536,"timestamp":{"delta_seconds":0.05000000074505806,"elapsed_seconds":42.09521556366235},"control":{"throttle":0.0,"steer":0.8410000205039978,"brake":1.0,"hand_brake":false,"reverse":false,"manual_gear_shift":false,"gear":0},"transform":{"location":{"x":-64.64484405517578,"y":24.471010208129883,"z":0.0018402481218799949},"rotation":{"pitch":0.0,"yaw":0.15919795632362366,"roll":0.0}},"velocity":{"x":4.514297380353582e-09,"y":8.857223399161285e-09,"z":0.0002859783126041293},"angular_velocity":{"x":-1.3798378859064542e-05,"y":6.720480541844154e-06,"z":4.646736684321695e-08},"acceleration":{"x":4.217542937112739e-08,"y":-1.4076994148126687e-07,"z":-0.0021589279640465975},"speed_mps":0.0002859783127769209,"speed_kph":0.0010295219259969153,"speed_limit_kph":30.0,"collisions_this_frame":[],"waypoint":{"x":-64.64469146728516,"y":24.504404067993164,"z":0.0},"lane_deviation_m":0.03344487398862839,"lane_width":3.5,"goal":{"x":55.54227828979492,"y":130.46006774902344,"z":0.6000292897224426},"fault":{"name":"none","severity":0.0},"capture_flags":{"save_rgb":true,"save_depth":false,"video_rgb":true,"video_depth":false}}
{"frame":3537,"timestamp":{"delta_seconds":0.05000000074505806,"elapsed_seconds":42.14521556440741},"control":{"throttle":0.0,"steer":0.7879999876022339,"brake":1.0,"hand_brake":false,"reverse":false,"manual_gear_shift":false,"gear":0},"transform":{"location":{"x":-64.64484405517578,"y":24.471010208129883,"z":0.001851959154009819},"rotation":{"pitch":0.0,"yaw":0.15919795632362366,"roll":0.0}},"velocity":{"x":-1.0916101800262368e-08,"y":4.670199871270597e-08,"z":0.00020424842659849674},"angular_velocity":{"x":-6.260369991650805e-05,"y":-1.3757118722423911e-05,"z":7.214912045583333e-08},"acceleration":{"x":-3.086079800596053e-07,"y":7.568954742964706e-07,"z":-0.0016345977783203125},"speed_mps":0.00020424843222947752,"speed_kph":0.0007352943560261191,"speed_limit_kph":30.0,"collisions_this_frame":[],"waypoint":{"x":-64.64469146728516,"y":24.504404067993164,"z":0.0},"lane_deviation_m":0.03344551846385002,"lane_width":3.5,"goal":{"x":55.54227828979492,"y":130.46006774902344,"z":0.6000292897224426},"fault":{"name":"none","severity":0.0},"capture_flags":{"save_rgb":true,"save_depth":false,"video_rgb":true,"video_depth":false}}
{"frame":3538,"timestamp":{"delta_seconds":0.05000000074505806,"elapsed_seconds":42.195215565152466},"control":{"throttle":0.0,"steer":0.7260000109672546,"brake":1.0,"hand_brake":false,"reverse":false,"manual_gear_shift":false,"gear":0},"transform":{"location":{"x":-64.64484405517578,"y":24.471010208129883,"z":0.0018543624319136143},"rotation":{"pitch":0.0,"yaw":0.15919795632362366,"roll":0.0}},"velocity":{"x":-2.419694222766111e-09,"y":-5.563833838095888e-10,"z":7.431983976857737e-05},"angular_velocity":{"x":1.028606311592739e-05,"y":-4.870052521255275e-07,"z":-5.001981762120522e-08},"acceleration":{"x":1.6992814266814094e-07,"y":-9.451676419303112e-07,"z":-0.002598571591079235},"speed_mps":7.431983981005002e-05,"speed_kph":0.0002675514233161801,"speed_limit_kph":30.0,"collisions_this_frame":[],"waypoint":{"x":-64.64469146728516,"y":24.504404067993164,"z":0.0},"lane_deviation_m":0.033445652574300766,"lane_width":3.5,"goal":{"x":55.54227828979492,"y":130.46006774902344,"z":0.6000292897224426},"fault":{"name":"none","severity":0.0},"capture_flags":{"save_rgb":true,"save_depth":false,"video_rgb":true,"video_depth":false}}
{"frame":3539,"timestamp":{"delta_seconds":0.05000000074505806,"elapsed_seconds":42.245215565897524},"control":{"throttle":0.0,"steer":0.9380000233650208,"brake":1.0,"hand_brake":false,"reverse":false,"manual_gear_shift":false,"gear":0},"transform":{"location":{"x":-64.64484405517578,"y":24.471010208129883,"z":0.0018587112426757812},"rotation":{"pitch":0.0,"yaw":0.15919795632362366,"roll":0.0}},"velocity":{"x":-7.247132338683571e-10,"y":-2.570369472820744e-09,"z":9.137153392657638e-05},"angular_velocity":{"x":8.123155566863716e-06,"y":5.05108573634061e-07,"z":-2.9230415421466205e-08},"acceleration":{"x":3.3899620888178106e-08,"y":-4.027972266840152e-08,"z":0.0003410338831599802},"speed_mps":9.13715339656039e-05,"speed_kph":0.00032893752227617404,"speed_limit_kph":30.0,"collisions_this_frame":[],"waypoint":{"x":-64.64469146728516,"y":24.504404067993164,"z":0.0},"lane_deviation_m":0.033445894718170166,"lane_width":3.5,"goal":{"x":55.54227828979492,"y":130.46006774902344,"z":0.6000292897224426},"fault":{"name":"none","severity":0.0},"capture_flags":{"save_rgb":true,"save_depth":false,"video_rgb":true,"video_depth":false}}
{"frame":3540,"timestamp":{"delta_seconds":0.05000000074505806,"elapsed_seconds":42.29521556664258},"control":{"throttle":0.0,"steer":0.8560000061988831,"brake":1.0,"hand_brake":false,"reverse":false,"manual_gear_shift":false,"gear":0},"transform":{"location":{"x":-64.64484405517578,"y":24.471010208129883,"z":0.0018631363054737449},"rotation":{"pitch":0.0,"yaw":0.15919795632362366,"roll":0.0}},"velocity":{"x":-1.8171416371615123e-08,"y":5.198679886575519e-08,"z":8.42285153339617e-05},"angular_velocity":{"x":-5.578407217399217e-05,"y":-2.00019476324087e-05,"z":-6.471905322769089e-08},"acceleration":{"x":-3.489340656415152e-07,"y":1.0911434173976886e-06,"z":-0.0001428603718522936},"speed_mps":8.42285333375279e-05,"speed_kph":0.00030322272001510046,"speed_limit_kph":30.0,"collisions_this_frame":[],"waypoint":{"x":-64.64469146728516,"y":24.504404067993164,"z":0.0},"lane_deviation_m":0.033446140587329865,"lane_width":3.5,"goal":{"x":55.54227828979492,"y":130.46006774902344,"z":0.6000292897224426},"fault":{"name":"none","severity":0.0},"capture_flags":{"save_rgb":true,"save_depth":false,"video_rgb":true,"video_depth":false}}
{"frame":3541,"timestamp":{"delta_seconds":0.05000000074505806,"elapsed_seconds":42.34521556738764},"control":{"throttle":0.0,"steer":0.7400000095367432,"brake":1.0,"hand_brake":false,"reverse":false,"manual_gear_shift":false,"gear":0},"transform":{"location":{"x":-64.64484405517578,"y":24.471010208129883,"z":0.0018669128185138106},"rotation":{"pitch":0.0,"yaw":0.15919795632362366,"roll":0.0}},"velocity":{"x":5.312950079883194e-10,"y":-1.0843326236908979e-08,"z":6.976127770030871e-05},"angular_velocity":{"x":1.5094675291038584e-05,"y":1.0855069376702886e-06,"z":2.1111277656582494e-11},"acceleration":{"x":3.7405419561764575e-07,"y":-1.2566024452098645e-06,"z":-0.0002893447526730597},"speed_mps":6.976127854504666e-05,"speed_kph":0.000251140602762168,"speed_limit_kph":30.0,"collisions_this_frame":[],"waypoint":{"x":-64.64469146728516,"y":24.504404067993164,"z":0.0},"lane_deviation_m":0.03344635292887688,"lane_width":3.5,"goal":{"x":55.54227828979492,"y":130.46006774902344,"z":0.6000292897224426},"fault":{"name":"none","severity":0.0},"capture_flags":{"save_rgb":true,"save_depth":false,"video_rgb":true,"video_depth":false}}
{"frame":3542,"timestamp":{"delta_seconds":0.05000000074505806,"elapsed_seconds":42.3952155681327},"control":{"throttle":0.0,"steer":0.7850000262260437,"brake":1.0,"hand_brake":false,"reverse":false,"manual_gear_shift":false,"gear":0},"transform":{"location":{"x":-64.64484405517578,"y":24.471010208129883,"z":0.001869964529760182},"rotation":{"pitch":0.0,"yaw":0.15919795632362366,"roll":0.0}},"velocity":{"x":4.182451274203913e-09,"y":-1.8841559423776744e-08,"z":5.548477201955393e-05},"angular_velocity":{"x":1.3012067938689142e-05,"y":2.2636927496932913e-06,"z":7.455872008677034e-08},"acceleration":{"x":7.302312354795504e-08,"y":-1.5996465663192794e-07,"z":-0.0002855301136150956},"speed_mps":5.548477537630602e-05,"speed_kph":0.00019974519135470168,"speed_limit_kph":30.0,"collisions_this_frame":[],"waypoint":{"x":-64.64469146728516,"y":24.504404067993164,"z":0.0},"lane_deviation_m":0.033446524292230606,"lane_width":3.5,"goal":{"x":55.54227828979492,"y":130.46006774902344,"z":0.6000292897224426},"fault":{"name":"none","severity":0.0},"capture_flags":{"save_rgb":true,"save_depth":false,"video_rgb":true,"video_depth":false}}
{"frame":3543,"timestamp":{"delta_seconds":0.05000000074505806,"elapsed_seconds":42.44521556887776},"control":{"throttle":0.0,"steer":0.8069999814033508,"brake":1.0,"hand_brake":false,"reverse":false,"manual_gear_shift":false,"gear":0},"transform":{"location":{"x":-64.64484405517578,"y":24.471010208129883,"z":0.0018722915556281805},"rotation":{"pitch":0.0,"yaw":0.15919795632362366,"roll":0.0}},"velocity":{"x":-1.8077627936263774e-11,"y":2.0414088197640012e-08,"z":4.1961669921875e-05},"angular_velocity":{"x":-1.7565673260833137e-05,"y":3.6090705179958604e-06,"z":-1.937990923295274e-08},"acceleration":{"x":-8.401057982609927e-08,"y":7.851128884794889e-07,"z":-0.0002704620419535786},"speed_mps":4.1961674887541286e-05,"speed_kph":0.00015106202959514864,"speed_limit_kph":30.0,"collisions_this_frame":[],"waypoint":{"x":-64.64469146728516,"y":24.504404067993164,"z":0.0},"lane_deviation_m":0.03344665467739105,"lane_width":3.5,"goal":{"x":55.54227828979492,"y":130.46006774902344,"z":0.6000292897224426},"fault":{"name":"none","severity":0.0},"capture_flags":{"save_rgb":true,"save_depth":false,"video_rgb":true,"video_depth":false}}
{"frame":3544,"timestamp":{"delta_seconds":0.05000000074505806,"elapsed_seconds":42.495215569622815},"control":{"throttle":0.0,"steer":0.7009999752044678,"brake":1.0,"hand_brake":false,"reverse":false,"manual_gear_shift":false,"gear":0},"transform":{"location":{"x":-64.64484405517578,"y":24.471010208129883,"z":0.0018740080995485187},"rotation":{"pitch":0.0,"yaw":0.15919795632362366,"roll":0.0}},"velocity":{"x":-1.1279212286385842e-10,"y":8.255674366353105e-09,"z":3.086090146098286e-05},"angular_velocity":{"x":1.1936025657632854e-05,"y":3.8353387026290875e-06,"z":-2.029462393693393e-07},"acceleration":{"x":-1.894289836101848e-09,"y":-2.4316827307302447e-07,"z":-0.00022201536921784282},"speed_mps":3.086090256543667e-05,"speed_kph":0.000111099249235572,"speed_limit_kph":30.0,"collisions_this_frame":[],"waypoint":{"x":-64.64469146728516,"y":24.504404067993164,"z":0.0},"lane_deviation_m":0.033446747809648514,"lane_width":3.5,"goal":{"x":55.54227828979492,"y":130.46006774902344,"z":0.6000292897224426},"fault":{"name":"none","severity":0.0},"capture_flags":{"save_rgb":true,"save_depth":false,"video_rgb":true,"video_depth":false}}
{"frame":3545,"timestamp":{"delta_seconds":0.05000000074505806,"elapsed_seconds":42.54521557036787},"control":{"throttle":0.0,"steer":0.8970000147819519,"brake":1.0,"hand_brake":false,"reverse":false,"manual_gear_shift":false,"gear":0},"transform":{"location":{"x":-64.64484405517578,"y":24.471010208129883,"z":0.0018752670148387551},"rotation":{"pitch":0.0,"yaw":0.15919795632362366,"roll":0.0}},"velocity":{"x":3.169757789578398e-09,"y":1.3529335873840864e-08,"z":2.1734236725023948e-05},"angular_velocity":{"x":-1.976431485672947e-05,"y":4.679709491028916e-06,"z":5.3054854731726664e-08},"acceleration":{"x":6.565100107991384e-08,"y":1.0547323370246886e-07,"z":-0.00018253328744322062},"speed_mps":2.1734241167100205e-05,"speed_kph":7.824326820156074e-05,"speed_limit_kph":30.0,"collisions_this_frame":[],"waypoint":{"x":-64.64469146728516,"y":24.504404067993164,"z":0.0},"lane_deviation_m":0.033446818590164185,"lane_width":3.5,"goal":{"x":55.54227828979492,"y":130.46006774902344,"z":0.6000292897224426},"fault":{"name":"none","severity":0.0},"capture_flags":{"save_rgb":true,"save_depth":false,"video_rgb":true,"video_depth":false}}
{"frame":3546,"timestamp":{"delta_seconds":0.05000000074505806,"elapsed_seconds":42.59521557111293},"control":{"throttle":0.0,"steer":0.8270000219345093,"brake":1.0,"hand_brake":false,"reverse":false,"manual_gear_shift":false,"gear":0},"transform":{"location":{"x":-64.64484405517578,"y":24.471010208129883,"z":0.0018752670148387551},"rotation":{"pitch":0.0,"yaw":0.15919795632362366,"roll":0.0}},"velocity":{"x":2.8147312036708172e-08,"y":-7.585800432252654e-08,"z":5.378723017201992e-06},"angular_velocity":{"x":5.795655306428671e-05,"y":2.0881823729723692e-05,"z":7.312089422839563e-08},"acceleration":{"x":4.995511062588776e-07,"y":-1.7877468962979037e-06,"z":-0.00032711029052734375},"speed_mps":5.3793315573380664e-06,"speed_kph":1.936559360641704e-05,"speed_limit_kph":30.0,"collisions_this_frame":[],"waypoint":{"x":-64.64469146728516,"y":24.504404067993164,"z":0.0},"lane_deviation_m":0.033446818590164185,"lane_width":3.5,"goal":{"x":55.54227828979492,"y":130.46006774902344,"z":0.6000292897224426},"fault":{"name":"none","severity":0.0},"capture_flags":{"save_rgb":true,"save_depth":false,"video_rgb":true,"video_depth":false}}
{"frame":3547,"timestamp":{"delta_seconds":0.05000000074505806,"elapsed_seconds":42.64521557185799},"control":{"throttle":0.0,"steer":0.8190000057220459,"brake":1.0,"hand_brake":false,"reverse":false,"manual_gear_shift":false,"gear":0},"transform":{"location":{"x":-64.64484405517578,"y":24.471010208129883,"z":0.0018752670148387551},"rotation":{"pitch":0.0,"yaw":0.15919795632362366,"roll":0.0}},"velocity":{"x":-9.039395010290718e-09,"y":2.5620858323804896e-08,"z":8.430481102550402e-06},"angular_velocity":{"x":-2.1966666281514335e-06,"y":1.5770009440529975e-06,"z":-4.7640029698925446e-09},"acceleration":{"x":-7.437341764671146e-07,"y":2.029577217399492e-06,"z":6.103516352595761e-05},"speed_mps":8.430524880427247e-06,"speed_kph":3.034988956953809e-05,"speed_limit_kph":30.0,"collisions_this_frame":[],"waypoint":{"x":-64.64469146728516,"y":24.504404067993164,"z":0.0},"lane_deviation_m":0.033446818590164185,"lane_width":3.5,"goal":{"x":55.54227828979492,"y":130.46006774902344,"z":0.6000292897224426},"fault":{"name":"none","severity":0.0},"capture_flags":{"save_rgb":true,"save_depth":false,"video_rgb":true,"video_depth":false}}
{"frame":3548,"timestamp":{"delta_seconds":0.05000000074505806,"elapsed_seconds":42.69521557260305},"control":{"throttle":0.0,"steer":0.8700000047683716,"brake":1.0,"hand_brake":false,"reverse":false,"manual_gear_shift":false,"gear":0},"transform":{"location":{"x":-64.64484405517578,"y":24.471010208129883,"z":0.0018765258137136698},"rotation":{"pitch":0.0,"yaw":0.15919795632362366,"roll":0.0}},"velocity":{"x":-1.557226703141623e-08,"y":6.211426040181323e-08,"z":9.7370148068876e-06},"angular_velocity":{"x":-6.401739665307105e-05,"y":-1.8673279555514455e-05,"z":-2.55761506195995e-07},"acceleration":{"x":-1.3065744042251026e-07,"y":7.298680770873034e-07,"z":2.6130674086743966e-05},"speed_mps":9.737225376173345e-06,"speed_kph":3.505401135422404e-05,"speed_limit_kph":30.0,"collisions_this_frame":[],"waypoint":{"x":-64.64469146728516,"y":24.504404067993164,"z":0.0},"lane_deviation_m":0.033446889370679855,"lane_width":3.5,"goal":{"x":55.54227828979492,"y":130.46006774902344,"z":0.6000292897224426},"fault":{"name":"none","severity":0.0},"capture_flags":{"save_rgb":true,"save_depth":false,"video_rgb":true,"video_depth":false}}
{"frame":3549,"timestamp":{"delta_seconds":0.05000000074505806,"elapsed_seconds":42.745215573348105},"control":{"throttle":0.0,"steer":0.7210000157356262,"brake":1.0,"hand_brake":false,"reverse":false,"manual_gear_shift":false,"gear":0},"transform":{"location":{"x":-64.64484405517578,"y":24.471010208129883,"z":0.0018765258137136698},"rotation":{"pitch":0.0,"yaw":0.15919795632362366,"roll":0.0}},"velocity":{"x":8.123308137264473e-10,"y":1.9653533911423438e-08,"z":7.610321063111769e-06},"angular_velocity":{"x":-1.843338759499602e-05,"y":3.7138881907594623e-06,"z":1.1078730155489325e-09},"acceleration":{"x":3.2769196423032554e-07,"y":-8.492145298077958e-07,"z":-4.253387305652723e-05},"speed_mps":7.610346483894094e-06,"speed_kph":2.739724734201874e-05,"speed_limit_kph":30.0,"collisions_this_frame":[],"waypoint":{"x":-64.64469146728516,"y":24.504404067993164,"z":0.0},"lane_deviation_m":0.033446889370679855,"lane_width":3.5,"goal":{"x":55.54227828979492,"y":130.46006774902344,"z":0.6000292897224426},"fault":{"name":"none","severity":0.0},"capture_flags":{"save_rgb":true,"save_depth":false,"video_rgb":true,"video_depth":false}}
{"frame":3550,"timestamp":{"delta_seconds":0.05000000074505806,"elapsed_seconds":42.79521557409316},"control":{"throttle":0.0,"steer":0.8700000047683716,"brake":1.0,"hand_brake":false,"reverse":false,"manual_gear_shift":false,"gear":0},"transform":{"location":{"x":-64.64484405517578,"y":24.471010208129883,"z":0.0018765258137136698},"rotation":{"pitch":0.0,"yaw":0.15919795632362366,"roll":0.0}},"velocity":{"x":-1.0923187687694735e-08,"y":4.210908599588947e-08,"z":6.036758350091986e-06},"angular_velocity":{"x":-6.223030504770577e-05,"y":-1.6056492313509807e-05,"z":6.182827405609714e-08},"acceleration":{"x":-2.3471037025046826e-07,"y":4.491110416893207e-07,"z":-3.147125244140625e-05},"speed_mps":6.0369150953577266e-06,"speed_kph":2.1732894343287817e-05,"speed_limit_kph":30.0,"collisions_this_frame":[],"waypoint":{"x":-64.64469146728516,"y":24.504404067993164,"z":0.0},"lane_deviation_m":0.033446889370679855,"lane_width":3.5,"goal":{"x":55.54227828979492,"y":130.46006774902344,"z":0.6000292897224426},"fault":{"name":"none","severity":0.0},"capture_flags":{"save_rgb":true,"save_depth":false,"video_rgb":true,"video_depth":false}}
{"frame":3551,"timestamp":{"delta_seconds":0.05000000074505806,"elapsed_seconds":42.84521557483822},"control":{"throttle":0.0,"steer":0.7720000147819519,"brake":1.0,"hand_brake":false,"reverse":false,"manual_gear_shift":false,"gear":0},"transform":{"location":{"x":-64.64484405517578,"y":24.471010208129883,"z":0.0018765258137136698},"rotation":{"pitch":0.0,"yaw":0.15919795632362366,"roll":0.0}},"velocity":{"x":-9.592440730621377e-11,"y":1.2582229480528895e-08,"z":4.615783382178051e-06},"angular_velocity":{"x":-3.3662086025287863e-06,"y":5.396044798544608e-06,"z":-1.3083004013481059e-08},"acceleration":{"x":2.1654527415648772e-07,"y":-5.905371267544979e-07,"z":-2.84194993582787e-05},"speed_mps":4.615800532181958e-06,"speed_kph":1.6616881915855047e-05,"speed_limit_kph":30.0,"collisions_this_frame":[],"waypoint":{"x":-64.64469146728516,"y":24.504404067993164,"z":0.0},"lane_deviation_m":0.033446889370679855,"lane_width":3.5,"goal":{"x":55.54227828979492,"y":130.46006774902344,"z":0.6000292897224426},"fault":{"name":"none","severity":0.0},"capture_flags":{"save_rgb":true,"save_depth":false,"video_rgb":true,"video_depth":false}}
{"frame":3552,"timestamp":{"delta_seconds":0.05000000074505806,"elapsed_seconds":42.89521557558328},"control":{"throttle":0.0,"steer":0.7919999957084656,"brake":1.0,"hand_brake":false,"reverse":false,"manual_gear_shift":false,"gear":0},"transform":{"location":{"x":-64.64484405517578,"y":24.471010208129883,"z":0.0018776321085169911},"rotation":{"pitch":0.0,"yaw":0.15919795632362366,"roll":0.0}},"velocity":{"x":3.377752300082193e-09,"y":1.5958917742864287e-08,"z":3.4523009162512608e-06},"angular_velocity":{"x":-1.8992161130881868e-05,"y":6.112882147135679e-06,"z":1.6516187528736737e-08},"acceleration":{"x":6.947353625719188e-08,"y":6.753376169399417e-08,"z":-2.3269649318535812e-05},"speed_mps":3.4523394550095186e-06,"speed_kph":1.2428422038034268e-05,"speed_limit_kph":30.0,"collisions_this_frame":[],"waypoint":{"x":-64.64469146728516,"y":24.504404067993164,"z":0.0},"lane_deviation_m":0.03344695270061493,"lane_width":3.5,"goal":{"x":55.54227828979492,"y":130.46006774902344,"z":0.6000292897224426},"fault":{"name":"none","severity":0.0},"capture_flags":{"save_rgb":true,"save_depth":false,"video_rgb":true,"video_depth":false}}
{"frame":3553,"timestamp":{"delta_seconds":0.05000000074505806,"elapsed_seconds":42.94521557632834},"control":{"throttle":0.0,"steer":0.7540000081062317,"brake":1.0,"hand_brake":false,"reverse":false,"manual_gear_shift":false,"gear":0},"transform":{"location":{"x":-64.64484405517578,"y":24.471010208129883,"z":0.0018776321085169911},"rotation":{"pitch":0.0,"yaw":0.15919795632362366,"roll":0.0}},"velocity":{"x":-8.929784023337106e-09,"y":4.0825366198760094e-08,"z":1.8692015828492003e-06},"angular_velocity":{"x":-6.660442159045488e-05,"y":-1.4799506971030496e-05,"z":1.1254611109734469e-07},"acceleration":{"x":-2.4615073357381334e-07,"y":4.973289833287708e-07,"z":-3.166198803228326e-05},"speed_mps":1.869668689606242e-06,"speed_kph":6.730807282582471e-06,"speed_limit_kph":30.0,"collisions_this_frame":[],"waypoint":{"x":-64.64469146728516,"y":24.504404067993164,"z":0.0},"lane_deviation_m":0.03344695270061493,"lane_width":3.5,"goal":{"x":55.54227828979492,"y":130.46006774902344,"z":0.6000292897224426},"fault":{"name":"none","severity":0.0},"capture_flags":{"save_rgb":true,"save_depth":false,"video_rgb":true,"video_depth":false}}
{"frame":3554,"timestamp":{"delta_seconds":0.05000000074505806,"elapsed_seconds":42.995215577073395},"control":{"throttle":0.0,"steer":0.8659999966621399,"brake":1.0,"hand_brake":false,"reverse":false,"manual_gear_shift":false,"gear":0},"transform":{"location":{"x":-64.64484405517578,"y":24.471010208129883,"z":0.0018776321085169911},"rotation":{"pitch":0.0,"yaw":0.15919795632362366,"roll":0.0}},"velocity":{"x":0.0,"y":0.0,"z":0.0},"angular_velocity":{"x":0.0,"y":0.0,"z":0.0},"acceleration":{"x":1.785956840194558e-07,"y":-8.165073381860566e-07,"z":-3.7384030292741954e-05},"speed_mps":0.0,"speed_kph":0.0,"speed_limit_kph":30.0,"collisions_this_frame":[],"waypoint":{"x":-64.64469146728516,"y":24.504404067993164,"z":0.0},"lane_deviation_m":0.03344695270061493,"lane_width":3.5,"goal":{"x":55.54227828979492,"y":130.46006774902344,"z":0.6000292897224426},"fault":{"name":"none","severity":0.0},"capture_flags":{"save_rgb":true,"save_depth":false,"video_rgb":true,"video_depth":false}}
{"frame":3555,"timestamp":{"delta_seconds":0.05000000074505806,"elapsed_seconds":43.04521557781845},"control":{"throttle":0.0,"steer":0.859000027179718,"brake":1.0,"hand_brake":false,"reverse":false,"manual_gear_shift":false,"gear":0},"transform":{"location":{"x":-64.64484405517578,"y":24.471010208129883,"z":0.0018776321085169911},"rotation":{"pitch":0.0,"yaw":0.15919795632362366,"roll":0.0}},"velocity":{"x":7.691296488587795e-10,"y":2.1374992886791233e-09,"z":1.1062621751989354e-06},"angular_velocity":{"x":-5.777339083579136e-06,"y":1.482951290654455e-07,"z":2.2057063731040216e-08},"acceleration":{"x":1.538259297717559e-08,"y":4.2749984885404047e-08,"z":2.2125243049231358e-05},"speed_mps":1.106264507583745e-06,"speed_kph":3.982552227301482e-06,"speed_limit_kph":30.0,"collisions_this_frame":[],"waypoint":{"x":-64.64469146728516,"y":24.504404067993164,"z":0.0},"lane_deviation_m":0.03344695270061493,"lane_width":3.5,"goal":{"x":55.54227828979492,"y":130.46006774902344,"z":0.6000292897224426},"fault":{"name":"none","severity":0.0},"capture_flags":{"save_rgb":true,"save_depth":false,"video_rgb":true,"video_depth":false}}
{"frame":3556,"timestamp":{"delta_seconds":0.05000000074505806,"elapsed_seconds":43.09521557856351},"control":{"throttle":0.0,"steer":0.7570000290870667,"brake":1.0,"hand_brake":false,"reverse":false,"manual_gear_shift":false,"gear":0},"transform":{"location":{"x":-64.64484405517578,"y":24.471010208129883,"z":0.0018776321085169911},"rotation":{"pitch":0.0,"yaw":0.15919795632362366,"roll":0.0}},"velocity":{"x":-8.082985947233112e-10,"y":1.8861637585132485e-08,"z":2.174377414121409e-06},"angular_velocity":{"x":-6.998924163781339e-06,"y":1.0937937986454926e-06,"z":-2.2312099190457957e-07},"acceleration":{"x":-3.154856287324037e-08,"y":3.3448276326453197e-07,"z":2.136230432370212e-05},"speed_mps":2.174459370455175e-06,"speed_kph":7.828053733638631e-06,"speed_limit_kph":30.0,"collisions_this_frame":[],"waypoint":{"x":-64.64469146728516,"y":24.504404067993164,"z":0.0},"lane_deviation_m":0.03344695270061493,"lane_width":3.5,"goal":{"x":55.54227828979492,"y":130.46006774902344,"z":0.6000292897224426},"fault":{"name":"none","severity":0.0},"capture_flags":{"save_rgb":true,"save_depth":false,"video_rgb":true,"video_depth":false}}
{"frame":3557,"timestamp":{"delta_seconds":0.05000000074505806,"elapsed_seconds":43.14521557930857},"control":{"throttle":0.0,"steer":0.7459999918937683,"brake":1.0,"hand_brake":false,"reverse":false,"manual_gear_shift":false,"gear":0},"transform":{"location":{"x":-64.64484405517578,"y":24.471010208129883,"z":0.0018776321085169911},"rotation":{"pitch":0.0,"yaw":0.15919795632362366,"roll":0.0}},"velocity":{"x":4.349308913020877e-09,"y":1.7235537441706583e-08,"z":1.6212462696785224e-06},"angular_velocity":{"x":-3.399551860638894e-05,"y":2.8097979338781442e-06,"z":5.785936352253884e-08},"acceleration":{"x":1.0315215348555284e-07,"y":-3.252200286851803e-08,"z":-1.106262243411038e-05},"speed_mps":1.621343716546695e-06,"speed_kph":5.836837379568102e-06,"speed_limit_kph":30.0,"collisions_this_frame":[],"waypoint":{"x":-64.64469146728516,"y":24.504404067993164,"z":0.0},"lane_deviation_m":0.03344695270061493,"lane_width":3.5,"goal":{"x":55.54227828979492,"y":130.46006774902344,"z":0.6000292897224426},"fault":{"name":"none","severity":0.0},"capture_flags":{"save_rgb":true,"save_depth":false,"video_rgb":true,"video_depth":false}}
{"frame":3558,"timestamp":{"delta_seconds":0.05000000074505806,"elapsed_seconds":43.19521558005363},"control":{"throttle":0.0,"steer":0.7799999713897705,"brake":1.0,"hand_brake":false,"reverse":false,"manual_gear_shift":false,"gear":0},"transform":{"location":{"x":-64.64484405517578,"y":24.471010208129883,"z":0.0018776321085169911},"rotation":{"pitch":0.0,"yaw":0.15919795632362366,"roll":0.0}},"velocity":{"x":8.580827604021124e-09,"y":-7.07427494361923e-09,"z":1.8501281147109694e-06},"angular_velocity":{"x":3.358274989295751e-05,"y":2.2536032702191733e-05,"z":5.286764093170859e-08},"acceleration":{"x":8.46303720436481e-08,"y":-4.861962565883005e-07,"z":4.57763690064894e-06},"speed_mps":1.8501615380318318e-06,"speed_kph":6.660581536914595e-06,"speed_limit_kph":30.0,"collisions_this_frame":[],"waypoint":{"x":-64.64469146728516,"y":24.504404067993164,"z":0.0},"lane_deviation_m":0.03344695270061493,"lane_width":3.5,"goal":{"x":55.54227828979492,"y":130.46006774902344,"z":0.6000292897224426},"fault":{"name":"none","severity":0.0},"capture_flags":{"save_rgb":true,"save_depth":false,"video_rgb":true,"video_depth":false}}
