{"frame":23751,"timestamp":{"delta_seconds":0.05000000074505806,"elapsed_seconds":232.6462084800005},"control":{"throttle":0.75,"steer":0.0,"brake":0.0,"hand_brake":false,"reverse":false,"manual_gear_shift":false,"gear":0},"transform":{"location":{"x":-87.6230239868164,"y":12.967159271240234,"z":0.48239994049072266},"rotation":{"pitch":0.0,"yaw":-179.84078979492188,"roll":0.0}},"velocity":{"x":0.0,"y":0.0,"z":-1.470000147819519},"angular_velocity":{"x":0.0,"y":0.0,"z":0.0},"acceleration":{"x":0.0,"y":0.0,"z":-9.80000114440918},"speed_mps":1.470000147819519,"speed_kph":5.2920005321502686,"speed_limit_kph":30.0,"collisions_this_frame":[],"waypoint":{"x":-87.62295532226562,"y":12.94051742553711,"z":0.0},"lane_deviation_m":0.48313507437705994,"lane_width":3.5,"goal":{"x":10.912545204162598,"y":-57.40138626098633,"z":0.5999999642372131},"fault":{"name":"fault_free","severity":1.0},"capture_flags":{"save_rgb":true,"save_depth":false,"video_rgb":true,"video_depth":false}}
{"frame":23752,"timestamp":{"delta_seconds":0.05000000074505806,"elapsed_seconds":232.69620848074555},"control":{"throttle":0.75,"steer":0.0,"brake":0.0,"hand_brake":false,"reverse":false,"manual_gear_shift":false,"gear":0},"transform":{"location":{"x":-87.6230239868164,"y":12.967159271240234,"z":0.394199937582016},"rotation":{"pitch":0.0,"yaw":-179.84078979492188,"roll":0.0}},"velocity":{"x":0.0,"y":0.0,"z":-1.9600002765655518},"angular_velocity":{"x":0.0,"y":0.0,"z":0.0},"acceleration":{"x":0.0,"y":0.0,"z":-9.800003051757812},"speed_mps":1.9600002765655518,"speed_kph":7.056000995635986,"speed_limit_kph":30.0,"collisions_this_frame":[],"waypoint":{"x":-87.62295532226562,"y":12.94051742553711,"z":0.0},"lane_deviation_m":0.3950991928577423,"lane_width":3.5,"goal":{"x":10.912545204162598,"y":-57.40138626098633,"z":0.5999999642372131},"fault":{"name":"fault_free","severity":1.0},"capture_flags":{"save_rgb":true,"save_depth":false,"video_rgb":true,"video_depth":false}}
{"frame":23753,"timestamp":{"delta_seconds":0.05000000074505806,"elapsed_seconds":232.7462084814906},"control":{"throttle":0.75,"steer":0.0,"brake":0.0,"hand_brake":false,"reverse":false,"manual_gear_shift":false,"gear":0},"transform":{"location":{"x":-87.6230239868164,"y":12.967159271240234,"z":0.281499981880188},"rotation":{"pitch":0.0,"yaw":-179.84078979492188,"roll":0.0}},"velocity":{"x":0.0,"y":0.0,"z":-2.450000286102295},"angular_velocity":{"x":0.0,"y":0.0,"z":0.0},"acceleration":{"x":0.0,"y":0.0,"z":-9.800000190734863},"speed_mps":2.450000286102295,"speed_kph":8.820001029968262,"speed_limit_kph":30.0,"collisions_this_frame":[],"waypoint":{"x":-87.62295532226562,"y":12.94051742553711,"z":0.0},"lane_deviation_m":0.2827579081058502,"lane_width":3.5,"goal":{"x":10.912545204162598,"y":-57.40138626098633,"z":0.5999999642372131},"fault":{"name":"fault_free","severity":1.0},"capture_flags":{"save_rgb":true,"save_depth":false,"video_rgb":true,"video_depth":false}}
{"frame":23754,"timestamp":{"delta_seconds":0.05000000074505806,"elapsed_seconds":232.79620848223567},"control":{"throttle":0.75,"steer":0.0,"brake":0.0,"hand_brake":false,"reverse":false,"manual_gear_shift":false,"gear":0},"transform":{"location":{"x":-87.6230239868164,"y":12.967159271240234,"z":0.14429987967014313},"rotation":{"pitch":0.0,"yaw":-179.84078979492188,"roll":0.0}},"velocity":{"x":0.0,"y":0.0,"z":-2.93999981880188},"angular_velocity":{"x":0.0,"y":0.0,"z":0.0},"acceleration":{"x":0.0,"y":0.0,"z":-9.7999906539917},"speed_mps":2.93999981880188,"speed_kph":10.583999347686769,"speed_limit_kph":30.0,"collisions_this_frame":[],"waypoint":{"x":-87.62295532226562,"y":12.94051742553711,"z":0.0},"lane_deviation_m":0.1467387080192566,"lane_width":3.5,"goal":{"x":10.912545204162598,"y":-57.40138626098633,"z":0.5999999642372131},"fault":{"name":"fault_free","severity":1.0},"capture_flags":{"save_rgb":true,"save_depth":false,"video_rgb":true,"video_depth":false}}
{"frame":23755,"timestamp":{"delta_seconds":0.05000000074505806,"elapsed_seconds":232.84620848298073},"control":{"throttle":0.75,"steer":0.0,"brake":0.0,"hand_brake":false,"reverse":false,"manual_gear_shift":false,"gear":0},"transform":{"location":{"x":-87.62357330322266,"y":12.96517276763916,"z":0.009365997277200222},"rotation":{"pitch":0.07286445051431656,"yaw":-179.8075408935547,"roll":-0.1875305026769638}},"velocity":{"x":0.0027095067780464888,"y":-0.022531399503350258,"z":-2.008272886276245},"angular_velocity":{"x":-5.179205417633057,"y":2.2222490310668945,"z":0.21223808825016022},"acceleration":{"x":0.05419013649225235,"y":-0.45062798261642456,"z":18.634538650512695},"speed_mps":2.0084011031521767,"speed_kph":7.230243971347837,"speed_limit_kph":30.0,"collisions_this_frame":[],"waypoint":{"x":-87.62350463867188,"y":12.940515518188477,"z":0.0},"lane_deviation_m":0.026376251131296158,"lane_width":3.5,"goal":{"x":10.912545204162598,"y":-57.40138626098633,"z":0.5999999642372131},"fault":{"name":"fault_free","severity":1.0},"capture_flags":{"save_rgb":true,"save_depth":false,"video_rgb":true,"video_depth":false}}
{"frame":23756,"timestamp":{"delta_seconds":0.05000000074505806,"elapsed_seconds":232.8962084837258},"control":{"throttle":0.75,"steer":0.0,"brake":0.0,"hand_brake":false,"reverse":false,"manual_gear_shift":false,"gear":0},"transform":{"location":{"x":-87.62406921386719,"y":12.96351146697998,"z":-0.04846011847257614},"rotation":{"pitch":0.15083788335323334,"yaw":-179.8032989501953,"roll":-0.33303821086883545}},"velocity":{"x":-0.0006389307673089206,"y":-0.006589831784367561,"z":-0.7027705311775208},"angular_velocity":{"x":-1.4378985166549683,"y":1.0056092739105225,"z":-0.048369329422712326},"acceleration":{"x":-0.06696875393390656,"y":0.31883135437965393,"z":26.110048294067383},"speed_mps":0.702801717134361,"speed_kph":2.5300861816837,"speed_limit_kph":30.0,"collisions_this_frame":[],"waypoint":{"x":-87.62400817871094,"y":12.940513610839844,"z":0.0},"lane_deviation_m":0.05364036187529564,"lane_width":3.5,"goal":{"x":10.912545204162598,"y":-57.40138626098633,"z":0.5999999642372131},"fault":{"name":"fault_free","severity":1.0},"capture_flags":{"save_rgb":true,"save_depth":false,"video_rgb":true,"video_depth":false}}
{"frame":23757,"timestamp":{"delta_seconds":0.05000000074505806,"elapsed_seconds":232.94620848447084},"control":{"throttle":0.75,"steer":0.0,"brake":0.0,"hand_brake":false,"reverse":false,"manual_gear_shift":false,"gear":0},"transform":{"location":{"x":-87.62419128417969,"y":12.963289260864258,"z":-0.06371334195137024},"rotation":{"pitch":0.17248958349227905,"yaw":-179.8021240234375,"roll":-0.34954833984375}},"velocity":{"x":0.0011277806479483843,"y":-0.00022247667948249727,"z":-0.1011342778801918},"angular_velocity":{"x":0.21106195449829102,"y":0.11070902645587921,"z":0.06372814625501633},"acceleration":{"x":0.035334229469299316,"y":0.12734709680080414,"z":12.032724380493164},"speed_mps":0.10114081049413562,"speed_kph":0.36410691777888826,"speed_limit_kph":30.0,"collisions_this_frame":[],"waypoint":{"x":-87.62413024902344,"y":12.940513610839844,"z":0.0},"lane_deviation_m":0.0676618367433548,"lane_width":3.5,"goal":{"x":10.912545204162598,"y":-57.40138626098633,"z":0.5999999642372131},"fault":{"name":"fault_free","severity":1.0},"capture_flags":{"save_rgb":true,"save_depth":false,"video_rgb":true,"video_depth":false}}
{"frame":23758,"timestamp":{"delta_seconds":0.05000000074505806,"elapsed_seconds":232.9962084852159},"control":{"throttle":0.75,"steer":0.0,"brake":0.0,"hand_brake":false,"reverse":false,"manual_gear_shift":false,"gear":0},"transform":{"location":{"x":-87.62409973144531,"y":12.96371078491211,"z":-0.06023666262626648},"rotation":{"pitch":0.15232686698436737,"yaw":-179.80409240722656,"roll":-0.29660025238990784}},"velocity":{"x":-0.001690506935119629,"y":0.0026213484816253185,"z":0.14474524557590485},"angular_velocity":{"x":1.149038314819336,"y":-0.4998834431171417,"z":-0.0935584306716919},"acceleration":{"x":-0.05636575073003769,"y":0.05687650293111801,"z":4.917590618133545},"speed_mps":0.1447788499691471,"speed_kph":0.5212038598889296,"speed_limit_kph":30.0,"collisions_this_frame":[],"waypoint":{"x":-87.62403869628906,"y":12.940513610839844,"z":0.0},"lane_deviation_m":0.06454896181821823,"lane_width":3.5,"goal":{"x":10.912545204162598,"y":-57.40138626098633,"z":0.5999999642372131},"fault":{"name":"fault_free","severity":1.0},"capture_flags":{"save_rgb":true,"save_depth":false,"video_rgb":true,"video_depth":false}}
{"frame":23759,"timestamp":{"delta_seconds":0.05000000074505806,"elapsed_seconds":233.04620848596096},"control":{"throttle":0.75,"steer":0.0,"brake":0.0,"hand_brake":false,"reverse":false,"manual_gear_shift":false,"gear":0},"transform":{"location":{"x":-87.62395477294922,"y":12.964290618896484,"z":-0.050149381160736084},"rotation":{"pitch":0.12685710191726685,"yaw":-179.8055877685547,"roll":-0.245391845703125}},"velocity":{"x":5.244612566457363e-06,"y":0.005225048400461674,"z":0.2200310230255127},"angular_velocity":{"x":0.9269015789031982,"y":-0.49148479104042053,"z":-6.928906077519059e-05},"acceleration":{"x":0.03391503170132637,"y":0.05207400023937225,"z":1.5057156085968018},"speed_mps":0.22009305362038764,"speed_kph":0.7923349930333955,"speed_limit_kph":30.0,"collisions_this_frame":[],"waypoint":{"x":-87.62389373779297,"y":12.940513610839844,"z":0.0},"lane_deviation_m":0.05550054460763931,"lane_width":3.5,"goal":{"x":10.912545204162598,"y":-57.40138626098633,"z":0.5999999642372131},"fault":{"name":"fault_free","severity":1.0},"capture_flags":{"save_rgb":true,"save_depth":false,"video_rgb":true,"video_depth":false}}
{"frame":23760,"timestamp":{"delta_seconds":0.05000000074505806,"elapsed_seconds":233.09620848670602},"control":{"throttle":0.75,"steer":0.0,"brake":0.0,"hand_brake":false,"reverse":false,"manual_gear_shift":false,"gear":0},"transform":{"location":{"x":-87.62382507324219,"y":12.964905738830566,"z":-0.03888813033699989},"rotation":{"pitch":0.10226842015981674,"yaw":-179.80819702148438,"roll":-0.1998290717601776}},"velocity":{"x":-0.001454890938475728,"y":0.0064743999391794205,"z":0.21779030561447144},"angular_velocity":{"x":0.8898360133171082,"y":-0.47551146149635315,"z":-0.08678608387708664},"acceleration":{"x":-0.029202710837125778,"y":0.024987030774354935,"z":-0.044814348220825195},"speed_mps":0.2178913761071332,"speed_kph":0.7844089539856794,"speed_limit_kph":30.0,"collisions_this_frame":[],"waypoint":{"x":-87.62376403808594,"y":12.940513610839844,"z":0.0},"lane_deviation_m":0.0459049716591835,"lane_width":3.5,"goal":{"x":10.912545204162598,"y":-57.40138626098633,"z":0.5999999642372131},"fault":{"name":"fault_free","severity":1.0},"capture_flags":{"save_rgb":true,"save_depth":false,"video_rgb":true,"video_depth":false}}
{"frame":23761,"timestamp":{"delta_seconds":0.05000000074505806,"elapsed_seconds":233.14620848745108},"control":{"throttle":0.75,"steer":0.0,"brake":0.0,"hand_brake":false,"reverse":false,"manual_gear_shift":false,"gear":0},"transform":{"location":{"x":-87.6353988647461,"y":12.965546607971191,"z":-0.02891639620065689},"rotation":{"pitch":0.08981698006391525,"yaw":-179.81588745117188,"roll":-0.1486816257238388}},"velocity":{"x":-0.5586385726928711,"y":0.005193727556616068,"z":0.1845855712890625},"angular_velocity":{"x":0.7965388894081116,"y":0.13306739926338196,"z":0.09199506789445877},"acceleration":{"x":-11.14367389678955,"y":-0.02561344765126705,"z":-0.6640946865081787},"speed_mps":0.5883671156976485,"speed_kph":2.1181216165115346,"speed_limit_kph":30.0,"collisions_this_frame":[],"waypoint":{"x":-87.63533020019531,"y":12.940483093261719,"z":0.0},"lane_deviation_m":0.038266729563474655,"lane_width":3.5,"goal":{"x":10.912545204162598,"y":-57.40138626098633,"z":0.5999999642372131},"fault":{"name":"fault_free","severity":1.0},"capture_flags":{"save_rgb":true,"save_depth":false,"video_rgb":true,"video_depth":false}}
{"frame":23762,"timestamp":{"delta_seconds":0.05000000074505806,"elapsed_seconds":233.19620848819613},"control":{"throttle":0.75,"steer":0.0,"brake":0.0,"hand_brake":false,"reverse":false,"manual_gear_shift":false,"gear":0},"transform":{"location":{"x":-87.68722534179688,"y":12.965476989746094,"z":-0.02046249434351921},"rotation":{"pitch":0.1298418939113617,"yaw":-179.82127380371094,"roll":-0.1773376166820526}},"velocity":{"x":-1.3169410228729248,"y":0.0038132392801344395,"z":0.17031094431877136},"angular_velocity":{"x":-1.7949984073638916,"y":1.3242930173873901,"z":-0.05425053462386131},"acceleration":{"x":-15.166049003601074,"y":-0.02760976552963257,"z":-0.28549253940582275},"speed_mps":1.327913406918593,"speed_kph":4.780488264906935,"speed_limit_kph":30.0,"collisions_this_frame":[],"waypoint":{"x":-87.6871566772461,"y":12.940338134765625,"z":0.0},"lane_deviation_m":0.03241420164704323,"lane_width":3.5,"goal":{"x":10.912545204162598,"y":-57.40138626098633,"z":0.5999999642372131},"fault":{"name":"fault_free","severity":1.0},"capture_flags":{"save_rgb":true,"save_depth":false,"video_rgb":true,"video_depth":false}}
{"frame":23763,"timestamp":{"delta_seconds":0.05000000074505806,"elapsed_seconds":233.2462084889412},"control":{"throttle":0.75,"steer":0.03988756984472275,"brake":0.0,"hand_brake":false,"reverse":false,"manual_gear_shift":false,"gear":0},"transform":{"location":{"x":-87.76908111572266,"y":12.964301109313965,"z":-0.01334129273891449},"rotation":{"pitch":0.182734876871109,"yaw":-179.76226806640625,"roll":-0.23928837478160858}},"velocity":{"x":-1.8497475385665894,"y":-0.0330277755856514,"z":0.12617383897304535},"angular_velocity":{"x":-0.07960721850395203,"y":0.5826263427734375,"z":1.2348297834396362},"acceleration":{"x":-10.656129837036133,"y":-0.7368203401565552,"z":-0.8827421069145203},"speed_mps":1.8543399440325088,"speed_kph":6.675623798517032,"speed_limit_kph":30.0,"collisions_this_frame":[],"waypoint":{"x":-87.7690200805664,"y":12.94011116027832,"z":0.0},"lane_deviation_m":0.027625124901533127,"lane_width":3.5,"goal":{"x":10.912545204162598,"y":-57.40138626098633,"z":0.5999999642372131},"fault":{"name":"fault_free","severity":1.0},"capture_flags":{"save_rgb":true,"save_depth":false,"video_rgb":true,"video_depth":false}}
{"frame":23764,"timestamp":{"delta_seconds":0.05000000074505806,"elapsed_seconds":233.29620848968625},"control":{"throttle":0.75,"steer":0.03988756984472275,"brake":0.0,"hand_brake":false,"reverse":false,"manual_gear_shift":false,"gear":0},"transform":{"location":{"x":-87.87358856201172,"y":12.962343215942383,"z":-0.008274231106042862},"rotation":{"pitch":0.19687336683273315,"yaw":-179.6871795654297,"roll":-0.23712153732776642}},"velocity":{"x":-2.2461109161376953,"y":-0.05713134631514549,"z":0.0967206358909607},"angular_velocity":{"x":-0.8230979442596436,"y":0.4844936728477478,"z":2.075434923171997},"acceleration":{"x":-7.927267551422119,"y":-0.4820713996887207,"z":-0.5890640616416931},"speed_mps":2.248918210992087,"speed_kph":8.096105559571514,"speed_limit_kph":30.0,"collisions_this_frame":[],"waypoint":{"x":-87.87352752685547,"y":12.939821243286133,"z":0.0},"lane_deviation_m":0.023993872106075287,"lane_width":3.5,"goal":{"x":10.912545204162598,"y":-57.40138626098633,"z":0.5999999642372131},"fault":{"name":"fault_free","severity":1.0},"capture_flags":{"save_rgb":true,"save_depth":false,"video_rgb":true,"video_depth":false}}
{"frame":23765,"timestamp":{"delta_seconds":0.05000000074505806,"elapsed_seconds":233.3462084904313},"control":{"throttle":0.75,"steer":0.01892758719623089,"brake":0.0,"hand_brake":false,"reverse":false,"manual_gear_shift":false,"gear":0},"transform":{"location":{"x":-87.99674987792969,"y":12.959966659545898,"z":-0.0042042541317641735},"rotation":{"pitch":0.22037604451179504,"yaw":-179.6298065185547,"roll":-0.2757872939109802}},"velocity":{"x":-2.5936594009399414,"y":-0.048377711325883865,"z":0.0709916278719902},"angular_velocity":{"x":-0.181611567735672,"y":0.21870844066143036,"z":0.6339263916015625},"acceleration":{"x":-6.950969696044922,"y":0.17507269978523254,"z":-0.5145801305770874},"speed_mps":2.59508175252056,"speed_kph":9.342294309074017,"speed_limit_kph":30.0,"collisions_this_frame":[],"waypoint":{"x":-87.99669647216797,"y":12.939477920532227,"z":0.0},"lane_deviation_m":0.020915711298584938,"lane_width":3.5,"goal":{"x":10.912545204162598,"y":-57.40138626098633,"z":0.5999999642372131},"fault":{"name":"fault_free","severity":1.0},"capture_flags":{"save_rgb":true,"save_depth":false,"video_rgb":true,"video_depth":false}}
{"frame":23766,"timestamp":{"delta_seconds":0.05000000074505806,"elapsed_seconds":233.39620849117637},"control":{"throttle":0.75,"steer":0.01892758719623089,"brake":0.0,"hand_brake":false,"reverse":false,"manual_gear_shift":false,"gear":0},"transform":{"location":{"x":-88.13470458984375,"y":12.958415985107422,"z":-0.002257499611005187},"rotation":{"pitch":0.17205928266048431,"yaw":-179.5687713623047,"roll":-0.145050048828125}},"velocity":{"x":-2.890028953552246,"y":-0.07980610430240631,"z":-0.009402504190802574},"angular_velocity":{"x":5.86003303527832,"y":-2.378943920135498,"z":1.238728642463684},"acceleration":{"x":-5.927391052246094,"y":-0.6285678744316101,"z":-1.6078827381134033},"speed_mps":2.8911459274376443,"speed_kph":10.40812533877552,"speed_limit_kph":30.0,"collisions_this_frame":[],"waypoint":{"x":-88.13465118408203,"y":12.939094543457031,"z":0.0},"lane_deviation_m":0.019452949985861778,"lane_width":3.5,"goal":{"x":10.912545204162598,"y":-57.40138626098633,"z":0.5999999642372131},"fault":{"name":"fault_free","severity":1.0},"capture_flags":{"save_rgb":true,"save_depth":false,"video_rgb":true,"video_depth":false}}
{"frame":23767,"timestamp":{"delta_seconds":0.05000000074505806,"elapsed_seconds":233.44620849192142},"control":{"throttle":0.75,"steer":0.039516229182481766,"brake":0.0,"hand_brake":false,"reverse":false,"manual_gear_shift":false,"gear":0},"transform":{"location":{"x":-88.2864990234375,"y":12.955414772033691,"z":-0.0018345260759815574},"rotation":{"pitch":0.10355932265520096,"yaw":-179.50657653808594,"roll":-0.01992798037827015}},"velocity":{"x":-3.1517021656036377,"y":-0.08309153467416763,"z":0.005268135108053684},"angular_velocity":{"x":1.225501537322998,"y":-0.8617064356803894,"z":1.2830864191055298},"acceleration":{"x":-5.233464241027832,"y":-0.06570860743522644,"z":0.2934127748012543},"speed_mps":3.152801690092906,"speed_kph":11.350086084334462,"speed_limit_kph":30.0,"collisions_this_frame":[],"waypoint":{"x":-88.28645324707031,"y":12.93867301940918,"z":0.0},"lane_deviation_m":0.016842026263475418,"lane_width":3.5,"goal":{"x":10.912545204162598,"y":-57.40138626098633,"z":0.5999999642372131},"fault":{"name":"fault_free","severity":1.0},"capture_flags":{"save_rgb":true,"save_depth":false,"video_rgb":true,"video_depth":false}}
{"frame":23768,"timestamp":{"delta_seconds":0.05000000074505806,"elapsed_seconds":233.49620849266648},"control":{"throttle":0.75,"steer":0.039516229182481766,"brake":0.0,"hand_brake":false,"reverse":false,"manual_gear_shift":false,"gear":0},"transform":{"location":{"x":-88.45220184326172,"y":12.950897216796875,"z":-0.00125316611956805},"rotation":{"pitch":0.07943509519100189,"yaw":-179.3868865966797,"roll":0.0007341622840613127}},"velocity":{"x":-3.4279656410217285,"y":-0.11814749240875244,"z":0.010308007709681988},"angular_velocity":{"x":0.13914817571640015,"y":-0.29561012983322144,"z":2.782891273498535},"acceleration":{"x":-5.525269508361816,"y":-0.7011191844940186,"z":0.10079745203256607},"speed_mps":3.430016548212403,"speed_kph":12.348059573564651,"speed_limit_kph":30.0,"collisions_this_frame":[],"waypoint":{"x":-88.4521713256836,"y":12.938213348388672,"z":0.0},"lane_deviation_m":0.012745660729706287,"lane_width":3.5,"goal":{"x":10.912545204162598,"y":-57.40138626098633,"z":0.5999999642372131},"fault":{"name":"fault_free","severity":1.0},"capture_flags":{"save_rgb":true,"save_depth":false,"video_rgb":true,"video_depth":false}}
{"frame":23769,"timestamp":{"delta_seconds":0.05000000074505806,"elapsed_seconds":233.54620849341154},"control":{"throttle":0.75,"steer":0.017912307754158974,"brake":0.0,"hand_brake":false,"reverse":false,"manual_gear_shift":false,"gear":0},"transform":{"location":{"x":-88.63145446777344,"y":12.946534156799316,"z":-0.0006608199910260737},"rotation":{"pitch":0.07111592590808868,"yaw":-179.2939453125,"roll":0.006701537407934666}},"velocity":{"x":-3.6902050971984863,"y":-0.09388289600610733,"z":0.010867757722735405},"angular_velocity":{"x":0.066372349858284,"y":-0.10642806440591812,"z":1.6067324876785278},"acceleration":{"x":-5.244789123535156,"y":0.4852919280529022,"z":0.011195000261068344},"speed_mps":3.6914151440484315,"speed_kph":13.289094518574354,"speed_limit_kph":30.0,"collisions_this_frame":[],"waypoint":{"x":-88.63143157958984,"y":12.937713623046875,"z":0.0},"lane_deviation_m":0.008845282718539238,"lane_width":3.5,"goal":{"x":10.912545204162598,"y":-57.40138626098633,"z":0.5999999642372131},"fault":{"name":"fault_free","severity":1.0},"capture_flags":{"save_rgb":true,"save_depth":false,"video_rgb":true,"video_depth":false}}
{"frame":23770,"timestamp":{"delta_seconds":0.05000000074505806,"elapsed_seconds":233.5962084941566},"control":{"throttle":0.75,"steer":0.017912307754158974,"brake":0.0,"hand_brake":false,"reverse":false,"manual_gear_shift":false,"gear":0},"transform":{"location":{"x":-88.8235855102539,"y":12.942216873168945,"z":-0.00013313292583916336},"rotation":{"pitch":0.06789207458496094,"yaw":-179.2169647216797,"roll":0.006921050604432821}},"velocity":{"x":-3.942101001739502,"y":-0.09774449467658997,"z":0.00958031602203846},"angular_velocity":{"x":-0.02310672588646412,"y":-0.047302886843681335,"z":1.5363517999649048},"acceleration":{"x":-5.0379180908203125,"y":-0.07723197340965271,"z":-0.025748834013938904},"speed_mps":3.9433242418814927,"speed_kph":14.195967270773373,"speed_limit_kph":30.0,"collisions_this_frame":[],"waypoint":{"x":-88.82353973388672,"y":12.937179565429688,"z":0.0},"lane_deviation_m":0.0050392746925354,"lane_width":3.5,"goal":{"x":10.912545204162598,"y":-57.40138626098633,"z":0.5999999642372131},"fault":{"name":"fault_free","severity":1.0},"capture_flags":{"save_rgb":true,"save_depth":false,"video_rgb":true,"video_depth":false}}
{"frame":23771,"timestamp":{"delta_seconds":0.05000000074505806,"elapsed_seconds":233.64620849490166},"control":{"throttle":0.75,"steer":0.028503304347395897,"brake":0.0,"hand_brake":false,"reverse":false,"manual_gear_shift":false,"gear":0},"transform":{"location":{"x":-89.02787017822266,"y":12.936869621276855,"z":0.0003022384480573237},"rotation":{"pitch":0.06603426486253738,"yaw":-179.10726928710938,"roll":0.0020668802317231894}},"velocity":{"x":-4.180891513824463,"y":-0.12990570068359375,"z":0.00774289108812809},"angular_velocity":{"x":-0.09857235103845596,"y":-0.03413575142621994,"z":2.4347379207611084},"acceleration":{"x":-4.775810241699219,"y":-0.6432241201400757,"z":-0.0367484986782074},"speed_mps":4.182916362276672,"speed_kph":15.058498904196021,"speed_limit_kph":30.0,"collisions_this_frame":[],"waypoint":{"x":-89.02787017822266,"y":12.936612129211426,"z":0.0},"lane_deviation_m":0.0003970519464928657,"lane_width":3.5,"goal":{"x":10.912545204162598,"y":-57.40138626098633,"z":0.5999999642372131},"fault":{"name":"fault_free","severity":1.0},"capture_flags":{"save_rgb":true,"save_depth":false,"video_rgb":true,"video_depth":false}}
{"frame":23772,"timestamp":{"delta_seconds":0.05000000074505806,"elapsed_seconds":233.69620849564672},"control":{"throttle":0.75,"steer":0.028503304347395897,"brake":0.0,"hand_brake":false,"reverse":false,"manual_gear_shift":false,"gear":0},"transform":{"location":{"x":-89.24391174316406,"y":12.930486679077148,"z":0.0006434631068259478},"rotation":{"pitch":0.06455211341381073,"yaw":-178.97781372070312,"roll":-0.0018310544546693563}},"velocity":{"x":-4.413680553436279,"y":-0.15003572404384613,"z":0.005945501383394003},"angular_velocity":{"x":-0.06397188454866409,"y":-0.029559548944234848,"z":2.66772198677063},"acceleration":{"x":-4.655780792236328,"y":-0.4026004672050476,"z":-0.03594779223203659},"speed_mps":4.416233926691117,"speed_kph":15.89844213608802,"speed_limit_kph":30.0,"collisions_this_frame":[],"waypoint":{"x":-89.24395751953125,"y":12.93601131439209,"z":0.0},"lane_deviation_m":0.005562169943004847,"lane_width":3.5,"goal":{"x":10.912545204162598,"y":-57.40138626098633,"z":0.5999999642372131},"fault":{"name":"fault_free","severity":1.0},"capture_flags":{"save_rgb":true,"save_depth":false,"video_rgb":true,"video_depth":false}}
{"frame":23773,"timestamp":{"delta_seconds":0.05000000074505806,"elapsed_seconds":233.74620849639177},"control":{"throttle":0.75,"steer":0.07607138901948929,"brake":0.0,"hand_brake":false,"reverse":false,"manual_gear_shift":false,"gear":0},"transform":{"location":{"x":-89.47119140625,"y":12.920668601989746,"z":0.0009026717743836343},"rotation":{"pitch":0.06298117339611053,"yaw":-178.71646118164062,"roll":-0.0162353478372097}},"velocity":{"x":-4.6324310302734375,"y":-0.26863545179367065,"z":0.00441225990653038},"angular_velocity":{"x":-0.3041722774505615,"y":-0.03790152445435524,"z":6.502366065979004},"acceleration":{"x":-4.375009536743164,"y":-2.3719944953918457,"z":-0.030664829537272453},"speed_mps":4.640215698029359,"speed_kph":16.704776512905692,"speed_limit_kph":30.0,"collisions_this_frame":[],"waypoint":{"x":-89.4713363647461,"y":12.935379028320312,"z":0.0},"lane_deviation_m":0.014738808386027813,"lane_width":3.5,"goal":{"x":10.912545204162598,"y":-57.40138626098633,"z":0.5999999642372131},"fault":{"name":"fault_free","severity":1.0},"capture_flags":{"save_rgb":true,"save_depth":false,"video_rgb":true,"video_depth":false}}
{"frame":23774,"timestamp":{"delta_seconds":0.05000000074505806,"elapsed_seconds":233.79620849713683},"control":{"throttle":0.75,"steer":0.07607138901948929,"brake":0.0,"hand_brake":false,"reverse":false,"manual_gear_shift":false,"gear":0},"transform":{"location":{"x":-89.70948028564453,"y":12.907170295715332,"z":0.0010935973841696978},"rotation":{"pitch":0.06158098205924034,"yaw":-178.3545684814453,"roll":-0.02642822079360485}},"velocity":{"x":-4.853227615356445,"y":-0.3355346918106079,"z":0.00319469440728426},"angular_velocity":{"x":-0.14008645713329315,"y":-0.029869042336940765,"z":7.564600467681885},"acceleration":{"x":-4.415931701660156,"y":-1.3379848003387451,"z":-0.02435130998492241},"speed_mps":4.864813667751233,"speed_kph":17.513329203904437,"speed_limit_kph":30.0,"collisions_this_frame":[],"waypoint":{"x":-89.70976257324219,"y":12.93471622467041,"z":0.0},"lane_deviation_m":0.02756907418370247,"lane_width":3.5,"goal":{"x":10.912545204162598,"y":-57.40138626098633,"z":0.5999999642372131},"fault":{"name":"fault_free","severity":1.0},"capture_flags":{"save_rgb":true,"save_depth":false,"video_rgb":true,"video_depth":false}}
{"frame":23775,"timestamp":{"delta_seconds":0.05000000074505806,"elapsed_seconds":233.8462084978819},"control":{"throttle":0.5915690660476685,"steer":0.050290949642658234,"brake":0.0,"hand_brake":false,"reverse":false,"manual_gear_shift":false,"gear":0},"transform":{"location":{"x":-89.95867156982422,"y":12.892679214477539,"z":0.0013068771222606301},"rotation":{"pitch":0.060119323432445526,"yaw":-178.04205322265625,"roll":-0.02294921875}},"velocity":{"x":-5.064815998077393,"y":-0.32866111397743225,"z":0.009657707065343857},"angular_velocity":{"x":0.11756808310747147,"y":-0.03580500930547714,"z":5.771387100219727},"acceleration":{"x":-4.231767654418945,"y":0.13747155666351318,"z":0.12926025688648224},"speed_mps":5.0754775630995885,"speed_kph":18.27171922715852,"speed_limit_kph":30.0,"collisions_this_frame":[],"waypoint":{"x":-89.9591064453125,"y":12.9340238571167,"z":0.0},"lane_deviation_m":0.041367579251527786,"lane_width":3.5,"goal":{"x":10.912545204162598,"y":-57.40138626098633,"z":0.5999999642372131},"fault":{"name":"fault_free","severity":1.0},"capture_flags":{"save_rgb":true,"save_depth":false,"video_rgb":true,"video_depth":false}}
{"frame":23776,"timestamp":{"delta_seconds":0.05000000074505806,"elapsed_seconds":233.89620849862695},"control":{"throttle":0.5915690660476685,"steer":0.050290949642658234,"brake":0.0,"hand_brake":false,"reverse":false,"manual_gear_shift":false,"gear":0},"transform":{"location":{"x":-90.21739959716797,"y":12.877241134643555,"z":0.001620063791051507},"rotation":{"pitch":0.0574692077934742,"yaw":-177.7605743408203,"roll":-0.019989013671875}},"velocity":{"x":-5.241437911987305,"y":-0.3535498082637787,"z":0.004044151399284601},"angular_velocity":{"x":0.024698665365576744,"y":-0.06431802362203598,"z":5.730886459350586},"acceleration":{"x":-3.532438278198242,"y":-0.4977738857269287,"z":-0.11227111518383026},"speed_mps":5.253349903376105,"speed_kph":18.912059652153978,"speed_limit_kph":30.0,"collisions_this_frame":[],"waypoint":{"x":-90.21800231933594,"y":12.933304786682129,"z":0.0},"lane_deviation_m":0.05609029531478882,"lane_width":3.5,"goal":{"x":10.912545204162598,"y":-57.40138626098633,"z":0.5999999642372131},"fault":{"name":"fault_free","severity":1.0},"capture_flags":{"save_rgb":true,"save_depth":false,"video_rgb":true,"video_depth":false}}
{"frame":23777,"timestamp":{"delta_seconds":0.05000000074505806,"elapsed_seconds":233.946208499372},"control":{"throttle":0.10673923045396805,"steer":0.08274025470018387,"brake":0.0,"hand_brake":false,"reverse":false,"manual_gear_shift":false,"gear":0},"transform":{"location":{"x":-90.4789047241211,"y":12.859210014343262,"z":0.001793823204934597},"rotation":{"pitch":0.047777172178030014,"yaw":-177.40306091308594,"roll":-0.02615356631577015}},"velocity":{"x":-5.198742389678955,"y":-0.4190385043621063,"z":0.0014733599964529276},"angular_velocity":{"x":-0.049853987991809845,"y":-0.2671556770801544,"z":7.54586124420166},"acceleration":{"x":0.8539104461669922,"y":-1.3097739219665527,"z":-0.0514158271253109},"speed_mps":5.215603308647291,"speed_kph":18.77617191113025,"speed_limit_kph":30.0,"collisions_this_frame":[],"waypoint":{"x":-90.47969818115234,"y":12.932577133178711,"z":0.0},"lane_deviation_m":0.0733933374285698,"lane_width":3.5,"goal":{"x":10.912545204162598,"y":-57.40138626098633,"z":0.5999999642372131},"fault":{"name":"fault_free","severity":1.0},"capture_flags":{"save_rgb":true,"save_depth":false,"video_rgb":true,"video_depth":false}}
{"frame":23778,"timestamp":{"delta_seconds":0.05000000074505806,"elapsed_seconds":233.99620850011706},"control":{"throttle":0.10673923045396805,"steer":0.08274025470018387,"brake":0.0,"hand_brake":false,"reverse":false,"manual_gear_shift":false,"gear":0},"transform":{"location":{"x":-90.7379379272461,"y":12.83884048461914,"z":0.0019054030999541283},"rotation":{"pitch":0.034936416894197464,"yaw":-176.98550415039062,"roll":-0.0305175743997097}},"velocity":{"x":-5.167435169219971,"y":-0.47874578833580017,"z":0.00035316465073265135},"angular_velocity":{"x":-0.09516268968582153,"y":-0.2425195425748825,"z":8.806111335754395},"acceleration":{"x":0.6261444091796875,"y":-1.194145679473877,"z":-0.022403907030820847},"speed_mps":5.189564903020866,"speed_kph":18.68243365087512,"speed_limit_kph":30.0,"collisions_this_frame":[],"waypoint":{"x":-90.72493743896484,"y":12.914289474487305,"z":0.0},"lane_deviation_m":0.07658454775810242,"lane_width":3.5,"goal":{"x":10.912545204162598,"y":-57.40138626098633,"z":0.5999999642372131},"fault":{"name":"fault_free","severity":1.0},"capture_flags":{"save_rgb":true,"save_depth":false,"video_rgb":true,"video_depth":false}}
{"frame":23779,"timestamp":{"delta_seconds":0.05000000074505806,"elapsed_seconds":234.04620850086212},"control":{"throttle":0.10673923045396805,"steer":0.09406566619873047,"brake":0.0,"hand_brake":false,"reverse":false,"manual_gear_shift":false,"gear":0},"transform":{"location":{"x":-90.99356842041016,"y":12.81496524810791,"z":0.0052963257767260075},"rotation":{"pitch":-0.11123645305633545,"yaw":-176.52825927734375,"roll":-0.2665404677391052}},"velocity":{"x":-5.08956241607666,"y":-0.5078834891319275,"z":0.03203260526061058},"angular_velocity":{"x":-1.191201090812683,"y":-1.613534927368164,"z":9.460268020629883},"acceleration":{"x":1.557455062866211,"y":-0.5827540159225464,"z":0.6335887908935547},"speed_mps":5.114940597257479,"speed_kph":18.413786150126924,"speed_limit_kph":30.0,"collisions_this_frame":[],"waypoint":{"x":-90.95307159423828,"y":12.9004487991333,"z":0.0},"lane_deviation_m":0.09473901987075806,"lane_width":3.5,"goal":{"x":10.912545204162598,"y":-57.40138626098633,"z":0.5999999642372131},"fault":{"name":"fault_free","severity":1.0},"capture_flags":{"save_rgb":true,"save_depth":false,"video_rgb":true,"video_depth":false}}
{"frame":23780,"timestamp":{"delta_seconds":0.05000000074505806,"elapsed_seconds":234.09620850160718},"control":{"throttle":0.10673923045396805,"steer":0.09406566619873047,"brake":0.0,"hand_brake":false,"reverse":false,"manual_gear_shift":false,"gear":0},"transform":{"location":{"x":-91.24816131591797,"y":12.791205406188965,"z":0.005114974919706583},"rotation":{"pitch":-0.087037093937397,"yaw":-176.0281524658203,"roll":-0.1608886420726776}},"velocity":{"x":-5.076099395751953,"y":-0.5854478478431702,"z":-0.035315342247486115},"angular_velocity":{"x":4.617491245269775,"y":2.6753013134002686,"z":9.757129669189453},"acceleration":{"x":0.2692604064941406,"y":-1.5512871742248535,"z":-1.346958875656128},"speed_mps":5.109870979926558,"speed_kph":18.395535527735607,"speed_limit_kph":30.0,"collisions_this_frame":[],"waypoint":{"x":-91.18002319335938,"y":12.883021354675293,"z":0.0},"lane_deviation_m":0.11445144563913345,"lane_width":3.5,"goal":{"x":10.912545204162598,"y":-57.40138626098633,"z":0.5999999642372131},"fault":{"name":"fault_free","severity":1.0},"capture_flags":{"save_rgb":true,"save_depth":false,"video_rgb":true,"video_depth":false}}
{"frame":23781,"timestamp":{"delta_seconds":0.05000000074505806,"elapsed_seconds":234.14620850235224},"control":{"throttle":0.10673923045396805,"steer":0.0882612019777298,"brake":0.0,"hand_brake":false,"reverse":false,"manual_gear_shift":false,"gear":0},"transform":{"location":{"x":-91.4988784790039,"y":12.764615058898926,"z":0.0035918045323342085},"rotation":{"pitch":-0.03314007446169853,"yaw":-175.54681396484375,"roll":-0.0766906663775444}},"velocity":{"x":-4.956761837005615,"y":-0.6061791181564331,"z":-0.018186239525675774},"angular_velocity":{"x":0.7166123390197754,"y":0.6044278740882874,"z":9.221315383911133},"acceleration":{"x":2.386751174926758,"y":-0.4146254062652588,"z":0.3425820469856262},"speed_mps":4.99372323736431,"speed_kph":17.977403654511516,"speed_limit_kph":30.0,"collisions_this_frame":[],"waypoint":{"x":-91.5054702758789,"y":12.851635932922363,"z":0.0},"lane_deviation_m":0.08734406530857086,"lane_width":3.5,"goal":{"x":10.912545204162598,"y":-57.40138626098633,"z":0.5999999642372131},"fault":{"name":"fault_free","severity":1.0},"capture_flags":{"save_rgb":true,"save_depth":false,"video_rgb":true,"video_depth":false}}
{"frame":23782,"timestamp":{"delta_seconds":0.05000000074505806,"elapsed_seconds":234.1962085030973},"control":{"throttle":0.10673923045396805,"steer":0.0882612019777298,"brake":0.0,"hand_brake":false,"reverse":false,"manual_gear_shift":false,"gear":0},"transform":{"location":{"x":-91.74874114990234,"y":12.73513412475586,"z":0.0028013610281050205},"rotation":{"pitch":-0.016815925016999245,"yaw":-175.0634002685547,"roll":-0.062713623046875}},"velocity":{"x":-4.989981651306152,"y":-0.666616678237915,"z":-0.014131355099380016},"angular_velocity":{"x":0.12872523069381714,"y":0.2037900686264038,"z":9.451431274414062},"acceleration":{"x":-0.6643962860107422,"y":-1.2087512016296387,"z":0.08109769225120544},"speed_mps":5.034331571447591,"speed_kph":18.12359365721133,"speed_limit_kph":30.0,"collisions_this_frame":[],"waypoint":{"x":-91.72796630859375,"y":12.825819969177246,"z":0.0},"lane_deviation_m":0.09307719022035599,"lane_width":3.5,"goal":{"x":10.912545204162598,"y":-57.40138626098633,"z":0.5999999642372131},"fault":{"name":"fault_free","severity":1.0},"capture_flags":{"save_rgb":true,"save_depth":false,"video_rgb":true,"video_depth":false}}
{"frame":23783,"timestamp":{"delta_seconds":0.05000000074505806,"elapsed_seconds":234.24620850384235},"control":{"throttle":0.09575238078832626,"steer":0.08175626397132874,"brake":0.0,"hand_brake":false,"reverse":false,"manual_gear_shift":false,"gear":0},"transform":{"location":{"x":-91.99791717529297,"y":12.703709602355957,"z":0.0024283980019390583},"rotation":{"pitch":-0.010682415217161179,"yaw":-174.62774658203125,"roll":-0.0532836876809597}},"velocity":{"x":-4.96526575088501,"y":-0.6901134848594666,"z":-0.01002588216215372},"angular_velocity":{"x":0.11491718143224716,"y":0.08209230750799179,"z":8.801946640014648},"acceleration":{"x":0.49431800842285156,"y":-0.4699361324310303,"z":0.08210945874452591},"speed_mps":5.013005198202939,"speed_kph":18.04681871353058,"speed_limit_kph":30.0,"collisions_this_frame":[],"waypoint":{"x":-91.94964599609375,"y":12.796552658081055,"z":0.0},"lane_deviation_m":0.10467012971639633,"lane_width":3.5,"goal":{"x":10.912545204162598,"y":-57.40138626098633,"z":0.5999999642372131},"fault":{"name":"fault_free","severity":1.0},"capture_flags":{"save_rgb":true,"save_depth":false,"video_rgb":true,"video_depth":false}}
{"frame":23784,"timestamp":{"delta_seconds":0.05000000074505806,"elapsed_seconds":234.2962085045874},"control":{"throttle":0.09575238078832626,"steer":0.08175626397132874,"brake":0.0,"hand_brake":false,"reverse":false,"manual_gear_shift":false,"gear":0},"transform":{"location":{"x":-92.24557495117188,"y":12.670637130737305,"z":0.0021121215540915728},"rotation":{"pitch":-0.008571887388825417,"yaw":-174.1984405517578,"roll":-0.0479736328125}},"velocity":{"x":-4.943341255187988,"y":-0.7276281714439392,"z":-0.005435686092823744},"angular_velocity":{"x":0.08536745607852936,"y":0.04503003507852554,"z":8.522913932800293},"acceleration":{"x":0.4384899139404297,"y":-0.7502937316894531,"z":0.09180392324924469},"speed_mps":4.996608356455978,"speed_kph":17.98779008324152,"speed_limit_kph":30.0,"collisions_this_frame":[],"waypoint":{"x":-92.16971588134766,"y":12.7639799118042,"z":0.0},"lane_deviation_m":0.12029935419559479,"lane_width":3.5,"goal":{"x":10.912545204162598,"y":-57.40138626098633,"z":0.5999999642372131},"fault":{"name":"fault_free","severity":1.0},"capture_flags":{"save_rgb":true,"save_depth":false,"video_rgb":true,"video_depth":false}}
{"frame":23785,"timestamp":{"delta_seconds":0.05000000074505806,"elapsed_seconds":234.34620850533247},"control":{"throttle":0.15754491090774536,"steer":0.08022266626358032,"brake":0.0,"hand_brake":false,"reverse":false,"manual_gear_shift":false,"gear":0},"transform":{"location":{"x":-92.49219512939453,"y":12.635808944702148,"z":0.0019330596551299095},"rotation":{"pitch":-0.007444905582815409,"yaw":-173.78048706054688,"roll":-0.0434570387005806}},"velocity":{"x":-4.91492223739624,"y":-0.7582719922065735,"z":-0.0023964594583958387},"angular_velocity":{"x":0.0830020010471344,"y":0.02322312258183956,"z":8.294684410095215},"acceleration":{"x":0.5683803558349609,"y":-0.6128764152526855,"z":0.060784533619880676},"speed_mps":4.973071762687014,"speed_kph":17.90305834567325,"speed_limit_kph":30.0,"collisions_this_frame":[],"waypoint":{"x":-92.48885345458984,"y":12.71045970916748,"z":0.0},"lane_deviation_m":0.07475052028894424,"lane_width":3.5,"goal":{"x":10.912545204162598,"y":-57.40138626098633,"z":0.5999999642372131},"fault":{"name":"fault_free","severity":1.0},"capture_flags":{"save_rgb":true,"save_depth":false,"video_rgb":true,"video_depth":false}}
{"frame":23786,"timestamp":{"delta_seconds":0.05000000074505806,"elapsed_seconds":234.39620850607753},"control":{"throttle":0.15754491090774536,"steer":0.08022266626358032,"brake":0.0,"hand_brake":false,"reverse":false,"manual_gear_shift":false,"gear":0},"transform":{"location":{"x":-92.7371597290039,"y":12.599414825439453,"z":0.0018617247696965933},"rotation":{"pitch":-0.007205849047750235,"yaw":-173.36793518066406,"roll":-0.0397643968462944}},"velocity":{"x":-4.879077911376953,"y":-0.788563072681427,"z":-0.0008684158092364669},"angular_velocity":{"x":0.06666573882102966,"y":0.008120161481201649,"z":8.224485397338867},"acceleration":{"x":0.7168865203857422,"y":-0.6058216094970703,"z":0.030560873448848724},"speed_mps":4.94239149997542,"speed_kph":17.792609399911512,"speed_limit_kph":30.0,"collisions_this_frame":[],"waypoint":{"x":-92.70530700683594,"y":12.669889450073242,"z":0.0},"lane_deviation_m":0.07736106216907501,"lane_width":3.5,"goal":{"x":10.912545204162598,"y":-57.40138626098633,"z":0.5999999642372131},"fault":{"name":"fault_free","severity":1.0},"capture_flags":{"save_rgb":true,"save_depth":false,"video_rgb":true,"video_depth":false}}
{"frame":23787,"timestamp":{"delta_seconds":0.05000000074505806,"elapsed_seconds":234.4462085068226},"control":{"throttle":0.4512936472892761,"steer":0.1289079189300537,"brake":0.0,"hand_brake":false,"reverse":false,"manual_gear_shift":false,"gear":0},"transform":{"location":{"x":-92.97977447509766,"y":12.559008598327637,"z":0.0018442535074427724},"rotation":{"pitch":-0.007479056715965271,"yaw":-172.83468627929688,"roll":-0.048828113824129105}},"velocity":{"x":-4.82794189453125,"y":-0.9178398847579956,"z":-0.0001411247212672606},"angular_velocity":{"x":-0.2148803174495697,"y":-0.026841875165700912,"z":11.898114204406738},"acceleration":{"x":1.0227203369140625,"y":-2.585536241531372,"z":0.014545822516083717},"speed_mps":4.914412783938561,"speed_kph":17.69188602217882,"speed_limit_kph":30.0,"collisions_this_frame":[],"waypoint":{"x":-92.9197769165039,"y":12.626251220703125,"z":0.0},"lane_deviation_m":0.09013699740171432,"lane_width":3.5,"goal":{"x":10.912545204162598,"y":-57.40138626098633,"z":0.5999999642372131},"fault":{"name":"fault_free","severity":1.0},"capture_flags":{"save_rgb":true,"save_depth":false,"video_rgb":true,"video_depth":false}}
{"frame":23788,"timestamp":{"delta_seconds":0.05000000074505806,"elapsed_seconds":234.49620850756764},"control":{"throttle":0.4512936472892761,"steer":0.1289079189300537,"brake":0.0,"hand_brake":false,"reverse":false,"manual_gear_shift":false,"gear":0},"transform":{"location":{"x":-93.2215347290039,"y":12.514118194580078,"z":0.0018402099376544356},"rotation":{"pitch":-0.006256452761590481,"yaw":-172.20675659179688,"roll":-0.0553283654153347}},"velocity":{"x":-4.83023738861084,"y":-1.0013989210128784,"z":0.0001621246337890625},"angular_velocity":{"x":-0.07820629328489304,"y":0.030190538614988327,"z":12.824670791625977},"acceleration":{"x":-0.045909881591796875,"y":-1.6711807250976562,"z":0.006064986810088158},"speed_mps":4.932949731714709,"speed_kph":17.758619034172952,"speed_limit_kph":30.0,"collisions_this_frame":[],"waypoint":{"x":-93.23118591308594,"y":12.556732177734375,"z":0.0},"lane_deviation_m":0.04373195022344589,"lane_width":3.5,"goal":{"x":10.912545204162598,"y":-57.40138626098633,"z":0.5999999642372131},"fault":{"name":"fault_free","severity":1.0},"capture_flags":{"save_rgb":true,"save_depth":false,"video_rgb":true,"video_depth":false}}
{"frame":23789,"timestamp":{"delta_seconds":0.05000000074505806,"elapsed_seconds":234.5462085083127},"control":{"throttle":0.4865809977054596,"steer":0.12227950990200043,"brake":0.0,"hand_brake":false,"reverse":false,"manual_gear_shift":false,"gear":0},"transform":{"location":{"x":-93.4647216796875,"y":12.466032028198242,"z":0.0018339157104492188},"rotation":{"pitch":-0.0032033585011959076,"yaw":-171.57554626464844,"roll":-0.0546264611184597}},"velocity":{"x":-4.871565341949463,"y":-1.0594017505645752,"z":0.0002610015799291432},"angular_velocity":{"x":0.02561333030462265,"y":0.07691600918769836,"z":12.579828262329102},"acceleration":{"x":-0.8265590667724609,"y":-1.1600565910339355,"z":0.001977538922801614},"speed_mps":4.9854268641816715,"speed_kph":17.947536711054017,"speed_limit_kph":30.0,"collisions_this_frame":[],"waypoint":{"x":-93.4451904296875,"y":12.504676818847656,"z":0.0},"lane_deviation_m":0.04333881288766861,"lane_width":3.5,"goal":{"x":10.912545204162598,"y":-57.40138626098633,"z":0.5999999642372131},"fault":{"name":"fault_free","severity":1.0},"capture_flags":{"save_rgb":true,"save_depth":false,"video_rgb":true,"video_depth":false}}
{"frame":23790,"timestamp":{"delta_seconds":0.05000000074505806,"elapsed_seconds":234.59620850905776},"control":{"throttle":0.4865809977054596,"steer":0.12227950990200043,"brake":0.0,"hand_brake":false,"reverse":false,"manual_gear_shift":false,"gear":0},"transform":{"location":{"x":-93.71060943603516,"y":12.414731979370117,"z":0.0019989395514130592},"rotation":{"pitch":0.001195283024571836,"yaw":-170.9440155029297,"roll":-0.052673328667879105}},"velocity":{"x":-4.9303131103515625,"y":-1.12676203250885,"z":0.0050368402153253555},"angular_velocity":{"x":0.020044997334480286,"y":0.09615851193666458,"z":12.685200691223145},"acceleration":{"x":-1.1749553680419922,"y":-1.347205638885498,"z":0.09551677107810974},"speed_mps":5.057430712700603,"speed_kph":18.20675056572217,"speed_limit_kph":30.0,"collisions_this_frame":[],"waypoint":{"x":-93.66131591796875,"y":12.448518753051758,"z":0.0},"lane_deviation_m":0.0597945898771286,"lane_width":3.5,"goal":{"x":10.912545204162598,"y":-57.40138626098633,"z":0.5999999642372131},"fault":{"name":"fault_free","severity":1.0},"capture_flags":{"save_rgb":true,"save_depth":false,"video_rgb":true,"video_depth":false}}
{"frame":23791,"timestamp":{"delta_seconds":0.05000000074505806,"elapsed_seconds":234.64620850980282},"control":{"throttle":0.0804922953248024,"steer":0.13025501370429993,"brake":0.0,"hand_brake":false,"reverse":false,"manual_gear_shift":false,"gear":0},"transform":{"location":{"x":-93.95877838134766,"y":12.359593391418457,"z":0.0021197127643972635},"rotation":{"pitch":0.004193735774606466,"yaw":-170.30068969726562,"roll":-0.053436264395713806}},"velocity":{"x":-4.943591594696045,"y":-1.202944040298462,"z":0.0016238593962043524},"angular_velocity":{"x":-0.005880545824766159,"y":0.007406836375594139,"z":10.272727012634277},"acceleration":{"x":-0.26556968688964844,"y":-1.5236401557922363,"z":-0.06825961917638779},"speed_mps":5.087845797207136,"speed_kph":18.316244869945688,"speed_limit_kph":30.0,"collisions_this_frame":[],"waypoint":{"x":-93.87926483154297,"y":12.388193130493164,"z":0.0},"lane_deviation_m":0.08452717214822769,"lane_width":3.5,"goal":{"x":10.912545204162598,"y":-57.40138626098633,"z":0.5999999642372131},"fault":{"name":"fault_free","severity":1.0},"capture_flags":{"save_rgb":true,"save_depth":false,"video_rgb":true,"video_depth":false}}
{"frame":23792,"timestamp":{"delta_seconds":0.05000000074505806,"elapsed_seconds":234.69620851054788},"control":{"throttle":0.0804922953248024,"steer":0.13025501370429993,"brake":0.0,"hand_brake":false,"reverse":false,"manual_gear_shift":false,"gear":0},"transform":{"location":{"x":-94.2033462524414,"y":12.302922248840332,"z":0.0021104048937559128},"rotation":{"pitch":0.0008059622487053275,"yaw":-169.6336212158203,"roll":-0.049774158746004105}},"velocity":{"x":-4.8663787841796875,"y":-1.231259822845459,"z":-0.006041412241756916},"angular_velocity":{"x":0.02123330906033516,"y":-0.025654161348938942,"z":13.448762893676758},"acceleration":{"x":1.5442562103271484,"y":-0.5663156509399414,"z":-0.15330544114112854},"speed_mps":5.0197290485771715,"speed_kph":18.071024574877818,"speed_limit_kph":30.0,"collisions_this_frame":[],"waypoint":{"x":-94.18649291992188,"y":12.296765327453613,"z":0.0},"lane_deviation_m":0.018066441640257835,"lane_width":3.5,"goal":{"x":10.912545204162598,"y":-57.40138626098633,"z":0.5999999642372131},"fault":{"name":"fault_free","severity":1.0},"capture_flags":{"save_rgb":true,"save_depth":false,"video_rgb":true,"video_depth":false}}
{"frame":23793,"timestamp":{"delta_seconds":0.05000000074505806,"elapsed_seconds":234.74620851129293},"control":{"throttle":0.09753377735614777,"steer":0.15242022275924683,"brake":0.0,"hand_brake":false,"reverse":false,"manual_gear_shift":false,"gear":0},"transform":{"location":{"x":-94.44587707519531,"y":12.242101669311523,"z":0.002038612263277173},"rotation":{"pitch":-0.001072339597158134,"yaw":-168.89683532714844,"roll":-0.0560302659869194}},"velocity":{"x":-4.818304538726807,"y":-1.3368314504623413,"z":-0.005023364908993244},"angular_velocity":{"x":-0.09449557960033417,"y":-0.04628830775618553,"z":15.222624778747559},"acceleration":{"x":0.9614849090576172,"y":-2.1114325523376465,"z":0.020360946655273438},"speed_mps":5.000320208652202,"speed_kph":18.001152751147927,"speed_limit_kph":30.0,"collisions_this_frame":[],"waypoint":{"x":-94.39797973632812,"y":12.229409217834473,"z":0.0},"lane_deviation_m":0.049592431634664536,"lane_width":3.5,"goal":{"x":10.912545204162598,"y":-57.40138626098633,"z":0.5999999642372131},"fault":{"name":"fault_free","severity":1.0},"capture_flags":{"save_rgb":true,"save_depth":false,"video_rgb":true,"video_depth":false}}
{"frame":23794,"timestamp":{"delta_seconds":0.05000000074505806,"elapsed_seconds":234.796208512038},"control":{"throttle":0.09753377735614777,"steer":0.15242022275924683,"brake":0.0,"hand_brake":false,"reverse":false,"manual_gear_shift":false,"gear":0},"transform":{"location":{"x":-94.6866455078125,"y":12.1771240234375,"z":0.0018865966703742743},"rotation":{"pitch":-0.0021105282939970493,"yaw":-168.1284637451172,"roll":-0.0598144568502903}},"velocity":{"x":-4.780540466308594,"y":-1.4167948961257935,"z":-0.002173252170905471},"angular_velocity":{"x":-0.04078805446624756,"y":-0.03130417689681053,"z":15.403525352478027},"acceleration":{"x":0.7552814483642578,"y":-1.599268913269043,"z":0.05700225383043289},"speed_mps":4.986068556561079,"speed_kph":17.949846803619888,"speed_limit_kph":30.0,"collisions_this_frame":[],"waypoint":{"x":-94.60810089111328,"y":12.158862113952637,"z":0.0},"lane_deviation_m":0.08066172152757645,"lane_width":3.5,"goal":{"x":10.912545204162598,"y":-57.40138626098633,"z":0.5999999642372131},"fault":{"name":"fault_free","severity":1.0},"capture_flags":{"save_rgb":true,"save_depth":false,"video_rgb":true,"video_depth":false}}
{"frame":23795,"timestamp":{"delta_seconds":0.05000000074505806,"elapsed_seconds":234.84620851278305},"control":{"throttle":0.256392240524292,"steer":0.15585319697856903,"brake":0.0,"hand_brake":false,"reverse":false,"manual_gear_shift":false,"gear":0},"transform":{"location":{"x":-94.92512512207031,"y":12.108613014221191,"z":0.0018321227980777621},"rotation":{"pitch":-0.0033263019286096096,"yaw":-167.34954833984375,"roll":-0.061248779296875}},"velocity":{"x":-4.732234001159668,"y":-1.486205816268921,"z":-0.0007489585550501943},"angular_velocity":{"x":-0.004854952916502953,"y":-0.02441667765378952,"z":15.634343147277832},"acceleration":{"x":0.9661293029785156,"y":-1.3882184028625488,"z":0.028485871851444244},"speed_mps":4.9601256970949965,"speed_kph":17.856452509541988,"speed_limit_kph":30.0,"collisions_this_frame":[],"waypoint":{"x":-94.81621551513672,"y":12.085363388061523,"z":0.0},"lane_deviation_m":0.11137865483760834,"lane_width":3.5,"goal":{"x":10.912545204162598,"y":-57.40138626098633,"z":0.5999999642372131},"fault":{"name":"fault_free","severity":1.0},"capture_flags":{"save_rgb":true,"save_depth":false,"video_rgb":true,"video_depth":false}}
{"frame":23796,"timestamp":{"delta_seconds":0.05000000074505806,"elapsed_seconds":234.8962085135281},"control":{"throttle":0.256392240524292,"steer":0.15585319697856903,"brake":0.0,"hand_brake":false,"reverse":false,"manual_gear_shift":false,"gear":0},"transform":{"location":{"x":-95.16166687011719,"y":12.036860466003418,"z":0.0018212508875876665},"rotation":{"pitch":-0.004084452986717224,"yaw":-166.5668182373047,"roll":-0.0608215294778347}},"velocity":{"x":-4.696818828582764,"y":-1.5500282049179077,"z":-8.15105449873954e-05},"angular_velocity":{"x":0.018674714490771294,"y":-0.0051468475721776485,"z":15.658757209777832},"acceleration":{"x":0.7083034515380859,"y":-1.2764477729797363,"z":0.013348961248993874},"speed_mps":4.945977613294925,"speed_kph":17.80551940786173,"speed_limit_kph":30.0,"collisions_this_frame":[],"waypoint":{"x":-95.10987854003906,"y":11.975404739379883,"z":0.0},"lane_deviation_m":0.08038752526044846,"lane_width":3.5,"goal":{"x":10.912545204162598,"y":-57.40138626098633,"z":0.5999999642372131},"fault":{"name":"fault_free","severity":1.0},"capture_flags":{"save_rgb":true,"save_depth":false,"video_rgb":true,"video_depth":false}}
{"frame":23797,"timestamp":{"delta_seconds":0.05000000074505806,"elapsed_seconds":234.94620851427317},"control":{"throttle":0.454581081867218,"steer":0.16407325863838196,"brake":0.0,"hand_brake":false,"reverse":false,"manual_gear_shift":false,"gear":0},"transform":{"location":{"x":-95.396728515625,"y":11.96142578125,"z":0.0018260192591696978},"rotation":{"pitch":-0.004002490546554327,"yaw":-165.7600555419922,"roll":-0.0619506798684597}},"velocity":{"x":-4.672700881958008,"y":-1.6330937147140503,"z":0.00019324301683809608},"angular_velocity":{"x":-0.02461816743016243,"y":0.007294635754078627,"z":16.329429626464844},"acceleration":{"x":0.4823589324951172,"y":-1.6613101959228516,"z":0.005495070945471525},"speed_mps":4.949861477923655,"speed_kph":17.81950132052516,"speed_limit_kph":30.0,"collisions_this_frame":[],"waypoint":{"x":-95.31365966796875,"y":11.894715309143066,"z":0.0},"lane_deviation_m":0.10655540972948074,"lane_width":3.5,"goal":{"x":10.912545204162598,"y":-57.40138626098633,"z":0.5999999642372131},"fault":{"name":"fault_free","severity":1.0},"capture_flags":{"save_rgb":true,"save_depth":false,"video_rgb":true,"video_depth":false}}
{"frame":23798,"timestamp":{"delta_seconds":0.05000000074505806,"elapsed_seconds":234.99620851501822},"control":{"throttle":0.454581081867218,"steer":0.16407325863838196,"brake":0.0,"hand_brake":false,"reverse":false,"manual_gear_shift":false,"gear":0},"transform":{"location":{"x":-95.6318130493164,"y":11.881959915161133,"z":0.0018289947183802724},"rotation":{"pitch":-0.0023495848290622234,"yaw":-164.9356231689453,"roll":-0.062499988824129105}},"velocity":{"x":-4.683795928955078,"y":-1.7165899276733398,"z":0.0002758025948423892},"angular_velocity":{"x":-0.016543641686439514,"y":0.04237809404730797,"z":16.578144073486328},"acceleration":{"x":-0.22190093994140625,"y":-1.669924259185791,"z":0.0016511916182935238},"speed_mps":4.988449193883085,"speed_kph":17.958417097979105,"speed_limit_kph":30.0,"collisions_this_frame":[],"waypoint":{"x":-95.5174331665039,"y":11.810359954833984,"z":0.0},"lane_deviation_m":0.1349542737007141,"lane_width":3.5,"goal":{"x":10.912545204162598,"y":-57.40138626098633,"z":0.5999999642372131},"fault":{"name":"fault_free","severity":1.0},"capture_flags":{"save_rgb":true,"save_depth":false,"video_rgb":true,"video_depth":false}}
{"frame":23799,"timestamp":{"delta_seconds":0.05000000074505806,"elapsed_seconds":235.04620851576328},"control":{"throttle":0.19164502620697021,"steer":0.1649281084537506,"brake":0.0,"hand_brake":false,"reverse":false,"manual_gear_shift":false,"gear":0},"transform":{"location":{"x":-95.8677749633789,"y":11.798283576965332,"z":0.001899452181532979},"rotation":{"pitch":0.00010928302071988583,"yaw":-164.09938049316406,"roll":-0.06274411827325821}},"velocity":{"x":-4.694703102111816,"y":-1.8011739253997803,"z":0.007386131212115288},"angular_velocity":{"x":-0.0197166595607996,"y":0.04626378417015076,"z":16.789886474609375},"acceleration":{"x":-0.21814346313476562,"y":-1.6916799545288086,"z":0.1422065645456314},"speed_mps":5.028371434316746,"speed_kph":18.102137163540288,"speed_limit_kph":30.0,"collisions_this_frame":[],"waypoint":{"x":-95.80453491210938,"y":11.685148239135742,"z":0.0},"lane_deviation_m":0.12962453067302704,"lane_width":3.5,"goal":{"x":10.912545204162598,"y":-57.40138626098633,"z":0.5999999642372131},"fault":{"name":"fault_free","severity":1.0},"capture_flags":{"save_rgb":true,"save_depth":false,"video_rgb":true,"video_depth":false}}
{"frame":23800,"timestamp":{"delta_seconds":0.05000000074505806,"elapsed_seconds":235.09620851650834},"control":{"throttle":0.19164502620697021,"steer":0.1649281084537506,"brake":0.0,"hand_brake":false,"reverse":false,"manual_gear_shift":false,"gear":0},"transform":{"location":{"x":-96.1034927368164,"y":11.710786819458008,"z":0.0021043396554887295},"rotation":{"pitch":0.0013592075556516647,"yaw":-163.24932861328125,"roll":-0.06259153038263321}},"velocity":{"x":-4.681561470031738,"y":-1.8787713050842285,"z":0.002648105612024665},"angular_velocity":{"x":-0.028950825333595276,"y":0.010944941081106663,"z":17.98476219177246},"acceleration":{"x":0.2628326416015625,"y":-1.5519475936889648,"z":-0.09476050734519958},"speed_mps":5.044482771004076,"speed_kph":18.160137975614674,"speed_limit_kph":30.0,"collisions_this_frame":[],"waypoint":{"x":-96.00712585449219,"y":11.592208862304688,"z":0.0},"lane_deviation_m":0.15281274914741516,"lane_width":3.5,"goal":{"x":10.912545204162598,"y":-57.40138626098633,"z":0.5999999642372131},"fault":{"name":"fault_free","severity":1.0},"capture_flags":{"save_rgb":true,"save_depth":false,"video_rgb":true,"video_depth":false}}
{"frame":23801,"timestamp":{"delta_seconds":0.05000000074505806,"elapsed_seconds":235.1462085172534},"control":{"throttle":0.06595399975776672,"steer":0.15857964754104614,"brake":0.0,"hand_brake":false,"reverse":false,"manual_gear_shift":false,"gear":0},"transform":{"location":{"x":-96.3355941772461,"y":11.621374130249023,"z":0.0019831848330795765},"rotation":{"pitch":-0.001072339597158134,"yaw":-162.443603515625,"roll":-0.05874631926417351}},"velocity":{"x":-4.6086859703063965,"y":-1.9070241451263428,"z":-0.003073949832469225},"angular_velocity":{"x":0.04115651547908783,"y":-0.010392140597105026,"z":16.239450454711914},"acceleration":{"x":1.457509994506836,"y":-0.5650568008422852,"z":-0.11444110423326492},"speed_mps":4.987658459854829,"speed_kph":17.955570455477382,"speed_limit_kph":30.0,"collisions_this_frame":[],"waypoint":{"x":-96.206298828125,"y":11.497051239013672,"z":0.0},"lane_deviation_m":0.1793806105852127,"lane_width":3.5,"goal":{"x":10.912545204162598,"y":-57.40138626098633,"z":0.5999999642372131},"fault":{"name":"fault_free","severity":1.0},"capture_flags":{"save_rgb":true,"save_depth":false,"video_rgb":true,"video_depth":false}}
{"frame":23802,"timestamp":{"delta_seconds":0.05000000074505806,"elapsed_seconds":235.19620851799846},"control":{"throttle":0.06595399975776672,"steer":0.15857964754104614,"brake":0.0,"hand_brake":false,"reverse":false,"manual_gear_shift":false,"gear":0},"transform":{"location":{"x":-96.56590270996094,"y":11.528908729553223,"z":0.001894454937428236},"rotation":{"pitch":-0.0024725282564759254,"yaw":-161.64071655273438,"roll":-0.057464584708213806}},"velocity":{"x":-4.5529632568359375,"y":-1.959126353263855,"z":-0.0013421248877421021},"angular_velocity":{"x":0.03218185529112816,"y":-0.0258193202316761,"z":15.975738525390625},"acceleration":{"x":1.1144542694091797,"y":-1.0420441627502441,"z":0.034636497497558594},"speed_mps":4.956576670187827,"speed_kph":17.843676012676177,"speed_limit_kph":30.0,"collisions_this_frame":[],"waypoint":{"x":-96.40372467041016,"y":11.398929595947266,"z":0.0},"lane_deviation_m":0.2078458070755005,"lane_width":3.5,"goal":{"x":10.912545204162598,"y":-57.40138626098633,"z":0.5999999642372131},"fault":{"name":"fault_free","severity":1.0},"capture_flags":{"save_rgb":true,"save_depth":false,"video_rgb":true,"video_depth":false}}
