{"frame":24,"timestamp":{"delta_seconds":0.05000000074505806,"elapsed_seconds":2.950309312902391},"control":{"throttle":0.0,"steer":0.0,"brake":1.0,"hand_brake":false,"reverse":false,"manual_gear_shift":false,"gear":0},"transform":{"location":{"x":-87.6230239868164,"y":12.967159271240234,"z":0.48239994049072266},"rotation":{"pitch":0.0,"yaw":-179.84078979492188,"roll":0.0}},"velocity":{"x":0.0,"y":0.0,"z":-1.470000147819519},"angular_velocity":{"x":0.0,"y":0.0,"z":0.0},"acceleration":{"x":0.0,"y":0.0,"z":-9.80000114440918},"speed_mps":1.470000147819519,"speed_kph":5.2920005321502686,"speed_limit_kph":30.0,"collisions_this_frame":[],"waypoint":{"x":-87.62295532226562,"y":12.94051742553711,"z":0.0},"lane_deviation_m":0.48313507437705994,"lane_width":3.5,"goal":{"x":-6.554497718811035,"y":137.2259521484375,"z":0.5999999642372131},"fault":{"name":"fault_free","severity":1.0},"capture_flags":{"save_rgb":true,"save_depth":false,"video_rgb":true,"video_depth":false}}
{"frame":25,"timestamp":{"delta_seconds":0.05000000074505806,"elapsed_seconds":3.000309313647449},"control":{"throttle":1.0,"steer":0.2809999883174896,"brake":0.0,"hand_brake":false,"reverse":false,"manual_gear_shift":false,"gear":0},"transform":{"location":{"x":-87.6230239868164,"y":12.967159271240234,"z":0.394199937582016},"rotation":{"pitch":0.0,"yaw":-179.84078979492188,"roll":0.0}},"velocity":{"x":0.0,"y":0.0,"z":-1.9600002765655518},"angular_velocity":{"x":0.0,"y":0.0,"z":0.0},"acceleration":{"x":0.0,"y":0.0,"z":-9.800003051757812},"speed_mps":1.9600002765655518,"speed_kph":7.056000995635986,"speed_limit_kph":30.0,"collisions_this_frame":[],"waypoint":{"x":-87.62295532226562,"y":12.94051742553711,"z":0.0},"lane_deviation_m":0.3950991928577423,"lane_width":3.5,"goal":{"x":-6.554497718811035,"y":137.2259521484375,"z":0.5999999642372131},"fault":{"name":"fault_free","severity":1.0},"capture_flags":{"save_rgb":true,"save_depth":false,"video_rgb":true,"video_depth":false}}
{"frame":26,"timestamp":{"delta_seconds":0.05000000074505806,"elapsed_seconds":3.050309314392507},"control":{"throttle":1.0,"steer":0.28999999165534973,"brake":0.0,"hand_brake":false,"reverse":false,"manual_gear_shift":false,"gear":0},"transform":{"location":{"x":-87.6230239868164,"y":12.967159271240234,"z":0.281499981880188},"rotation":{"pitch":0.0,"yaw":-179.84078979492188,"roll":0.0}},"velocity":{"x":0.0,"y":0.0,"z":-2.450000286102295},"angular_velocity":{"x":0.0,"y":0.0,"z":0.0},"acceleration":{"x":0.0,"y":0.0,"z":-9.800000190734863},"speed_mps":2.450000286102295,"speed_kph":8.820001029968262,"speed_limit_kph":30.0,"collisions_this_frame":[],"waypoint":{"x":-87.62295532226562,"y":12.94051742553711,"z":0.0},"lane_deviation_m":0.2827579081058502,"lane_width":3.5,"goal":{"x":-6.554497718811035,"y":137.2259521484375,"z":0.5999999642372131},"fault":{"name":"fault_free","severity":1.0},"capture_flags":{"save_rgb":true,"save_depth":false,"video_rgb":true,"video_depth":false}}
{"frame":27,"timestamp":{"delta_seconds":0.05000000074505806,"elapsed_seconds":3.100309315137565},"control":{"throttle":1.0,"steer":0.31700000166893005,"brake":0.0,"hand_brake":false,"reverse":false,"manual_gear_shift":false,"gear":0},"transform":{"location":{"x":-87.6230239868164,"y":12.967159271240234,"z":0.14429987967014313},"rotation":{"pitch":0.0,"yaw":-179.84078979492188,"roll":0.0}},"velocity":{"x":0.0,"y":0.0,"z":-2.93999981880188},"angular_velocity":{"x":0.0,"y":0.0,"z":0.0},"acceleration":{"x":0.0,"y":0.0,"z":-9.7999906539917},"speed_mps":2.93999981880188,"speed_kph":10.583999347686769,"speed_limit_kph":30.0,"collisions_this_frame":[],"waypoint":{"x":-87.62295532226562,"y":12.94051742553711,"z":0.0},"lane_deviation_m":0.1467387080192566,"lane_width":3.5,"goal":{"x":-6.554497718811035,"y":137.2259521484375,"z":0.5999999642372131},"fault":{"name":"fault_free","severity":1.0},"capture_flags":{"save_rgb":true,"save_depth":false,"video_rgb":true,"video_depth":false}}
{"frame":28,"timestamp":{"delta_seconds":0.05000000074505806,"elapsed_seconds":3.150309315882623},"control":{"throttle":1.0,"steer":0.23499999940395355,"brake":0.0,"hand_brake":false,"reverse":false,"manual_gear_shift":false,"gear":0},"transform":{"location":{"x":-87.62291717529297,"y":12.966039657592773,"z":0.00954944547265768},"rotation":{"pitch":0.08385422825813293,"yaw":-179.781494140625,"roll":-0.2116088569164276}},"velocity":{"x":0.012868311256170273,"y":0.02556760236620903,"z":-1.9956589937210083},"angular_velocity":{"x":-6.381229877471924,"y":2.8057117462158203,"z":0.6732062697410583},"acceleration":{"x":0.25736624002456665,"y":0.5113520622253418,"z":18.886816024780273},"speed_mps":1.995864252634655,"speed_kph":7.185111309484759,"speed_limit_kph":30.0,"collisions_this_frame":[],"waypoint":{"x":-87.62284851074219,"y":12.94051742553711,"z":0.0},"lane_deviation_m":0.027250338345766068,"lane_width":3.5,"goal":{"x":-6.554497718811035,"y":137.2259521484375,"z":0.5999999642372131},"fault":{"name":"fault_free","severity":1.0},"capture_flags":{"save_rgb":true,"save_depth":false,"video_rgb":true,"video_depth":false}}
{"frame":29,"timestamp":{"delta_seconds":0.05000000074505806,"elapsed_seconds":3.2003093166276813},"control":{"throttle":0.0,"steer":0.16699999570846558,"brake":1.0,"hand_brake":false,"reverse":false,"manual_gear_shift":false,"gear":0},"transform":{"location":{"x":-87.62333679199219,"y":12.965557098388672,"z":-0.047546613961458206},"rotation":{"pitch":0.2042909413576126,"yaw":-179.75714111328125,"roll":-0.44457995891571045}},"velocity":{"x":0.005826971959322691,"y":0.015695879235863686,"z":-0.6825321912765503},"angular_velocity":{"x":-3.0882279872894287,"y":1.839080572128296,"z":0.30098453164100647},"acceleration":{"x":-0.14082679152488708,"y":-0.1974344551563263,"z":26.262535095214844},"speed_mps":0.6827375091175019,"speed_kph":2.457855032823007,"speed_limit_kph":30.0,"collisions_this_frame":[],"waypoint":{"x":-87.6232681274414,"y":12.940515518188477,"z":0.0},"lane_deviation_m":0.05373793840408325,"lane_width":3.5,"goal":{"x":-6.554497718811035,"y":137.2259521484375,"z":0.5999999642372131},"fault":{"name":"fault_free","severity":1.0},"capture_flags":{"save_rgb":true,"save_depth":false,"video_rgb":true,"video_depth":false}}
{"frame":30,"timestamp":{"delta_seconds":0.05000000074505806,"elapsed_seconds":3.2503093173727393},"control":{"throttle":1.0,"steer":0.20800000429153442,"brake":0.0,"hand_brake":false,"reverse":false,"manual_gear_shift":false,"gear":0},"transform":{"location":{"x":-87.62332916259766,"y":12.966182708740234,"z":-0.06168407201766968},"rotation":{"pitch":0.21431083977222443,"yaw":-179.75146484375,"roll":-0.418914794921875}},"velocity":{"x":3.480292798485607e-05,"y":0.009071141481399536,"z":-0.07653452455997467},"angular_velocity":{"x":3.15153169631958,"y":-1.0126680135726929,"z":0.0538455992937088},"acceleration":{"x":-0.11584337800741196,"y":-0.1324947476387024,"z":12.119953155517578},"speed_mps":0.07707022945755858,"speed_kph":0.2774528260472109,"speed_limit_kph":30.0,"collisions_this_frame":[],"waypoint":{"x":-87.62326049804688,"y":12.940515518188477,"z":0.0},"lane_deviation_m":0.06681118160486221,"lane_width":3.5,"goal":{"x":-6.554497718811035,"y":137.2259521484375,"z":0.5999999642372131},"fault":{"name":"fault_free","severity":1.0},"capture_flags":{"save_rgb":true,"save_depth":false,"video_rgb":true,"video_depth":false}}
{"frame":31,"timestamp":{"delta_seconds":0.05000000074505806,"elapsed_seconds":3.3003093181177974},"control":{"throttle":1.0,"steer":0.1899999976158142,"brake":0.0,"hand_brake":false,"reverse":false,"manual_gear_shift":false,"gear":0},"transform":{"location":{"x":-87.62311553955078,"y":12.966564178466797,"z":-0.057698555290699005},"rotation":{"pitch":0.1783703863620758,"yaw":-179.75282287597656,"roll":-0.3516235053539276}},"velocity":{"x":-0.0014890232123434544,"y":-0.0016552454326301813,"z":0.14628848433494568},"angular_velocity":{"x":1.4284840822219849,"y":-0.7454658150672913,"z":-0.0657857358455658},"acceleration":{"x":-0.0304765235632658,"y":-0.21452772617340088,"z":4.456459999084473},"speed_mps":0.14630542599843926,"speed_kph":0.5266995335943814,"speed_limit_kph":30.0,"collisions_this_frame":[],"waypoint":{"x":-87.623046875,"y":12.940515518188477,"z":0.0},"lane_deviation_m":0.06330608576536179,"lane_width":3.5,"goal":{"x":-6.554497718811035,"y":137.2259521484375,"z":0.5999999642372131},"fault":{"name":"fault_free","severity":1.0},"capture_flags":{"save_rgb":true,"save_depth":false,"video_rgb":true,"video_depth":false}}
{"frame":32,"timestamp":{"delta_seconds":0.05000000074505806,"elapsed_seconds":3.3503093188628554},"control":{"throttle":1.0,"steer":0.1850000023841858,"brake":0.0,"hand_brake":false,"reverse":false,"manual_gear_shift":false,"gear":0},"transform":{"location":{"x":-87.6229248046875,"y":12.96699047088623,"z":-0.04783370718359947},"rotation":{"pitch":0.13947927951812744,"yaw":-179.75706481933594,"roll":-0.2780762016773224}},"velocity":{"x":-0.0020768993999809027,"y":-0.0017893597250804305,"z":0.2102486491203308},"angular_velocity":{"x":1.4658725261688232,"y":-0.7715380191802979,"z":-0.09894449263811111},"acceleration":{"x":-0.011757523752748966,"y":-0.002682285849004984,"z":1.2792032957077026},"speed_mps":0.21026652081648034,"speed_kph":0.7569594749393292,"speed_limit_kph":30.0,"collisions_this_frame":[],"waypoint":{"x":-87.62285614013672,"y":12.94051742553711,"z":0.0},"lane_deviation_m":0.05467074364423752,"lane_width":3.5,"goal":{"x":-6.554497718811035,"y":137.2259521484375,"z":0.5999999642372131},"fault":{"name":"fault_free","severity":1.0},"capture_flags":{"save_rgb":true,"save_depth":false,"video_rgb":true,"video_depth":false}}
{"frame":33,"timestamp":{"delta_seconds":0.05000000074505806,"elapsed_seconds":3.4003093196079135},"control":{"throttle":1.0,"steer":0.18000000715255737,"brake":0.0,"hand_brake":false,"reverse":false,"manual_gear_shift":false,"gear":0},"transform":{"location":{"x":-87.62277221679688,"y":12.967382431030273,"z":-0.037081070244312286},"rotation":{"pitch":0.10334758460521698,"yaw":-179.76194763183594,"roll":-0.210845947265625}},"velocity":{"x":-0.002079873578622937,"y":-0.0011378586059436202,"z":0.2057541012763977},"angular_velocity":{"x":1.251412034034729,"y":-0.6705105304718018,"z":-0.1022796481847763},"acceleration":{"x":-5.948357284069061e-05,"y":0.013030022382736206,"z":-0.08989095687866211},"speed_mps":0.2057677593510905,"speed_kph":0.7407639336639259,"speed_limit_kph":30.0,"collisions_this_frame":[],"waypoint":{"x":-87.6227035522461,"y":12.94051742553711,"z":0.0},"lane_deviation_m":0.0457901656627655,"lane_width":3.5,"goal":{"x":-6.554497718811035,"y":137.2259521484375,"z":0.5999999642372131},"fault":{"name":"fault_free","severity":1.0},"capture_flags":{"save_rgb":true,"save_depth":false,"video_rgb":true,"video_depth":false}}
{"frame":34,"timestamp":{"delta_seconds":0.05000000074505806,"elapsed_seconds":3.4503093203529716},"control":{"throttle":1.0,"steer":0.164000004529953,"brake":0.0,"hand_brake":false,"reverse":false,"manual_gear_shift":false,"gear":0},"transform":{"location":{"x":-87.6422348022461,"y":12.96611213684082,"z":-0.027538642287254333},"rotation":{"pitch":0.09929728507995605,"yaw":-179.707763671875,"roll":-0.17495723068714142}},"velocity":{"x":-0.7496954202651978,"y":-0.07373515516519547,"z":0.18244466185569763},"angular_velocity":{"x":-0.10338979214429855,"y":0.4889627695083618,"z":2.4737868309020996},"acceleration":{"x":-14.952311515808105,"y":-1.4519459009170532,"z":-0.46618878841400146},"speed_mps":0.7750910597558759,"speed_kph":2.7903278151211532,"speed_limit_kph":30.0,"collisions_this_frame":[],"waypoint":{"x":-87.64216613769531,"y":12.94046401977539,"z":0.0},"lane_deviation_m":0.0376325324177742,"lane_width":3.5,"goal":{"x":-6.554497718811035,"y":137.2259521484375,"z":0.5999999642372131},"fault":{"name":"fault_free","severity":1.0},"capture_flags":{"save_rgb":true,"save_depth":false,"video_rgb":true,"video_depth":false}}
{"frame":35,"timestamp":{"delta_seconds":0.05000000074505806,"elapsed_seconds":3.5003093210980296},"control":{"throttle":1.0,"steer":0.12399999797344208,"brake":0.0,"hand_brake":false,"reverse":false,"manual_gear_shift":false,"gear":0},"transform":{"location":{"x":-87.70303344726562,"y":12.9617919921875,"z":-0.01922714151442051},"rotation":{"pitch":0.15150724351406097,"yaw":-179.54751586914062,"roll":-0.2319945991039276}},"velocity":{"x":-1.4936493635177612,"y":-0.11739492416381836,"z":0.16816583275794983},"angular_velocity":{"x":-2.1194169521331787,"y":1.4422653913497925,"z":4.2058491706848145},"acceleration":{"x":-14.87907886505127,"y":-0.8731954097747803,"z":-0.28557658195495605},"speed_mps":1.5076636682840163,"speed_kph":5.427589205822459,"speed_limit_kph":30.0,"collisions_this_frame":[],"waypoint":{"x":-87.7029800415039,"y":12.94029426574707,"z":0.0},"lane_deviation_m":0.02884160354733467,"lane_width":3.5,"goal":{"x":-6.554497718811035,"y":137.2259521484375,"z":0.5999999642372131},"fault":{"name":"fault_free","severity":1.0},"capture_flags":{"save_rgb":true,"save_depth":false,"video_rgb":true,"video_depth":false}}
{"frame":36,"timestamp":{"delta_seconds":0.05000000074505806,"elapsed_seconds":3.5503093218430877},"control":{"throttle":1.0,"steer":0.1860000044107437,"brake":0.0,"hand_brake":false,"reverse":false,"manual_gear_shift":false,"gear":0},"transform":{"location":{"x":-87.79774475097656,"y":12.953319549560547,"z":-0.012172965332865715},"rotation":{"pitch":0.21816305816173553,"yaw":-179.21511840820312,"roll":-0.3255614936351776}},"velocity":{"x":-2.1298677921295166,"y":-0.2408878058195114,"z":0.12979060411453247},"angular_velocity":{"x":-0.808792769908905,"y":0.920322597026825,"z":8.118005752563477},"acceleration":{"x":-12.724369049072266,"y":-2.469857692718506,"z":-0.7675045728683472},"speed_mps":2.147372661616892,"speed_kph":7.7305415818208125,"speed_limit_kph":30.0,"collisions_this_frame":[],"waypoint":{"x":-87.79771423339844,"y":12.940031051635742,"z":0.0},"lane_deviation_m":0.018021270632743835,"lane_width":3.5,"goal":{"x":-6.554497718811035,"y":137.2259521484375,"z":0.5999999642372131},"fault":{"name":"fault_free","severity":1.0},"capture_flags":{"save_rgb":true,"save_depth":false,"video_rgb":true,"video_depth":false}}
{"frame":37,"timestamp":{"delta_seconds":0.05000000074505806,"elapsed_seconds":3.6003093225881457},"control":{"throttle":1.0,"steer":0.19300000369548798,"brake":0.0,"hand_brake":false,"reverse":false,"manual_gear_shift":false,"gear":0},"transform":{"location":{"x":-87.91986083984375,"y":12.940702438354492,"z":-0.007455024402588606},"rotation":{"pitch":0.22430339455604553,"yaw":-178.73187255859375,"roll":-0.295562744140625}},"velocity":{"x":-2.6349732875823975,"y":-0.36327993869781494,"z":0.09198224544525146},"angular_velocity":{"x":-1.384728193283081,"y":0.5273762941360474,"z":10.8629732131958},"acceleration":{"x":-10.102109909057617,"y":-2.447842597961426,"z":-0.7561671733856201},"speed_mps":2.661487793248398,"speed_kph":9.581356055694233,"speed_limit_kph":30.0,"collisions_this_frame":[],"waypoint":{"x":-87.91986083984375,"y":12.939691543579102,"z":0.0},"lane_deviation_m":0.007523250300437212,"lane_width":3.5,"goal":{"x":-6.554497718811035,"y":137.2259521484375,"z":0.5999999642372131},"fault":{"name":"fault_free","severity":1.0},"capture_flags":{"save_rgb":true,"save_depth":false,"video_rgb":true,"video_depth":false}}
{"frame":38,"timestamp":{"delta_seconds":0.05000000074505806,"elapsed_seconds":3.650309323333204},"control":{"throttle":1.0,"steer":0.11999999731779099,"brake":0.0,"hand_brake":false,"reverse":false,"manual_gear_shift":false,"gear":0},"transform":{"location":{"x":-88.0655288696289,"y":12.926715850830078,"z":-0.003872947534546256},"rotation":{"pitch":0.23323728144168854,"yaw":-178.28550720214844,"roll":-0.28448477387428284}},"velocity":{"x":-3.0811901092529297,"y":-0.33265429735183716,"z":0.02951938472688198},"angular_velocity":{"x":5.0076494216918945,"y":-1.3642933368682861,"z":8.453180313110352},"acceleration":{"x":-8.924336433410645,"y":0.6125128269195557,"z":-1.249257206916809},"speed_mps":3.099235835650359,"speed_kph":11.157249008341292,"speed_limit_kph":30.0,"collisions_this_frame":[],"waypoint":{"x":-88.06556701660156,"y":12.939287185668945,"z":0.0},"lane_deviation_m":0.013154452666640282,"lane_width":3.5,"goal":{"x":-6.554497718811035,"y":137.2259521484375,"z":0.5999999642372131},"fault":{"name":"fault_free","severity":1.0},"capture_flags":{"save_rgb":true,"save_depth":false,"video_rgb":true,"video_depth":false}}
{"frame":39,"timestamp":{"delta_seconds":0.05000000074505806,"elapsed_seconds":3.700309324078262},"control":{"throttle":1.0,"steer":0.14800000190734863,"brake":0.0,"hand_brake":false,"reverse":false,"manual_gear_shift":false,"gear":0},"transform":{"location":{"x":-88.23091888427734,"y":12.91028881072998,"z":-0.0032066726125776768},"rotation":{"pitch":0.13855721056461334,"yaw":-177.78456115722656,"roll":-0.0727233737707138}},"velocity":{"x":-3.474308967590332,"y":-0.4560695290565491,"z":0.008435478433966637},"angular_velocity":{"x":2.0111842155456543,"y":-1.1144769191741943,"z":10.794167518615723},"acceleration":{"x":-7.862377166748047,"y":-2.4683046340942383,"z":-0.4216781258583069},"speed_mps":3.5041251939548155,"speed_kph":12.614850698237335,"speed_limit_kph":30.0,"collisions_this_frame":[],"waypoint":{"x":-88.23100280761719,"y":12.938827514648438,"z":0.0},"lane_deviation_m":0.028718415647745132,"lane_width":3.5,"goal":{"x":-6.554497718811035,"y":137.2259521484375,"z":0.5999999642372131},"fault":{"name":"fault_free","severity":1.0},"capture_flags":{"save_rgb":true,"save_depth":false,"video_rgb":true,"video_depth":false}}
{"frame":40,"timestamp":{"delta_seconds":0.05000000074505806,"elapsed_seconds":3.75030932482332},"control":{"throttle":1.0,"steer":0.12700000405311584,"brake":0.0,"hand_brake":false,"reverse":false,"manual_gear_shift":false,"gear":0},"transform":{"location":{"x":-88.41608428955078,"y":12.890167236328125,"z":-0.0023770523257553577},"rotation":{"pitch":0.10607283562421799,"yaw":-177.26272583007812,"roll":-0.028350818902254105}},"velocity":{"x":-3.8542940616607666,"y":-0.48688235878944397,"z":0.014598016627132893},"angular_velocity":{"x":0.43669965863227844,"y":-0.3807246685028076,"z":10.530694961547852},"acceleration":{"x":-7.599701881408691,"y":-0.616256594657898,"z":0.12325076758861542},"speed_mps":3.8849517689597213,"speed_kph":13.985826368254997,"speed_limit_kph":30.0,"collisions_this_frame":[],"waypoint":{"x":-88.41622161865234,"y":12.938312530517578,"z":0.0},"lane_deviation_m":0.04820413514971733,"lane_width":3.5,"goal":{"x":-6.554497718811035,"y":137.2259521484375,"z":0.5999999642372131},"fault":{"name":"fault_free","severity":1.0},"capture_flags":{"save_rgb":true,"save_depth":false,"video_rgb":true,"video_depth":false}}
{"frame":41,"timestamp":{"delta_seconds":0.05000000074505806,"elapsed_seconds":3.800309325568378},"control":{"throttle":1.0,"steer":0.08100000023841858,"brake":0.0,"hand_brake":false,"reverse":false,"manual_gear_shift":false,"gear":0},"transform":{"location":{"x":-88.62007904052734,"y":12.86978530883789,"z":-0.0015580749604851007},"rotation":{"pitch":0.09542457014322281,"yaw":-176.8408203125,"roll":-0.010498046875}},"velocity":{"x":-4.22465181350708,"y":-0.45900049805641174,"z":0.015001639723777771},"angular_velocity":{"x":0.22887706756591797,"y":-0.11707581579685211,"z":7.843437194824219},"acceleration":{"x":-7.4071550369262695,"y":0.5576372146606445,"z":0.008072461932897568},"speed_mps":4.249539910599628,"speed_kph":15.29834367815866,"speed_limit_kph":30.0,"collisions_this_frame":[],"waypoint":{"x":-88.62026977539062,"y":12.937746047973633,"z":0.0},"lane_deviation_m":0.0679788589477539,"lane_width":3.5,"goal":{"x":-6.554497718811035,"y":137.2259521484375,"z":0.5999999642372131},"fault":{"name":"fault_free","severity":1.0},"capture_flags":{"save_rgb":true,"save_depth":false,"video_rgb":true,"video_depth":false}}
{"frame":42,"timestamp":{"delta_seconds":0.05000000074505806,"elapsed_seconds":3.850309326313436},"control":{"throttle":1.0,"steer":0.16599999368190765,"brake":0.0,"hand_brake":false,"reverse":false,"manual_gear_shift":false,"gear":0},"transform":{"location":{"x":-88.84114837646484,"y":12.844596862792969,"z":-0.0008362579392269254},"rotation":{"pitch":0.09125132113695145,"yaw":-176.27886962890625,"roll":-0.0244445763528347}},"velocity":{"x":-4.54320764541626,"y":-0.6520481705665588,"z":0.013080062344670296},"angular_velocity":{"x":-0.47058555483818054,"y":-0.09332459419965744,"z":13.71773624420166},"acceleration":{"x":-6.371116638183594,"y":-3.8609533309936523,"z":-0.038431547582149506},"speed_mps":4.589779255491368,"speed_kph":16.523205319768923,"speed_limit_kph":30.0,"collisions_this_frame":[],"waypoint":{"x":-88.84223175048828,"y":12.937127113342285,"z":0.0},"lane_deviation_m":0.09254037588834763,"lane_width":3.5,"goal":{"x":-6.554497718811035,"y":137.2259521484375,"z":0.5999999642372131},"fault":{"name":"fault_free","severity":1.0},"capture_flags":{"save_rgb":true,"save_depth":false,"video_rgb":true,"video_depth":false}}
{"frame":43,"timestamp":{"delta_seconds":0.05000000074505806,"elapsed_seconds":3.900309327058494},"control":{"throttle":1.0,"steer":0.3050000071525574,"brake":0.0,"hand_brake":false,"reverse":false,"manual_gear_shift":false,"gear":0},"transform":{"location":{"x":-89.07674407958984,"y":12.808122634887695,"z":-0.0002394103939877823},"rotation":{"pitch":0.08800698071718216,"yaw":-175.32302856445312,"roll":-0.0628661960363388}},"velocity":{"x":-4.802104473114014,"y":-0.9777191877365112,"z":0.010505790822207928},"angular_velocity":{"x":-0.9208142757415771,"y":-0.14552171528339386,"z":23.251148223876953},"acceleration":{"x":-5.177936553955078,"y":-6.513420104980469,"z":-0.05148543044924736},"speed_mps":4.900637974020379,"speed_kph":17.642296706473363,"speed_limit_kph":30.0,"collisions_this_frame":[],"waypoint":{"x":-89.07823944091797,"y":12.936470985412598,"z":0.0},"lane_deviation_m":0.12835729122161865,"lane_width":3.5,"goal":{"x":-6.554497718811035,"y":137.2259521484375,"z":0.5999999642372131},"fault":{"name":"fault_free","severity":1.0},"capture_flags":{"save_rgb":true,"save_depth":false,"video_rgb":true,"video_depth":false}}
{"frame":44,"timestamp":{"delta_seconds":0.05000000074505806,"elapsed_seconds":3.950309327803552},"control":{"throttle":1.0,"steer":0.164000004529953,"brake":0.0,"hand_brake":false,"reverse":false,"manual_gear_shift":false,"gear":0},"transform":{"location":{"x":-89.32777404785156,"y":12.763258934020996,"z":0.0004225921584293246},"rotation":{"pitch":0.08679120987653732,"yaw":-174.26002502441406,"roll":-0.0728454664349556}},"velocity":{"x":-5.152297019958496,"y":-1.0299748182296753,"z":0.013479499146342278},"angular_velocity":{"x":0.15010064840316772,"y":0.011799617670476437,"z":19.366191864013672},"acceleration":{"x":-7.003850936889648,"y":-1.0451126098632812,"z":0.059474166482686996},"speed_mps":5.25425488580043,"speed_kph":18.91531758888155,"speed_limit_kph":30.0,"collisions_this_frame":[],"waypoint":{"x":-89.32978057861328,"y":12.935771942138672,"z":0.0},"lane_deviation_m":0.17252519726753235,"lane_width":3.5,"goal":{"x":-6.554497718811035,"y":137.2259521484375,"z":0.5999999642372131},"fault":{"name":"fault_free","severity":1.0},"capture_flags":{"save_rgb":true,"save_depth":false,"video_rgb":true,"video_depth":false}}
{"frame":45,"timestamp":{"delta_seconds":0.05000000074505806,"elapsed_seconds":4.00030932854861},"control":{"throttle":1.0,"steer":0.19300000369548798,"brake":0.0,"hand_brake":false,"reverse":false,"manual_gear_shift":false,"gear":0},"transform":{"location":{"x":-89.59281921386719,"y":12.713279724121094,"z":0.0009209442068822682},"rotation":{"pitch":0.0827409103512764,"yaw":-173.22747802734375,"roll":-0.0750121921300888}},"velocity":{"x":-5.327509880065918,"y":-1.1733521223068237,"z":0.0073569961823523045},"angular_velocity":{"x":-0.10070866346359253,"y":-0.2086552530527115,"z":21.415470123291016},"acceleration":{"x":-3.5042572021484375,"y":-2.8675460815429688,"z":-0.12245006114244461},"speed_mps":5.455196683027545,"speed_kph":19.638708058899162,"speed_limit_kph":30.0,"collisions_this_frame":[],"waypoint":{"x":-89.59539794921875,"y":12.93503475189209,"z":0.0},"lane_deviation_m":0.2217719405889511,"lane_width":3.5,"goal":{"x":-6.554497718811035,"y":137.2259521484375,"z":0.5999999642372131},"fault":{"name":"fault_free","severity":1.0},"capture_flags":{"save_rgb":true,"save_depth":false,"video_rgb":true,"video_depth":false}}
{"frame":46,"timestamp":{"delta_seconds":0.05000000074505806,"elapsed_seconds":4.050309329293668},"control":{"throttle":1.0,"steer":0.0010000000474974513,"brake":0.0,"hand_brake":false,"reverse":false,"manual_gear_shift":false,"gear":0},"transform":{"location":{"x":-89.86225128173828,"y":12.658387184143066,"z":0.0012492751702666283},"rotation":{"pitch":0.07146426290273666,"yaw":-172.1749267578125,"roll":-0.0744628757238388}},"velocity":{"x":-5.416683673858643,"y":-1.2576578855514526,"z":0.004107246175408363},"angular_velocity":{"x":0.10515562444925308,"y":-0.2050275206565857,"z":21.08336639404297},"acceleration":{"x":-1.7834758758544922,"y":-1.6861152648925781,"z":-0.06499499827623367},"speed_mps":5.560771731442288,"speed_kph":20.018778233192236,"speed_limit_kph":30.0,"collisions_this_frame":[],"waypoint":{"x":-89.8654556274414,"y":12.934284210205078,"z":0.0},"lane_deviation_m":0.27591845393180847,"lane_width":3.5,"goal":{"x":-6.554497718811035,"y":137.2259521484375,"z":0.5999999642372131},"fault":{"name":"fault_free","severity":1.0},"capture_flags":{"save_rgb":true,"save_depth":false,"video_rgb":true,"video_depth":false}}
{"frame":47,"timestamp":{"delta_seconds":0.05000000074505806,"elapsed_seconds":4.100309330038726},"control":{"throttle":1.0,"steer":0.057999998331069946,"brake":0.0,"hand_brake":false,"reverse":false,"manual_gear_shift":false,"gear":0},"transform":{"location":{"x":-90.14188385009766,"y":12.601874351501465,"z":0.0014282608171924949},"rotation":{"pitch":0.06622551381587982,"yaw":-171.37881469726562,"roll":-0.0479736328125}},"velocity":{"x":-5.712751388549805,"y":-1.1952639818191528,"z":0.0023554228246212006},"angular_velocity":{"x":0.6542593836784363,"y":0.08689653873443604,"z":10.890271186828613},"acceleration":{"x":-5.921354293823242,"y":1.247878074645996,"z":-0.035036467015743256},"speed_mps":5.83645354317402,"speed_kph":21.011232755426473,"speed_limit_kph":30.0,"collisions_this_frame":[],"waypoint":{"x":-90.14573669433594,"y":12.933505058288574,"z":0.0},"lane_deviation_m":0.33165615797042847,"lane_width":3.5,"goal":{"x":-6.554497718811035,"y":137.2259521484375,"z":0.5999999642372131},"fault":{"name":"fault_free","severity":1.0},"capture_flags":{"save_rgb":true,"save_depth":false,"video_rgb":true,"video_depth":false}}
{"frame":48,"timestamp":{"delta_seconds":0.05000000074505806,"elapsed_seconds":4.150309330783784},"control":{"throttle":1.0,"steer":0.1459999978542328,"brake":0.0,"hand_brake":false,"reverse":false,"manual_gear_shift":false,"gear":0},"transform":{"location":{"x":-90.43827056884766,"y":12.541548728942871,"z":0.001489829970523715},"rotation":{"pitch":0.07050120830535889,"yaw":-170.65689086914062,"roll":-0.048309314996004105}},"velocity":{"x":-6.083743095397949,"y":-1.391774296760559,"z":0.0013840007595717907},"angular_velocity":{"x":-0.36684560775756836,"y":0.09511557221412659,"z":16.185710906982422},"acceleration":{"x":-7.419834136962891,"y":-3.930206298828125,"z":-0.019428441300988197},"speed_mps":6.240910803671501,"speed_kph":22.467278893217404,"speed_limit_kph":30.0,"collisions_this_frame":[],"waypoint":{"x":-90.44281005859375,"y":12.932680130004883,"z":0.0},"lane_deviation_m":0.3911605775356293,"lane_width":3.5,"goal":{"x":-6.554497718811035,"y":137.2259521484375,"z":0.5999999642372131},"fault":{"name":"fault_free","severity":1.0},"capture_flags":{"save_rgb":true,"save_depth":false,"video_rgb":true,"video_depth":false}}
{"frame":49,"timestamp":{"delta_seconds":0.05000000074505806,"elapsed_seconds":4.2003093315288424},"control":{"throttle":1.0,"steer":0.14900000393390656,"brake":0.0,"hand_brake":false,"reverse":false,"manual_gear_shift":false,"gear":0},"transform":{"location":{"x":-90.75041961669922,"y":12.47126293182373,"z":0.0015280531952157617},"rotation":{"pitch":0.07276882976293564,"yaw":-169.7613983154297,"roll":-0.0639648288488388}},"velocity":{"x":-6.310769557952881,"y":-1.5805562734603882,"z":0.0008317565661855042},"angular_velocity":{"x":-0.30397167801856995,"y":-0.05163728818297386,"z":18.65149688720703},"acceleration":{"x":-4.540529251098633,"y":-3.775639533996582,"z":-0.011044884100556374},"speed_mps":6.505687606931244,"speed_kph":23.42047538495248,"speed_limit_kph":30.0,"collisions_this_frame":[],"waypoint":{"x":-90.75994110107422,"y":12.91240406036377,"z":0.0},"lane_deviation_m":0.44124653935432434,"lane_width":3.5,"goal":{"x":-6.554497718811035,"y":137.2259521484375,"z":0.5999999642372131},"fault":{"name":"fault_free","severity":1.0},"capture_flags":{"save_rgb":true,"save_depth":false,"video_rgb":true,"video_depth":false}}
{"frame":50,"timestamp":{"delta_seconds":0.05000000074505806,"elapsed_seconds":4.2503093322739005},"control":{"throttle":1.0,"steer":0.1379999965429306,"brake":0.0,"hand_brake":false,"reverse":false,"manual_gear_shift":false,"gear":0},"transform":{"location":{"x":-91.07384490966797,"y":12.393506050109863,"z":0.0015634535811841488},"rotation":{"pitch":0.07208581268787384,"yaw":-168.8272705078125,"roll":-0.07012939453125}},"velocity":{"x":-6.5444865226745605,"y":-1.720081090927124,"z":0.0005142593290656805},"angular_velocity":{"x":-0.04997498542070389,"y":-0.025030426681041718,"z":18.762039184570312},"acceleration":{"x":-4.674339294433594,"y":-2.790496349334717,"z":-0.00634994450956583},"speed_mps":6.766755727030248,"speed_kph":24.360320617308894,"speed_limit_kph":30.0,"collisions_this_frame":[],"waypoint":{"x":-91.05159759521484,"y":12.893332481384277,"z":0.0},"lane_deviation_m":0.5003237724304199,"lane_width":3.5,"goal":{"x":-6.554497718811035,"y":137.2259521484375,"z":0.5999999642372131},"fault":{"name":"fault_free","severity":1.0},"capture_flags":{"save_rgb":true,"save_depth":false,"video_rgb":true,"video_depth":false}}
{"frame":51,"timestamp":{"delta_seconds":0.05000000074505806,"elapsed_seconds":4.300309333018959},"control":{"throttle":1.0,"steer":0.10300000011920929,"brake":0.0,"hand_brake":false,"reverse":false,"manual_gear_shift":false,"gear":0},"transform":{"location":{"x":-91.41191864013672,"y":12.309085845947266,"z":0.0015740585513412952},"rotation":{"pitch":0.07362260669469833,"yaw":-167.96311950683594,"roll":-0.065887451171875}},"velocity":{"x":-6.8747477531433105,"y":-1.8425620794296265,"z":0.00032821655622683465},"angular_velocity":{"x":0.028045061975717545,"y":0.0683644637465477,"z":17.528593063354492},"acceleration":{"x":-6.605224609375,"y":-2.449619770050049,"z":-0.003720855340361595},"speed_mps":7.117386584528561,"speed_kph":25.62259170430282,"speed_limit_kph":30.0,"collisions_this_frame":[],"waypoint":{"x":-91.48385620117188,"y":12.853954315185547,"z":0.0},"lane_deviation_m":0.5495990514755249,"lane_width":3.5,"goal":{"x":-6.554497718811035,"y":137.2259521484375,"z":0.5999999642372131},"fault":{"name":"fault_free","severity":1.0},"capture_flags":{"save_rgb":true,"save_depth":false,"video_rgb":true,"video_depth":false}}
{"frame":52,"timestamp":{"delta_seconds":0.05000000074505806,"elapsed_seconds":4.350309333764017},"control":{"throttle":1.0,"steer":0.09600000083446503,"brake":0.0,"hand_brake":false,"reverse":false,"manual_gear_shift":false,"gear":0},"transform":{"location":{"x":-91.76611328125,"y":12.217674255371094,"z":0.0015682601369917393},"rotation":{"pitch":0.07677815109491348,"yaw":-167.19776916503906,"roll":-0.06222531944513321}},"velocity":{"x":-7.193981647491455,"y":-1.9732987880706787,"z":0.00021166801161598414},"angular_velocity":{"x":0.043049100786447525,"y":0.07361919432878494,"z":14.608114242553711},"acceleration":{"x":-6.384677886962891,"y":-2.614734172821045,"z":-0.002330970950424671},"speed_mps":7.459710456596048,"speed_kph":26.854957643745774,"speed_limit_kph":30.0,"collisions_this_frame":[],"waypoint":{"x":-91.80512237548828,"y":12.816036224365234,"z":0.0},"lane_deviation_m":0.5996342301368713,"lane_width":3.5,"goal":{"x":-6.554497718811035,"y":137.2259521484375,"z":0.5999999642372131},"fault":{"name":"fault_free","severity":1.0},"capture_flags":{"save_rgb":true,"save_depth":false,"video_rgb":true,"video_depth":false}}
{"frame":53,"timestamp":{"delta_seconds":0.05000000074505806,"elapsed_seconds":4.400309334509075},"control":{"throttle":1.0,"steer":-0.02500000037252903,"brake":0.0,"hand_brake":false,"reverse":false,"manual_gear_shift":false,"gear":0},"transform":{"location":{"x":-92.13902282714844,"y":12.124130249023438,"z":0.0015531157841905951},"rotation":{"pitch":0.08076698333024979,"yaw":-166.78375244140625,"roll":-0.0274963416159153}},"velocity":{"x":-7.617811679840088,"y":-1.8816808462142944,"z":0.0001437473256373778},"angular_velocity":{"x":0.8064113855361938,"y":0.2844434380531311,"z":3.3774843215942383},"acceleration":{"x":-8.476600646972656,"y":1.8323588371276855,"z":-0.0013584137195721269},"speed_mps":7.84676860989166,"speed_kph":28.248366995609977,"speed_limit_kph":30.0,"collisions_this_frame":[],"waypoint":{"x":-92.14199829101562,"y":12.768274307250977,"z":0.0},"lane_deviation_m":0.644152820110321,"lane_width":3.5,"goal":{"x":-6.554497718811035,"y":137.2259521484375,"z":0.5999999642372131},"fault":{"name":"fault_free","severity":1.0},"capture_flags":{"save_rgb":true,"save_depth":false,"video_rgb":true,"video_depth":false}}
{"frame":54,"timestamp":{"delta_seconds":0.05000000074505806,"elapsed_seconds":4.450309335254133},"control":{"throttle":1.0,"steer":0.09200000017881393,"brake":0.0,"hand_brake":false,"reverse":false,"manual_gear_shift":false,"gear":0},"transform":{"location":{"x":-92.52935028076172,"y":12.025527000427246,"z":0.0015412901993840933},"rotation":{"pitch":0.08369030058383942,"yaw":-166.4331817626953,"roll":-0.0323791541159153}},"velocity":{"x":-7.908341407775879,"y":-2.118180990219116,"z":9.21535465749912e-05},"angular_velocity":{"x":-0.45995277166366577,"y":-0.07362203299999237,"z":9.80040168762207},"acceleration":{"x":-5.81059455871582,"y":-4.7300028800964355,"z":-0.0010318756103515625},"speed_mps":8.187096832074266,"speed_kph":29.473548595467356,"speed_limit_kph":30.0,"collisions_this_frame":[],"waypoint":{"x":-92.62617492675781,"y":12.685124397277832,"z":0.0},"lane_deviation_m":0.6666679382324219,"lane_width":3.5,"goal":{"x":-6.554497718811035,"y":137.2259521484375,"z":0.5999999642372131},"fault":{"name":"fault_free","severity":1.0},"capture_flags":{"save_rgb":true,"save_depth":false,"video_rgb":true,"video_depth":false}}
{"frame":55,"timestamp":{"delta_seconds":0.05000000074505806,"elapsed_seconds":4.500309335999191},"control":{"throttle":1.0,"steer":0.04399999976158142,"brake":0.0,"hand_brake":false,"reverse":false,"manual_gear_shift":false,"gear":0},"transform":{"location":{"x":-92.93635559082031,"y":11.918538093566895,"z":0.0015312194591388106},"rotation":{"pitch":0.08608769625425339,"yaw":-165.98707580566406,"roll":-0.0372619666159153}},"velocity":{"x":-8.271185874938965,"y":-2.241786003112793,"z":6.469726213254035e-05},"angular_velocity":{"x":-0.038850199431180954,"y":0.045806705951690674,"z":8.754212379455566},"acceleration":{"x":-7.256889343261719,"y":-2.472100257873535,"z":-0.0005491257179528475},"speed_mps":8.569604440446946,"speed_kph":30.85057598560901,"speed_limit_kph":30.0,"collisions_this_frame":[],"waypoint":{"x":-92.99273681640625,"y":12.61062240600586,"z":0.0},"lane_deviation_m":0.6943787932395935,"lane_width":3.5,"goal":{"x":-6.554497718811035,"y":137.2259521484375,"z":0.5999999642372131},"fault":{"name":"fault_free","severity":1.0},"capture_flags":{"save_rgb":true,"save_depth":false,"video_rgb":true,"video_depth":false}}
{"frame":56,"timestamp":{"delta_seconds":0.05000000074505806,"elapsed_seconds":4.550309336744249},"control":{"throttle":1.0,"steer":0.032999999821186066,"brake":0.0,"hand_brake":false,"reverse":false,"manual_gear_shift":false,"gear":0},"transform":{"location":{"x":-93.36055755615234,"y":11.805657386779785,"z":0.001522827078588307},"rotation":{"pitch":0.08793184906244278,"yaw":-165.6154327392578,"roll":-0.03369140625}},"velocity":{"x":-8.60818862915039,"y":-2.34464955329895,"z":4.186630030744709e-05},"angular_velocity":{"x":0.06321843713521957,"y":0.0438382588326931,"z":6.958643436431885},"acceleration":{"x":-6.740055084228516,"y":-2.0572710037231445,"z":-0.0004566192510537803},"speed_mps":8.921787545361738,"speed_kph":32.11843516330226,"speed_limit_kph":30.0,"collisions_this_frame":[],"waypoint":{"x":-93.50552368164062,"y":12.489360809326172,"z":0.0},"lane_deviation_m":0.6989047527313232,"lane_width":3.5,"goal":{"x":-6.554497718811035,"y":137.2259521484375,"z":0.5999999642372131},"fault":{"name":"fault_free","severity":1.0},"capture_flags":{"save_rgb":true,"save_depth":false,"video_rgb":true,"video_depth":false}}
{"frame":57,"timestamp":{"delta_seconds":0.05000000074505806,"elapsed_seconds":4.600309337489307},"control":{"throttle":1.0,"steer":-0.08900000154972076,"brake":0.0,"hand_brake":false,"reverse":false,"manual_gear_shift":false,"gear":0},"transform":{"location":{"x":-93.80435180664062,"y":11.692536354064941,"z":0.001511535607278347},"rotation":{"pitch":0.09015166014432907,"yaw":-165.62217712402344,"roll":0.004802098032087088}},"velocity":{"x":-9.055378913879395,"y":-2.197627544403076,"z":3.015518086613156e-05},"angular_velocity":{"x":0.9673029780387878,"y":0.305019736289978,"z":-5.206832408905029},"acceleration":{"x":-8.943805694580078,"y":2.9404401779174805,"z":-0.00023422238882631063},"speed_mps":9.318232348399562,"speed_kph":33.545636454238426,"speed_limit_kph":30.0,"collisions_this_frame":[],"waypoint":{"x":-93.89903259277344,"y":12.382537841796875,"z":0.0},"lane_deviation_m":0.6964688301086426,"lane_width":3.5,"goal":{"x":-6.554497718811035,"y":137.2259521484375,"z":0.5999999642372131},"fault":{"name":"fault_free","severity":1.0},"capture_flags":{"save_rgb":true,"save_depth":false,"video_rgb":true,"video_depth":false}}
{"frame":58,"timestamp":{"delta_seconds":0.05000000074505806,"elapsed_seconds":4.650309338234365},"control":{"throttle":1.0,"steer":-0.1340000033378601,"brake":0.0,"hand_brake":false,"reverse":false,"manual_gear_shift":false,"gear":0},"transform":{"location":{"x":-94.2691421508789,"y":11.586438179016113,"z":0.00150299072265625},"rotation":{"pitch":0.0918113961815834,"yaw":-166.25852966308594,"roll":0.05970986559987068}},"velocity":{"x":-9.481720924377441,"y":-1.9718776941299438,"z":1.5792846170370467e-05},"angular_velocity":{"x":0.9618823528289795,"y":0.2620893120765686,"z":-16.862016677856445},"acceleration":{"x":-8.526840209960938,"y":4.5149970054626465,"z":-0.0002872466866392642},"speed_mps":9.684592574219819,"speed_kph":34.86453326719135,"speed_limit_kph":30.0,"collisions_this_frame":[],"waypoint":{"x":-94.43274688720703,"y":12.217987060546875,"z":0.0},"lane_deviation_m":0.6523976922035217,"lane_width":3.5,"goal":{"x":-6.554497718811035,"y":137.2259521484375,"z":0.5999999642372131},"fault":{"name":"fault_free","severity":1.0},"capture_flags":{"save_rgb":true,"save_depth":false,"video_rgb":true,"video_depth":false}}
{"frame":59,"timestamp":{"delta_seconds":0.05000000074505806,"elapsed_seconds":4.700309338979423},"control":{"throttle":0.0,"steer":-0.2329999953508377,"brake":0.0,"hand_brake":false,"reverse":false,"manual_gear_shift":false,"gear":0},"transform":{"location":{"x":-94.75423431396484,"y":11.487436294555664,"z":0.0014990234049037099},"rotation":{"pitch":0.09264468401670456,"yaw":-167.291748046875,"roll":0.09705204516649246}},"velocity":{"x":-9.889334678649902,"y":-1.8017297983169556,"z":7.095336968632182e-06},"angular_velocity":{"x":0.5849173069000244,"y":0.14349418878555298,"z":-22.632932662963867},"acceleration":{"x":-8.152275085449219,"y":3.4029579162597656,"z":-0.00017395017493981868},"speed_mps":10.052122693866265,"speed_kph":36.18764169791855,"speed_limit_kph":30.0,"collisions_this_frame":[],"waypoint":{"x":-94.96819305419922,"y":12.029378890991211,"z":0.0},"lane_deviation_m":0.5826511383056641,"lane_width":3.5,"goal":{"x":-6.554497718811035,"y":137.2259521484375,"z":0.5999999642372131},"fault":{"name":"fault_free","severity":1.0},"capture_flags":{"save_rgb":true,"save_depth":false,"video_rgb":true,"video_depth":false}}
{"frame":60,"timestamp":{"delta_seconds":0.05000000074505806,"elapsed_seconds":4.750309339724481},"control":{"throttle":0.8741782903671265,"steer":-0.4099999964237213,"brake":0.0,"hand_brake":false,"reverse":false,"manual_gear_shift":false,"gear":0},"transform":{"location":{"x":-95.25810241699219,"y":11.399823188781738,"z":0.0015110016101971269},"rotation":{"pitch":0.09071173518896103,"yaw":-168.74200439453125,"roll":0.14604897797107697}},"velocity":{"x":-10.250051498413086,"y":-1.417494297027588,"z":-3.1948088690114673e-06},"angular_velocity":{"x":1.2247601747512817,"y":0.1701565682888031,"z":-34.23318862915039},"acceleration":{"x":-7.214336395263672,"y":7.6847100257873535,"z":-0.0002058029203908518},"speed_mps":10.347600968448498,"speed_kph":37.2513634864146,"speed_limit_kph":30.0,"collisions_this_frame":[],"waypoint":{"x":-95.38232421875,"y":11.866703987121582,"z":0.0},"lane_deviation_m":0.48312628269195557,"lane_width":3.5,"goal":{"x":-6.554497718811035,"y":137.2259521484375,"z":0.5999999642372131},"fault":{"name":"fault_free","severity":1.0},"capture_flags":{"save_rgb":true,"save_depth":false,"video_rgb":true,"video_depth":false}}
{"frame":61,"timestamp":{"delta_seconds":0.05000000074505806,"elapsed_seconds":4.800309340469539},"control":{"throttle":0.8241783380508423,"steer":-0.1850000023841858,"brake":0.0,"hand_brake":false,"reverse":false,"manual_gear_shift":false,"gear":0},"transform":{"location":{"x":-95.77899169921875,"y":11.326858520507812,"z":0.0015301513485610485},"rotation":{"pitch":0.08749471604824066,"yaw":-170.5430450439453,"roll":0.18070119619369507}},"velocity":{"x":-10.587408065795898,"y":-1.152062177658081,"z":-5.760192834713962e-06},"angular_velocity":{"x":0.4885433316230774,"y":0.01577862538397312,"z":-36.74213409423828},"acceleration":{"x":-6.74713134765625,"y":5.308642387390137,"z":-5.1307681133039296e-05},"speed_mps":10.649904075291172,"speed_kph":38.33965467104822,"speed_limit_kph":30.0,"collisions_this_frame":[],"waypoint":{"x":-95.9056396484375,"y":11.639248847961426,"z":0.0},"lane_deviation_m":0.3370901346206665,"lane_width":3.5,"goal":{"x":-6.554497718811035,"y":137.2259521484375,"z":0.5999999642372131},"fault":{"name":"fault_free","severity":1.0},"capture_flags":{"save_rgb":true,"save_depth":false,"video_rgb":true,"video_depth":false}}
{"frame":62,"timestamp":{"delta_seconds":0.05000000074505806,"elapsed_seconds":4.850309341214597},"control":{"throttle":0.0,"steer":-0.25200000405311584,"brake":1.0,"hand_brake":false,"reverse":false,"manual_gear_shift":false,"gear":0},"transform":{"location":{"x":-96.3143539428711,"y":11.27053165435791,"z":0.0015660476638004184},"rotation":{"pitch":0.08145000040531158,"yaw":-172.58811950683594,"roll":0.21896569430828094}},"velocity":{"x":-10.827738761901855,"y":-0.7110390067100525,"z":-1.5068053471622989e-05},"angular_velocity":{"x":0.8604424595832825,"y":-0.049983616918325424,"z":-43.679969787597656},"acceleration":{"x":-4.806613922119141,"y":8.820463180541992,"z":-0.00018615720910020173},"speed_mps":10.85106000192065,"speed_kph":39.063816006914344,"speed_limit_kph":30.0,"collisions_this_frame":[],"waypoint":{"x":-96.31268310546875,"y":11.444653511047363,"z":0.0},"lane_deviation_m":0.1741369217634201,"lane_width":3.5,"goal":{"x":-6.554497718811035,"y":137.2259521484375,"z":0.5999999642372131},"fault":{"name":"fault_free","severity":1.0},"capture_flags":{"save_rgb":true,"save_depth":false,"video_rgb":true,"video_depth":false}}
{"frame":63,"timestamp":{"delta_seconds":0.05000000074505806,"elapsed_seconds":4.900309341959655},"control":{"throttle":0.0,"steer":-0.1420000046491623,"brake":1.0,"hand_brake":false,"reverse":false,"manual_gear_shift":false,"gear":0},"transform":{"location":{"x":-96.858154296875,"y":11.22930908203125,"z":0.0016270064515993},"rotation":{"pitch":0.07091785222291946,"yaw":-174.5731201171875,"roll":0.22115927934646606}},"velocity":{"x":-10.92911148071289,"y":-0.521224319934845,"z":-5.9890744523727335e-06},"angular_velocity":{"x":-0.1777835637331009,"y":-0.2837578058242798,"z":-36.690364837646484},"acceleration":{"x":-2.027454376220703,"y":3.7962937355041504,"z":0.0001815795840229839},"speed_mps":10.941533372867704,"speed_kph":39.38952014232374,"speed_limit_kph":30.0,"collisions_this_frame":[],"waypoint":{"x":-96.79718780517578,"y":11.191773414611816,"z":0.0},"lane_deviation_m":0.07161345332860947,"lane_width":3.5,"goal":{"x":-6.554497718811035,"y":137.2259521484375,"z":0.5999999642372131},"fault":{"name":"fault_free","severity":1.0},"capture_flags":{"save_rgb":true,"save_depth":false,"video_rgb":true,"video_depth":false}}
{"frame":64,"timestamp":{"delta_seconds":0.05000000074505806,"elapsed_seconds":4.950309342704713},"control":{"throttle":0.0,"steer":-0.17499999701976776,"brake":1.0,"hand_brake":false,"reverse":false,"manual_gear_shift":false,"gear":0},"transform":{"location":{"x":-97.40127563476562,"y":11.202698707580566,"z":0.0017346953973174095},"rotation":{"pitch":0.05256513133645058,"yaw":-176.38714599609375,"roll":0.22545044124126434}},"velocity":{"x":-10.830026626586914,"y":-0.1884043663740158,"z":1.983642505365424e-06},"angular_velocity":{"x":0.17463921010494232,"y":-0.4105371832847595,"z":-36.14871597290039},"acceleration":{"x":1.9816970825195312,"y":6.656398773193359,"z":0.00015945434279274195},"speed_mps":10.831665289227427,"speed_kph":38.99399504121874,"speed_limit_kph":30.0,"collisions_this_frame":[],"waypoint":{"x":-97.17411041259766,"y":10.978206634521484,"z":0.0},"lane_deviation_m":0.3193802535533905,"lane_width":3.5,"goal":{"x":-6.554497718811035,"y":137.2259521484375,"z":0.5999999642372131},"fault":{"name":"fault_free","severity":1.0},"capture_flags":{"save_rgb":true,"save_depth":false,"video_rgb":true,"video_depth":false}}
{"frame":65,"timestamp":{"delta_seconds":0.05000000074505806,"elapsed_seconds":5.000309343449771},"control":{"throttle":0.6241782903671265,"steer":-0.12600000202655792,"brake":0.0,"hand_brake":false,"reverse":false,"manual_gear_shift":false,"gear":0},"transform":{"location":{"x":-97.93739318847656,"y":11.189465522766113,"z":0.0018582153134047985},"rotation":{"pitch":0.0314803384244442,"yaw":-177.9910430908203,"roll":0.21514929831027985}},"velocity":{"x":-10.670798301696777,"y":0.007509791292250156,"z":8.573531886213459e-06},"angular_velocity":{"x":-0.22113491594791412,"y":-0.4183838963508606,"z":-29.805782318115234},"acceleration":{"x":3.1845664978027344,"y":3.918283224105835,"z":0.0001317977876169607},"speed_mps":10.670800944284059,"speed_kph":38.414883399422614,"speed_limit_kph":30.0,"collisions_this_frame":[],"waypoint":{"x":-97.59039306640625,"y":10.724188804626465,"z":0.0},"lane_deviation_m":0.5804265737533569,"lane_width":3.5,"goal":{"x":-6.554497718811035,"y":137.2259521484375,"z":0.5999999642372131},"fault":{"name":"fault_free","severity":1.0},"capture_flags":{"save_rgb":true,"save_depth":false,"video_rgb":true,"video_depth":false}}
{"frame":66,"timestamp":{"delta_seconds":0.05000000074505806,"elapsed_seconds":5.0503093441948295},"control":{"throttle":0.5741783380508423,"steer":-0.13199999928474426,"brake":0.0,"hand_brake":false,"reverse":false,"manual_gear_shift":false,"gear":0},"transform":{"location":{"x":-98.46720123291016,"y":11.188512802124023,"z":0.0019533538725227118},"rotation":{"pitch":0.015299622900784016,"yaw":-179.4393310546875,"roll":0.20886169373989105}},"velocity":{"x":-10.570015907287598,"y":0.2498510628938675,"z":8.459091077384073e-06},"angular_velocity":{"x":-0.0714319497346878,"y":-0.2551882266998291,"z":-28.582284927368164},"acceleration":{"x":2.0156478881835938,"y":4.846825122833252,"z":-2.2888161765877157e-06},"speed_mps":10.572968449494853,"speed_kph":38.06268641818147,"speed_limit_kph":30.0,"collisions_this_frame":[],"waypoint":{"x":-98.6621322631836,"y":11.971996307373047,"z":0.0},"lane_deviation_m":0.8073712587356567,"lane_width":3.5,"goal":{"x":-6.554497718811035,"y":137.2259521484375,"z":0.5999999642372131},"fault":{"name":"fault_free","severity":1.0},"capture_flags":{"save_rgb":true,"save_depth":false,"video_rgb":true,"video_depth":false}}
{"frame":67,"timestamp":{"delta_seconds":0.05000000074505806,"elapsed_seconds":5.1003093449398875},"control":{"throttle":0.5241783261299133,"steer":-0.11400000005960464,"brake":0.0,"hand_brake":false,"reverse":false,"manual_gear_shift":false,"gear":0},"transform":{"location":{"x":-98.99388122558594,"y":11.19931411743164,"z":0.002006873954087496},"rotation":{"pitch":0.006249622907489538,"yaw":179.24903869628906,"roll":0.20068562030792236}},"velocity":{"x":-10.517560958862305,"y":0.4536650776863098,"z":9.288787623518147e-06},"angular_velocity":{"x":-0.1671968251466751,"y":-0.13505378365516663,"z":-25.151214599609375},"acceleration":{"x":1.0490989685058594,"y":4.076280117034912,"z":1.6593930922681466e-05},"speed_mps":10.527340619842363,"speed_kph":37.89842623143251,"speed_limit_kph":30.0,"collisions_this_frame":[],"waypoint":{"x":-99.19058990478516,"y":11.773788452148438,"z":0.0},"lane_deviation_m":0.6072224378585815,"lane_width":3.5,"goal":{"x":-6.554497718811035,"y":137.2259521484375,"z":0.5999999642372131},"fault":{"name":"fault_free","severity":1.0},"capture_flags":{"save_rgb":true,"save_depth":false,"video_rgb":true,"video_depth":false}}
{"frame":68,"timestamp":{"delta_seconds":0.05000000074505806,"elapsed_seconds":5.150309345684946},"control":{"throttle":0.0,"steer":-0.054999999701976776,"brake":1.0,"hand_brake":false,"reverse":false,"manual_gear_shift":false,"gear":0},"transform":{"location":{"x":-99.51880645751953,"y":11.216940879821777,"z":0.0020352171268314123},"rotation":{"pitch":0.001372867962345481,"yaw":178.2266387939453,"roll":0.1720121055841446}},"velocity":{"x":-10.473088264465332,"y":0.5021585822105408,"z":1.3265609595691785e-05},"angular_velocity":{"x":-0.5914857387542725,"y":-0.07666291296482086,"z":-18.06814193725586},"acceleration":{"x":0.8894538879394531,"y":0.9698700904846191,"z":7.953643944347277e-05},"speed_mps":10.485119982009987,"speed_kph":37.746431935235954,"speed_limit_kph":30.0,"collisions_this_frame":[],"waypoint":{"x":-99.59207153320312,"y":11.609176635742188,"z":0.0},"lane_deviation_m":0.3990248143672943,"lane_width":3.5,"goal":{"x":-6.554497718811035,"y":137.2259521484375,"z":0.5999999642372131},"fault":{"name":"fault_free","severity":1.0},"capture_flags":{"save_rgb":true,"save_depth":false,"video_rgb":true,"video_depth":false}}
{"frame":69,"timestamp":{"delta_seconds":0.05000000074505806,"elapsed_seconds":5.200309346430004},"control":{"throttle":0.4241783022880554,"steer":0.06800000369548798,"brake":0.0,"hand_brake":false,"reverse":false,"manual_gear_shift":false,"gear":0},"transform":{"location":{"x":-100.03997802734375,"y":11.233826637268066,"z":0.00206554401665926},"rotation":{"pitch":-0.0038180756382644176,"yaw":177.7769012451172,"roll":0.11306018382310867}},"velocity":{"x":-10.389762878417969,"y":0.3145762085914612,"z":2.063751162495464e-05},"angular_velocity":{"x":-1.3600726127624512,"y":-0.04830344393849373,"z":-2.944410800933838},"acceleration":{"x":1.6665077209472656,"y":-3.751647472381592,"z":0.0001474380405852571},"speed_mps":10.394524080552689,"speed_kph":37.42028668998968,"speed_limit_kph":30.0,"collisions_this_frame":[],"waypoint":{"x":-100.07279968261719,"y":11.395517349243164,"z":0.0},"lane_deviation_m":0.1650012582540512,"lane_width":3.5,"goal":{"x":-6.554497718811035,"y":137.2259521484375,"z":0.5999999642372131},"fault":{"name":"fault_free","severity":1.0},"capture_flags":{"save_rgb":true,"save_depth":false,"video_rgb":true,"video_depth":false}}
{"frame":70,"timestamp":{"delta_seconds":0.05000000074505806,"elapsed_seconds":5.250309347175062},"control":{"throttle":0.37417832016944885,"steer":0.0689999982714653,"brake":0.0,"hand_brake":false,"reverse":false,"manual_gear_shift":false,"gear":0},"transform":{"location":{"x":-100.55715942382812,"y":11.24532699584961,"z":0.0020898436196148396},"rotation":{"pitch":-0.007902528159320354,"yaw":177.92645263671875,"roll":0.0576186440885067}},"velocity":{"x":-10.317208290100098,"y":0.166964590549469,"z":1.8634795196703635e-05},"angular_velocity":{"x":-0.9204761385917664,"y":-0.03232512250542641,"z":5.966105937957764},"acceleration":{"x":1.4510917663574219,"y":-2.9522323608398438,"z":-4.0054328565020114e-05},"speed_mps":10.318559205439236,"speed_kph":37.14681313958125,"speed_limit_kph":30.0,"collisions_this_frame":[],"waypoint":{"x":-100.45040130615234,"y":11.21456527709961,"z":0.0},"lane_deviation_m":0.11112131923437119,"lane_width":3.5,"goal":{"x":-6.554497718811035,"y":137.2259521484375,"z":0.5999999642372131},"fault":{"name":"fault_free","severity":1.0},"capture_flags":{"save_rgb":true,"save_depth":false,"video_rgb":true,"video_depth":false}}
{"frame":71,"timestamp":{"delta_seconds":0.05000000074505806,"elapsed_seconds":5.30030934792012},"control":{"throttle":0.3241783082485199,"steer":0.2840000092983246,"brake":0.0,"hand_brake":false,"reverse":false,"manual_gear_shift":false,"gear":0},"transform":{"location":{"x":-101.07034301757812,"y":11.248502731323242,"z":0.0021097182761877775},"rotation":{"pitch":-0.011174188926815987,"yaw":178.5941925048828,"roll":-0.0034179682843387127}},"velocity":{"x":-10.22553539276123,"y":-0.15390677750110626,"z":1.2359619177004788e-05},"angular_velocity":{"x":-1.4408658742904663,"y":-0.03291858360171318,"z":18.927391052246094},"acceleration":{"x":1.8334579467773438,"y":-6.417427062988281,"z":-0.00012550351675599813},"speed_mps":10.226693569523148,"speed_kph":36.81609685028333,"speed_limit_kph":30.0,"collisions_this_frame":[],"waypoint":{"x":-100.8864517211914,"y":10.990619659423828,"z":0.0},"lane_deviation_m":0.31673985719680786,"lane_width":3.5,"goal":{"x":-6.554497718811035,"y":137.2259521484375,"z":0.5999999642372131},"fault":{"name":"fault_free","severity":1.0},"capture_flags":{"save_rgb":true,"save_depth":false,"video_rgb":true,"video_depth":false}}
{"frame":72,"timestamp":{"delta_seconds":0.05000000074505806,"elapsed_seconds":5.350309348665178},"control":{"throttle":0.27417832612991333,"steer":0.3919999897480011,"brake":0.0,"hand_brake":false,"reverse":false,"manual_gear_shift":false,"gear":0},"transform":{"location":{"x":-101.576904296875,"y":11.233892440795898,"z":0.002138328505679965},"rotation":{"pitch":-0.015928000211715698,"yaw":-179.95689392089844,"roll":-0.08734130859375}},"velocity":{"x":-10.060293197631836,"y":-0.668189525604248,"z":-3.337860050578456e-07},"angular_velocity":{"x":-1.7844243049621582,"y":-0.1088123545050621,"z":36.0836296081543},"acceleration":{"x":3.3048439025878906,"y":-10.28565502166748,"z":-0.00025386811466887593},"speed_mps":10.082458850124048,"speed_kph":36.29685186044657,"speed_limit_kph":30.0,"collisions_this_frame":[],"waypoint":{"x":-101.24540710449219,"y":10.793710708618164,"z":0.0},"lane_deviation_m":0.5510489344596863,"lane_width":3.5,"goal":{"x":-6.554497718811035,"y":137.2259521484375,"z":0.5999999642372131},"fault":{"name":"fault_free","severity":1.0},"capture_flags":{"save_rgb":true,"save_depth":false,"video_rgb":true,"video_depth":false}}
{"frame":73,"timestamp":{"delta_seconds":0.05000000074505806,"elapsed_seconds":5.400309349410236},"control":{"throttle":0.22417831420898438,"steer":0.10400000214576721,"brake":0.0,"hand_brake":false,"reverse":false,"manual_gear_shift":false,"gear":0},"transform":{"location":{"x":-102.0771255493164,"y":11.20389461517334,"z":0.0021529770456254482},"rotation":{"pitch":-0.0184005293995142,"yaw":-178.17703247070312,"roll":-0.12060543149709702}},"velocity":{"x":-9.97520923614502,"y":-0.8224164247512817,"z":-9.088515980693046e-06},"angular_velocity":{"x":0.11795602738857269,"y":-0.010679809376597404,"z":32.289302825927734},"acceleration":{"x":1.7016792297363281,"y":-3.084537982940674,"z":-0.00017509459576103836},"speed_mps":10.009054305010848,"speed_kph":36.03259549803905,"speed_limit_kph":30.0,"collisions_this_frame":[],"waypoint":{"x":-101.6424560546875,"y":10.56208324432373,"z":0.0},"lane_deviation_m":0.7751542329788208,"lane_width":3.5,"goal":{"x":-6.554497718811035,"y":137.2259521484375,"z":0.5999999642372131},"fault":{"name":"fault_free","severity":1.0},"capture_flags":{"save_rgb":true,"save_depth":false,"video_rgb":true,"video_depth":false}}
{"frame":74,"timestamp":{"delta_seconds":0.05000000074505806,"elapsed_seconds":5.450309350155294},"control":{"throttle":0.1741783171892166,"steer":0.05000000074505806,"brake":0.0,"hand_brake":false,"reverse":false,"manual_gear_shift":false,"gear":0},"transform":{"location":{"x":-102.57424926757812,"y":11.172228813171387,"z":0.0021538925357162952},"rotation":{"pitch":-0.018680566921830177,"yaw":-176.9676513671875,"roll":-0.0919189304113388}},"velocity":{"x":-9.906291007995605,"y":-0.7706219553947449,"z":-2.4509429294994334e-06},"angular_velocity":{"x":0.5367843508720398,"y":0.019391829147934914,"z":19.954627990722656},"acceleration":{"x":1.3783645629882812,"y":1.0358893871307373,"z":0.00013275146193336695},"speed_mps":9.936219589624468,"speed_kph":35.770390522648086,"speed_limit_kph":30.0,"collisions_this_frame":[],"waypoint":{"x":-101.98117065429688,"y":10.352497100830078,"z":0.0},"lane_deviation_m":1.0117840766906738,"lane_width":3.5,"goal":{"x":-6.554497718811035,"y":137.2259521484375,"z":0.5999999642372131},"fault":{"name":"fault_free","severity":1.0},"capture_flags":{"save_rgb":true,"save_depth":false,"video_rgb":true,"video_depth":false}}
{"frame":75,"timestamp":{"delta_seconds":0.05000000074505806,"elapsed_seconds":5.500309350900352},"control":{"throttle":0.12417831271886826,"steer":0.26100000739097595,"brake":0.0,"hand_brake":false,"reverse":false,"manual_gear_shift":false,"gear":0},"transform":{"location":{"x":-103.06607055664062,"y":11.133197784423828,"z":0.0021636199671775103},"rotation":{"pitch":-0.0202924907207489,"yaw":-175.91241455078125,"roll":-0.1029662936925888}},"velocity":{"x":-9.765990257263184,"y":-1.0316301584243774,"z":1.7166136956348055e-07},"angular_velocity":{"x":-0.6759457588195801,"y":-0.09897635132074356,"z":23.577442169189453},"acceleration":{"x":2.8060150146484375,"y":-5.2201642990112305,"z":5.245208740234375e-05},"speed_mps":9.82032720884239,"speed_kph":35.353177951832606,"speed_limit_kph":30.0,"collisions_this_frame":[],"waypoint":{"x":-102.3350830078125,"y":10.121110916137695,"z":0.0},"lane_deviation_m":1.2484660148620605,"lane_width":3.5,"goal":{"x":-6.554497718811035,"y":137.2259521484375,"z":0.5999999642372131},"fault":{"name":"fault_free","severity":1.0},"capture_flags":{"save_rgb":true,"save_depth":false,"video_rgb":true,"video_depth":false}}
