{"frame":1285007,"timestamp":{"delta_seconds":0.05000000074505806,"elapsed_seconds":12454.079126441851},"control":{"throttle":0.0,"steer":0.0,"brake":1.0,"hand_brake":false,"reverse":false,"manual_gear_shift":false,"gear":0},"transform":{"location":{"x":-87.6230239868164,"y":12.967159271240234,"z":0.48239994049072266},"rotation":{"pitch":0.0,"yaw":-179.84078979492188,"roll":0.0}},"velocity":{"x":0.0,"y":0.0,"z":-1.470000147819519},"angular_velocity":{"x":0.0,"y":0.0,"z":0.0},"acceleration":{"x":0.0,"y":0.0,"z":-9.80000114440918},"speed_mps":1.470000147819519,"speed_kph":5.2920005321502686,"speed_limit_kph":30.0,"collisions_this_frame":[],"waypoint":{"x":-87.62295532226562,"y":12.94051742553711,"z":0.0},"lane_deviation_m":0.48313507437705994,"lane_width":3.5,"goal":{"x":106.00283813476562,"y":92.81285095214844,"z":0.5999999642372131},"fault":{"name":"fault_free","severity":1.0},"capture_flags":{"save_rgb":true,"save_depth":false,"video_rgb":true,"video_depth":false}}
{"frame":1285008,"timestamp":{"delta_seconds":0.05000000074505806,"elapsed_seconds":12454.129126442596},"control":{"throttle":0.0,"steer":0.2930000126361847,"brake":1.0,"hand_brake":false,"reverse":false,"manual_gear_shift":false,"gear":0},"transform":{"location":{"x":-87.6230239868164,"y":12.967159271240234,"z":0.394199937582016},"rotation":{"pitch":0.0,"yaw":-179.84078979492188,"roll":0.0}},"velocity":{"x":0.0,"y":0.0,"z":-1.9600002765655518},"angular_velocity":{"x":0.0,"y":0.0,"z":0.0},"acceleration":{"x":0.0,"y":0.0,"z":-9.800003051757812},"speed_mps":1.9600002765655518,"speed_kph":7.056000995635986,"speed_limit_kph":30.0,"collisions_this_frame":[],"waypoint":{"x":-87.62295532226562,"y":12.94051742553711,"z":0.0},"lane_deviation_m":0.3950991928577423,"lane_width":3.5,"goal":{"x":106.00283813476562,"y":92.81285095214844,"z":0.5999999642372131},"fault":{"name":"fault_free","severity":1.0},"capture_flags":{"save_rgb":true,"save_depth":false,"video_rgb":true,"video_depth":false}}
{"frame":1285009,"timestamp":{"delta_seconds":0.05000000074505806,"elapsed_seconds":12454.179126443341},"control":{"throttle":0.0,"steer":0.3959999978542328,"brake":1.0,"hand_brake":false,"reverse":false,"manual_gear_shift":false,"gear":0},"transform":{"location":{"x":-87.6230239868164,"y":12.967159271240234,"z":0.281499981880188},"rotation":{"pitch":0.0,"yaw":-179.84078979492188,"roll":0.0}},"velocity":{"x":0.0,"y":0.0,"z":-2.450000286102295},"angular_velocity":{"x":0.0,"y":0.0,"z":0.0},"acceleration":{"x":0.0,"y":0.0,"z":-9.800000190734863},"speed_mps":2.450000286102295,"speed_kph":8.820001029968262,"speed_limit_kph":30.0,"collisions_this_frame":[],"waypoint":{"x":-87.62295532226562,"y":12.94051742553711,"z":0.0},"lane_deviation_m":0.2827579081058502,"lane_width":3.5,"goal":{"x":106.00283813476562,"y":92.81285095214844,"z":0.5999999642372131},"fault":{"name":"fault_free","severity":1.0},"capture_flags":{"save_rgb":true,"save_depth":false,"video_rgb":true,"video_depth":false}}
{"frame":1285010,"timestamp":{"delta_seconds":0.05000000074505806,"elapsed_seconds":12454.229126444086},"control":{"throttle":0.0,"steer":0.20800000429153442,"brake":1.0,"hand_brake":false,"reverse":false,"manual_gear_shift":false,"gear":0},"transform":{"location":{"x":-87.6230239868164,"y":12.967159271240234,"z":0.14429987967014313},"rotation":{"pitch":0.0,"yaw":-179.84078979492188,"roll":0.0}},"velocity":{"x":0.0,"y":0.0,"z":-2.93999981880188},"angular_velocity":{"x":0.0,"y":0.0,"z":0.0},"acceleration":{"x":0.0,"y":0.0,"z":-9.7999906539917},"speed_mps":2.93999981880188,"speed_kph":10.583999347686769,"speed_limit_kph":30.0,"collisions_this_frame":[],"waypoint":{"x":-87.62295532226562,"y":12.94051742553711,"z":0.0},"lane_deviation_m":0.1467387080192566,"lane_width":3.5,"goal":{"x":106.00283813476562,"y":92.81285095214844,"z":0.5999999642372131},"fault":{"name":"fault_free","severity":1.0},"capture_flags":{"save_rgb":true,"save_depth":false,"video_rgb":true,"video_depth":false}}
{"frame":1285011,"timestamp":{"delta_seconds":0.05000000074505806,"elapsed_seconds":12454.279126444831},"control":{"throttle":0.0,"steer":0.27900001406669617,"brake":1.0,"hand_brake":false,"reverse":false,"manual_gear_shift":false,"gear":0},"transform":{"location":{"x":-87.62305450439453,"y":12.965801239013672,"z":0.00950542464852333},"rotation":{"pitch":0.0811699628829956,"yaw":-179.78631591796875,"roll":-0.2052612006664276}},"velocity":{"x":0.010254859924316406,"y":0.014750277623534203,"z":-1.9992612600326538},"angular_velocity":{"x":-5.9935126304626465,"y":2.6394155025482178,"z":0.4981948137283325},"acceleration":{"x":0.20509719848632812,"y":0.29500555992126465,"z":18.81477165222168},"speed_mps":1.9993419714269476,"speed_kph":7.197631097137012,"speed_limit_kph":30.0,"collisions_this_frame":[],"waypoint":{"x":-87.62298583984375,"y":12.94051742553711,"z":0.0},"lane_deviation_m":0.027011645957827568,"lane_width":3.5,"goal":{"x":106.00283813476562,"y":92.81285095214844,"z":0.5999999642372131},"fault":{"name":"fault_free","severity":1.0},"capture_flags":{"save_rgb":true,"save_depth":false,"video_rgb":true,"video_depth":false}}
{"frame":1285012,"timestamp":{"delta_seconds":0.05000000074505806,"elapsed_seconds":12454.329126445577},"control":{"throttle":0.0,"steer":0.21400000154972076,"brake":1.0,"hand_brake":false,"reverse":false,"manual_gear_shift":false,"gear":0},"transform":{"location":{"x":-87.62346649169922,"y":12.965276718139648,"z":-0.04778530076146126},"rotation":{"pitch":0.19069203734397888,"yaw":-179.76705932617188,"roll":-0.41513046622276306}},"velocity":{"x":0.004855478182435036,"y":0.01298938225954771,"z":-0.6874266862869263},"angular_velocity":{"x":-2.74466872215271,"y":1.648366928100586,"z":0.2395995557308197},"acceleration":{"x":-0.10798763483762741,"y":-0.03521790727972984,"z":26.236690521240234},"speed_mps":0.6875665413174851,"speed_kph":2.4752395487429464,"speed_limit_kph":30.0,"collisions_this_frame":[],"waypoint":{"x":-87.62339782714844,"y":12.940515518188477,"z":0.0},"lane_deviation_m":0.053819671273231506,"lane_width":3.5,"goal":{"x":106.00283813476562,"y":92.81285095214844,"z":0.5999999642372131},"fault":{"name":"fault_free","severity":1.0},"capture_flags":{"save_rgb":true,"save_depth":false,"video_rgb":true,"video_depth":false}}
{"frame":1285013,"timestamp":{"delta_seconds":0.05000000074505806,"elapsed_seconds":12454.379126446322},"control":{"throttle":0.0,"steer":0.2759999930858612,"brake":1.0,"hand_brake":false,"reverse":false,"manual_gear_shift":false,"gear":0},"transform":{"location":{"x":-87.62350463867188,"y":12.965654373168945,"z":-0.06220325455069542},"rotation":{"pitch":0.20342351496219635,"yaw":-179.76332092285156,"roll":-0.4011535346508026}},"velocity":{"x":-0.0007658103131689131,"y":0.004536348860710859,"z":-0.07798101007938385},"angular_velocity":{"x":3.128258466720581,"y":-1.0709642171859741,"z":0.032933756709098816},"acceleration":{"x":-0.11242576688528061,"y":-0.16906067728996277,"z":12.188913345336914},"speed_mps":0.07811659784849052,"speed_kph":0.2812197522545659,"speed_limit_kph":30.0,"collisions_this_frame":[],"waypoint":{"x":-87.6234359741211,"y":12.940515518188477,"z":0.0},"lane_deviation_m":0.06709107011556625,"lane_width":3.5,"goal":{"x":106.00283813476562,"y":92.81285095214844,"z":0.5999999642372131},"fault":{"name":"fault_free","severity":1.0},"capture_flags":{"save_rgb":true,"save_depth":false,"video_rgb":true,"video_depth":false}}
{"frame":1285014,"timestamp":{"delta_seconds":0.05000000074505806,"elapsed_seconds":12454.429126447067},"control":{"throttle":0.0,"steer":0.15299999713897705,"brake":1.0,"hand_brake":false,"reverse":false,"manual_gear_shift":false,"gear":0},"transform":{"location":{"x":-87.6232681274414,"y":12.966043472290039,"z":-0.05819953605532646},"rotation":{"pitch":0.16573452949523926,"yaw":-179.764892578125,"roll":-0.3276977241039276}},"velocity":{"x":-0.0016110402066260576,"y":-0.0017943172715604305,"z":0.14713908731937408},"angular_velocity":{"x":1.4482660293579102,"y":-0.7479819059371948,"z":-0.0763525441288948},"acceleration":{"x":-0.016904598101973534,"y":-0.1266133189201355,"z":4.502401828765869},"speed_mps":0.14715884629269413,"speed_kph":0.5297718466536989,"speed_limit_kph":30.0,"collisions_this_frame":[],"waypoint":{"x":-87.62319946289062,"y":12.940515518188477,"z":0.0},"lane_deviation_m":0.06355208158493042,"lane_width":3.5,"goal":{"x":106.00283813476562,"y":92.81285095214844,"z":0.5999999642372131},"fault":{"name":"fault_free","severity":1.0},"capture_flags":{"save_rgb":true,"save_depth":false,"video_rgb":true,"video_depth":false}}
{"frame":1285015,"timestamp":{"delta_seconds":0.05000000074505806,"elapsed_seconds":12454.479126447812},"control":{"throttle":0.0,"steer":0.2150000035762787,"brake":1.0,"hand_brake":false,"reverse":false,"manual_gear_shift":false,"gear":0},"transform":{"location":{"x":-87.62310028076172,"y":12.966458320617676,"z":-0.04826167970895767},"rotation":{"pitch":0.12851683795452118,"yaw":-179.76881408691406,"roll":-0.2575683295726776}},"velocity":{"x":-0.0019496687455102801,"y":-0.0012943827314302325,"z":0.21232271194458008},"angular_velocity":{"x":1.3594609498977661,"y":-0.7201858758926392,"z":-0.08873957395553589},"acceleration":{"x":-0.00677257077768445,"y":0.009998690336942673,"z":1.3036725521087646},"speed_mps":0.21233560851250025,"speed_kph":0.7644081906450009,"speed_limit_kph":30.0,"collisions_this_frame":[],"waypoint":{"x":-87.62303161621094,"y":12.940515518188477,"z":0.0},"lane_deviation_m":0.05479254946112633,"lane_width":3.5,"goal":{"x":106.00283813476562,"y":92.81285095214844,"z":0.5999999642372131},"fault":{"name":"fault_free","severity":1.0},"capture_flags":{"save_rgb":true,"save_depth":false,"video_rgb":true,"video_depth":false}}
{"frame":1285016,"timestamp":{"delta_seconds":0.05000000074505806,"elapsed_seconds":12454.529126448557},"control":{"throttle":0.0,"steer":0.21699999272823334,"brake":1.0,"hand_brake":false,"reverse":false,"manual_gear_shift":false,"gear":0},"transform":{"location":{"x":-87.62297058105469,"y":12.966838836669922,"z":-0.03740837052464485},"rotation":{"pitch":0.09549286961555481,"yaw":-179.7731170654297,"roll":-0.1964111179113388}},"velocity":{"x":-0.001924898591823876,"y":-0.0006096726283431053,"z":0.2082146257162094},"angular_velocity":{"x":1.1280006170272827,"y":-0.6060999035835266,"z":-0.08902347832918167},"acceleration":{"x":0.0004954030737280846,"y":0.013694202527403831,"z":-0.08216172456741333},"speed_mps":0.2082244157092144,"speed_kph":0.7496078965531718,"speed_limit_kph":30.0,"collisions_this_frame":[],"waypoint":{"x":-87.6229019165039,"y":12.94051742553711,"z":0.0},"lane_deviation_m":0.045740656554698944,"lane_width":3.5,"goal":{"x":106.00283813476562,"y":92.81285095214844,"z":0.5999999642372131},"fault":{"name":"fault_free","severity":1.0},"capture_flags":{"save_rgb":true,"save_depth":false,"video_rgb":true,"video_depth":false}}
{"frame":1285017,"timestamp":{"delta_seconds":0.05000000074505806,"elapsed_seconds":12454.579126449302},"control":{"throttle":0.0,"steer":0.1979999989271164,"brake":1.0,"hand_brake":false,"reverse":false,"manual_gear_shift":false,"gear":0},"transform":{"location":{"x":-87.62287902832031,"y":12.967168807983398,"z":-0.027703169733285904},"rotation":{"pitch":0.06915566325187683,"yaw":-179.7775421142578,"roll":-0.1477661281824112}},"velocity":{"x":-0.0017972791101783514,"y":0.00027115404373034835,"z":0.17787249386310577},"angular_velocity":{"x":0.8675209283828735,"y":-0.4652920365333557,"z":-0.08656829595565796},"acceleration":{"x":0.00255238963291049,"y":0.017616532742977142,"z":-0.6068426370620728},"speed_mps":0.17788178043238695,"speed_kph":0.6403744095565931,"speed_limit_kph":30.0,"collisions_this_frame":[],"waypoint":{"x":-87.62281036376953,"y":12.94051742553711,"z":0.0},"lane_deviation_m":0.0384417288005352,"lane_width":3.5,"goal":{"x":106.00283813476562,"y":92.81285095214844,"z":0.5999999642372131},"fault":{"name":"fault_free","severity":1.0},"capture_flags":{"save_rgb":true,"save_depth":false,"video_rgb":true,"video_depth":false}}
{"frame":1285018,"timestamp":{"delta_seconds":0.05000000074505806,"elapsed_seconds":12454.629126450047},"control":{"throttle":0.0,"steer":0.23100000619888306,"brake":1.0,"hand_brake":false,"reverse":false,"manual_gear_shift":false,"gear":0},"transform":{"location":{"x":-87.62281036376953,"y":12.96744441986084,"z":-0.019766006618738174},"rotation":{"pitch":0.05087807774543762,"yaw":-179.78085327148438,"roll":-0.1142578125}},"velocity":{"x":-0.0014222445897758007,"y":0.0013506892137229443,"z":0.14233358204364777},"angular_velocity":{"x":0.5624282956123352,"y":-0.3024555444717407,"z":-0.06317700445652008},"acceleration":{"x":0.007500690408051014,"y":0.0215907022356987,"z":-0.7107782363891602},"speed_mps":0.14234709592542105,"speed_kph":0.5124495453315158,"speed_limit_kph":30.0,"collisions_this_frame":[],"waypoint":{"x":-87.62274169921875,"y":12.94051742553711,"z":0.0},"lane_deviation_m":0.03340303525328636,"lane_width":3.5,"goal":{"x":106.00283813476562,"y":92.81285095214844,"z":0.5999999642372131},"fault":{"name":"fault_free","severity":1.0},"capture_flags":{"save_rgb":true,"save_depth":false,"video_rgb":true,"video_depth":false}}
{"frame":1285019,"timestamp":{"delta_seconds":0.05000000074505806,"elapsed_seconds":12454.679126450792},"control":{"throttle":0.0,"steer":0.1889999955892563,"brake":1.0,"hand_brake":false,"reverse":false,"manual_gear_shift":false,"gear":0},"transform":{"location":{"x":-87.6227798461914,"y":12.967696189880371,"z":-0.013603744097054005},"rotation":{"pitch":0.03895256668329239,"yaw":-179.7841796875,"roll":-0.0915222093462944}},"velocity":{"x":-0.0012989416718482971,"y":0.002294871723279357,"z":0.1088661327958107},"angular_velocity":{"x":0.38118985295295715,"y":-0.19505919516086578,"z":-0.062367893755435944},"acceleration":{"x":0.0024660583585500717,"y":0.01888364925980568,"z":-0.669348955154419},"speed_mps":0.10889806497641848,"speed_kph":0.3920330339151065,"speed_limit_kph":30.0,"collisions_this_frame":[],"waypoint":{"x":-87.62271118164062,"y":12.94051742553711,"z":0.0},"lane_deviation_m":0.030393285676836967,"lane_width":3.5,"goal":{"x":106.00283813476562,"y":92.81285095214844,"z":0.5999999642372131},"fault":{"name":"fault_free","severity":1.0},"capture_flags":{"save_rgb":true,"save_depth":false,"video_rgb":true,"video_depth":false}}
{"frame":1285020,"timestamp":{"delta_seconds":0.05000000074505806,"elapsed_seconds":12454.729126451537},"control":{"throttle":0.0,"steer":0.2199999988079071,"brake":1.0,"hand_brake":false,"reverse":false,"manual_gear_shift":false,"gear":0},"transform":{"location":{"x":-87.6227798461914,"y":12.967909812927246,"z":-0.008965721353888512},"rotation":{"pitch":0.032340943813323975,"yaw":-179.78656005859375,"roll":-0.07861325889825821}},"velocity":{"x":-0.0010410326067358255,"y":0.0027857497334480286,"z":0.08147489279508591},"angular_velocity":{"x":0.1960858553647995,"y":-0.09631757438182831,"z":-0.044926341623067856},"acceleration":{"x":0.005158181302249432,"y":0.009817560203373432,"z":-0.5478248000144958},"speed_mps":0.08152915004117506,"speed_kph":0.2935049401482302,"speed_limit_kph":30.0,"collisions_this_frame":[],"waypoint":{"x":-87.6227035522461,"y":12.94051742553711,"z":0.0},"lane_deviation_m":0.028822436928749084,"lane_width":3.5,"goal":{"x":106.00283813476562,"y":92.81285095214844,"z":0.5999999642372131},"fault":{"name":"fault_free","severity":1.0},"capture_flags":{"save_rgb":true,"save_depth":false,"video_rgb":true,"video_depth":false}}
{"frame":1285021,"timestamp":{"delta_seconds":0.05000000074505806,"elapsed_seconds":12454.779126452282},"control":{"throttle":0.0,"steer":0.20800000429153442,"brake":1.0,"hand_brake":false,"reverse":false,"manual_gear_shift":false,"gear":0},"transform":{"location":{"x":-87.62281036376953,"y":12.968109130859375,"z":-0.005546951200813055},"rotation":{"pitch":0.029444944113492966,"yaw":-179.78863525390625,"roll":-0.07220458984375}},"velocity":{"x":-0.0009000051068142056,"y":0.0033323876559734344,"z":0.059801168739795685},"angular_velocity":{"x":0.08972584456205368,"y":-0.03602171316742897,"z":-0.0387478731572628},"acceleration":{"x":0.002820549998432398,"y":0.010932758450508118,"z":-0.43347448110580444},"speed_mps":0.05990070616718548,"speed_kph":0.21564254220186774,"speed_limit_kph":30.0,"collisions_this_frame":[],"waypoint":{"x":-87.62273406982422,"y":12.94051742553711,"z":0.0},"lane_deviation_m":0.028143856674432755,"lane_width":3.5,"goal":{"x":106.00283813476562,"y":92.81285095214844,"z":0.5999999642372131},"fault":{"name":"fault_free","severity":1.0},"capture_flags":{"save_rgb":true,"save_depth":false,"video_rgb":true,"video_depth":false}}
{"frame":1285022,"timestamp":{"delta_seconds":0.05000000074505806,"elapsed_seconds":12454.829126453027},"control":{"throttle":0.0,"steer":0.2070000022649765,"brake":1.0,"hand_brake":false,"reverse":false,"manual_gear_shift":false,"gear":0},"transform":{"location":{"x":-87.62284851074219,"y":12.968294143676758,"z":-0.0030648803804069757},"rotation":{"pitch":0.028939509764313698,"yaw":-179.7903289794922,"roll":-0.0701293870806694}},"velocity":{"x":-0.0007781773456372321,"y":0.003646605182439089,"z":0.043380007147789},"angular_velocity":{"x":0.01639341562986374,"y":0.0033189705573022366,"z":-0.032311249524354935},"acceleration":{"x":0.0024365552235394716,"y":0.0062843505293130875,"z":-0.32842323184013367},"speed_mps":0.043539962212662514,"speed_kph":0.15674386396558507,"speed_limit_kph":30.0,"collisions_this_frame":[],"waypoint":{"x":-87.62277221679688,"y":12.94051742553711,"z":0.0},"lane_deviation_m":0.027945401147007942,"lane_width":3.5,"goal":{"x":106.00283813476562,"y":92.81285095214844,"z":0.5999999642372131},"fault":{"name":"fault_free","severity":1.0},"capture_flags":{"save_rgb":true,"save_depth":false,"video_rgb":true,"video_depth":false}}
{"frame":1285023,"timestamp":{"delta_seconds":0.05000000074505806,"elapsed_seconds":12454.879126453772},"control":{"throttle":0.0,"steer":0.23399999737739563,"brake":1.0,"hand_brake":false,"reverse":false,"manual_gear_shift":false,"gear":0},"transform":{"location":{"x":-87.62290954589844,"y":12.968460083007812,"z":-0.0012790679465979338},"rotation":{"pitch":0.029984528198838234,"yaw":-179.7916717529297,"roll":-0.0711364597082138}},"velocity":{"x":-0.0006863528396934271,"y":0.003551407949998975,"z":0.03127126023173332},"angular_velocity":{"x":-0.03503629192709923,"y":0.028843913227319717,"z":-0.02497391775250435},"acceleration":{"x":0.0018364901188760996,"y":-0.0019039446488022804,"z":-0.2421749383211136},"speed_mps":0.03147976008689801,"speed_kph":0.11332713631283285,"speed_limit_kph":30.0,"collisions_this_frame":[],"waypoint":{"x":-87.62283325195312,"y":12.94051742553711,"z":0.0},"lane_deviation_m":0.027972020208835602,"lane_width":3.5,"goal":{"x":106.00283813476562,"y":92.81285095214844,"z":0.5999999642372131},"fault":{"name":"fault_free","severity":1.0},"capture_flags":{"save_rgb":true,"save_depth":false,"video_rgb":true,"video_depth":false}}
{"frame":1285024,"timestamp":{"delta_seconds":0.05000000074505806,"elapsed_seconds":12454.929126454517},"control":{"throttle":0.0,"steer":0.22699999809265137,"brake":1.0,"hand_brake":false,"reverse":false,"manual_gear_shift":false,"gear":0},"transform":{"location":{"x":-87.62297058105469,"y":12.96862506866455,"z":-4.615783382178051e-06},"rotation":{"pitch":0.03177403658628464,"yaw":-179.7928009033203,"roll":-0.0735473707318306}},"velocity":{"x":-0.000622017658315599,"y":0.003692107740789652,"z":0.02235342003405094},"angular_velocity":{"x":-0.054543085396289825,"y":0.0387299470603466,"z":-0.022249354049563408},"acceleration":{"x":0.0012867036275565624,"y":0.0028139958158135414,"z":-0.17835679650306702},"speed_mps":0.022664817509866812,"speed_kph":0.08159334303552053,"speed_limit_kph":30.0,"collisions_this_frame":[],"waypoint":{"x":-87.62289428710938,"y":12.94051742553711,"z":0.0},"lane_deviation_m":0.028107747435569763,"lane_width":3.5,"goal":{"x":106.00283813476562,"y":92.81285095214844,"z":0.5999999642372131},"fault":{"name":"fault_free","severity":1.0},"capture_flags":{"save_rgb":true,"save_depth":false,"video_rgb":true,"video_depth":false}}
{"frame":1285025,"timestamp":{"delta_seconds":0.05000000074505806,"elapsed_seconds":12454.979126455262},"control":{"throttle":0.0,"steer":0.19099999964237213,"brake":1.0,"hand_brake":false,"reverse":false,"manual_gear_shift":false,"gear":0},"transform":{"location":{"x":-87.62303161621094,"y":12.9688081741333,"z":0.0008990859496407211},"rotation":{"pitch":0.03384358435869217,"yaw":-179.79397583007812,"roll":-0.07647702097892761}},"velocity":{"x":-0.0005524818552657962,"y":0.004128565080463886,"z":0.015890643000602722},"angular_velocity":{"x":-0.06178554147481918,"y":0.04133237898349762,"z":-0.021744439378380775},"acceleration":{"x":0.0013907160609960556,"y":0.008729146793484688,"z":-0.1292555332183838},"speed_mps":0.0164275019645906,"speed_kph":0.05913900707252616,"speed_limit_kph":30.0,"collisions_this_frame":[],"waypoint":{"x":-87.62295532226562,"y":12.94051742553711,"z":0.0},"lane_deviation_m":0.028305133804678917,"lane_width":3.5,"goal":{"x":106.00283813476562,"y":92.81285095214844,"z":0.5999999642372131},"fault":{"name":"fault_free","severity":1.0},"capture_flags":{"save_rgb":true,"save_depth":false,"video_rgb":true,"video_depth":false}}
{"frame":1285026,"timestamp":{"delta_seconds":0.05000000074505806,"elapsed_seconds":12455.029126456007},"control":{"throttle":0.0,"steer":0.24899999797344208,"brake":1.0,"hand_brake":false,"reverse":false,"manual_gear_shift":false,"gear":0},"transform":{"location":{"x":-87.62309265136719,"y":12.96895980834961,"z":0.001537971431389451},"rotation":{"pitch":0.03597460314631462,"yaw":-179.7948760986328,"roll":-0.0799560546875}},"velocity":{"x":-0.0005499073886312544,"y":0.0034684347920119762,"z":0.011302434839308262},"angular_velocity":{"x":-0.06871385127305984,"y":0.04158884286880493,"z":-0.017060983926057816},"acceleration":{"x":5.1489332690835e-05,"y":-0.0132026057690382,"z":-0.0917641669511795},"speed_mps":0.0118354328750291,"speed_kph":0.04260755835010476,"speed_limit_kph":30.0,"collisions_this_frame":[],"waypoint":{"x":-87.62301635742188,"y":12.940515518188477,"z":0.0},"lane_deviation_m":0.028485940769314766,"lane_width":3.5,"goal":{"x":106.00283813476562,"y":92.81285095214844,"z":0.5999999642372131},"fault":{"name":"fault_free","severity":1.0},"capture_flags":{"save_rgb":true,"save_depth":false,"video_rgb":true,"video_depth":false}}
{"frame":1285027,"timestamp":{"delta_seconds":0.05000000074505806,"elapsed_seconds":12455.079126456752},"control":{"throttle":0.0,"steer":0.21899999678134918,"brake":1.0,"hand_brake":false,"reverse":false,"manual_gear_shift":false,"gear":0},"transform":{"location":{"x":-87.62312316894531,"y":12.969125747680664,"z":0.0019880293402820826},"rotation":{"pitch":0.03796219080686569,"yaw":-179.79571533203125,"roll":-0.08312985301017761}},"velocity":{"x":-0.0005057106609456241,"y":0.0037678037770092487,"z":0.007994233630597591},"angular_velocity":{"x":-0.061658937484025955,"y":0.0375765785574913,"z":-0.01696017198264599},"acceleration":{"x":0.0008839345537126064,"y":0.00598737969994545,"z":-0.06616402417421341},"speed_mps":0.008852110478028207,"speed_kph":0.031867597720901544,"speed_limit_kph":30.0,"collisions_this_frame":[],"waypoint":{"x":-87.623046875,"y":12.940515518188477,"z":0.0},"lane_deviation_m":0.028679318726062775,"lane_width":3.5,"goal":{"x":106.00283813476562,"y":92.81285095214844,"z":0.5999999642372131},"fault":{"name":"fault_free","severity":1.0},"capture_flags":{"save_rgb":true,"save_depth":false,"video_rgb":true,"video_depth":false}}
{"frame":1285028,"timestamp":{"delta_seconds":0.05000000074505806,"elapsed_seconds":12455.129126457497},"control":{"throttle":0.0,"steer":0.1850000023841858,"brake":1.0,"hand_brake":false,"reverse":false,"manual_gear_shift":false,"gear":0},"transform":{"location":{"x":-87.62313079833984,"y":12.969305992126465,"z":0.0023048401344567537},"rotation":{"pitch":0.039779018610715866,"yaw":-179.7965850830078,"roll":-0.08609006553888321}},"velocity":{"x":-0.00045287967077456415,"y":0.004129640758037567,"z":0.005675185937434435},"angular_velocity":{"x":-0.05811106786131859,"y":0.03417383134365082,"z":-0.01692490093410015},"acceleration":{"x":0.0010566198034211993,"y":0.007236739620566368,"z":-0.04638095200061798},"speed_mps":0.007033261562824145,"speed_kph":0.02531974162616692,"speed_limit_kph":30.0,"collisions_this_frame":[],"waypoint":{"x":-87.62305450439453,"y":12.940515518188477,"z":0.0},"lane_deviation_m":0.02888268418610096,"lane_width":3.5,"goal":{"x":106.00283813476562,"y":92.81285095214844,"z":0.5999999642372131},"fault":{"name":"fault_free","severity":1.0},"capture_flags":{"save_rgb":true,"save_depth":false,"video_rgb":true,"video_depth":false}}
{"frame":1285029,"timestamp":{"delta_seconds":0.05000000074505806,"elapsed_seconds":12455.179126458243},"control":{"throttle":0.0,"steer":0.2720000147819519,"brake":1.0,"hand_brake":false,"reverse":false,"manual_gear_shift":false,"gear":0},"transform":{"location":{"x":-87.6231460571289,"y":12.96945571899414,"z":0.002527427626773715},"rotation":{"pitch":0.04134996235370636,"yaw":-179.79734802246094,"roll":-0.0889587327837944}},"velocity":{"x":-0.0005070145125500858,"y":0.0031119459308683872,"z":0.0040023792535066605},"angular_velocity":{"x":-0.052140720188617706,"y":0.028447061777114868,"z":-0.013961786404252052},"acceleration":{"x":-0.0010826968355104327,"y":-0.0203538965433836,"z":-0.03345613181591034},"speed_mps":0.0050951261889658084,"speed_kph":0.01834245428027691,"speed_limit_kph":30.0,"collisions_this_frame":[],"waypoint":{"x":-87.6230697631836,"y":12.940515518188477,"z":0.0},"lane_deviation_m":0.02905045449733734,"lane_width":3.5,"goal":{"x":106.00283813476562,"y":92.81285095214844,"z":0.5999999642372131},"fault":{"name":"fault_free","severity":1.0},"capture_flags":{"save_rgb":true,"save_depth":false,"video_rgb":true,"video_depth":false}}
{"frame":1285030,"timestamp":{"delta_seconds":0.05000000074505806,"elapsed_seconds":12455.229126458988},"control":{"throttle":0.0,"steer":0.16200000047683716,"brake":1.0,"hand_brake":false,"reverse":false,"manual_gear_shift":false,"gear":0},"transform":{"location":{"x":-87.62315368652344,"y":12.96964168548584,"z":0.0026836395263671875},"rotation":{"pitch":0.042681850492954254,"yaw":-179.7981414794922,"roll":-0.0911254808306694}},"velocity":{"x":-0.00039272455614991486,"y":0.004282030742615461,"z":0.002865895861759782},"angular_velocity":{"x":-0.0450139194726944,"y":0.025792906060814857,"z":-0.01578962244093418},"acceleration":{"x":0.0022857990115880966,"y":0.023401696234941483,"z":-0.022729668766260147},"speed_mps":0.005167531223723656,"speed_kph":0.018603112405405162,"speed_limit_kph":30.0,"collisions_this_frame":[],"waypoint":{"x":-87.62307739257812,"y":12.940515518188477,"z":0.0},"lane_deviation_m":0.029249638319015503,"lane_width":3.5,"goal":{"x":106.00283813476562,"y":92.81285095214844,"z":0.5999999642372131},"fault":{"name":"fault_free","severity":1.0},"capture_flags":{"save_rgb":true,"save_depth":false,"video_rgb":true,"video_depth":false}}
{"frame":1285031,"timestamp":{"delta_seconds":0.05000000074505806,"elapsed_seconds":12455.279126459733},"control":{"throttle":0.0,"steer":0.26100000739097595,"brake":1.0,"hand_brake":false,"reverse":false,"manual_gear_shift":false,"gear":0},"transform":{"location":{"x":-87.6231689453125,"y":12.969757080078125,"z":0.0027954101096838713},"rotation":{"pitch":0.04391128197312355,"yaw":-179.79879760742188,"roll":-0.0938720554113388}},"velocity":{"x":-0.00014964744332246482,"y":0.0005148678901605308,"z":0.0021045373287051916},"angular_velocity":{"x":-0.06438376754522324,"y":0.024151191115379333,"z":-0.010812615975737572},"acceleration":{"x":0.004861542023718357,"y":-0.07534325867891312,"z":-0.015227170661091805},"speed_mps":0.0021717644139097802,"speed_kph":0.00781835189007521,"speed_limit_kph":30.0,"collisions_this_frame":[],"waypoint":{"x":-87.62309265136719,"y":12.940515518188477,"z":0.0},"lane_deviation_m":0.029374973848462105,"lane_width":3.5,"goal":{"x":106.00283813476562,"y":92.81285095214844,"z":0.5999999642372131},"fault":{"name":"fault_free","severity":1.0},"capture_flags":{"save_rgb":true,"save_depth":false,"video_rgb":true,"video_depth":false}}
{"frame":1285032,"timestamp":{"delta_seconds":0.05000000074505806,"elapsed_seconds":12455.329126460478},"control":{"throttle":0.0,"steer":0.23999999463558197,"brake":1.0,"hand_brake":false,"reverse":false,"manual_gear_shift":false,"gear":0},"transform":{"location":{"x":-87.62318420410156,"y":12.969752311706543,"z":0.0028338623233139515},"rotation":{"pitch":0.044799208641052246,"yaw":-179.79908752441406,"roll":-0.0960388109087944}},"velocity":{"x":-0.00010145783016923815,"y":0.00030930311186239123,"z":0.0010082265362143517},"angular_velocity":{"x":-0.06325870007276535,"y":0.02754826657474041,"z":-0.006401888094842434},"acceleration":{"x":0.0009637922630645335,"y":-0.0041112955659627914,"z":-0.021926216781139374},"speed_mps":0.00105947291359298,"speed_kph":0.003814102488934728,"speed_limit_kph":30.0,"collisions_this_frame":[],"waypoint":{"x":-87.62310791015625,"y":12.940515518188477,"z":0.0},"lane_deviation_m":0.029373912140727043,"lane_width":3.5,"goal":{"x":106.00283813476562,"y":92.81285095214844,"z":0.5999999642372131},"fault":{"name":"fault_free","severity":1.0},"capture_flags":{"save_rgb":true,"save_depth":false,"video_rgb":true,"video_depth":false}}
{"frame":1285033,"timestamp":{"delta_seconds":0.05000000074505806,"elapsed_seconds":12455.379126461223},"control":{"throttle":0.0,"steer":0.2240000069141388,"brake":1.0,"hand_brake":false,"reverse":false,"manual_gear_shift":false,"gear":0},"transform":{"location":{"x":-87.6231918334961,"y":12.969744682312012,"z":0.0028882978949695826},"rotation":{"pitch":0.04642479494214058,"yaw":-179.7994384765625,"roll":-0.0993042141199112}},"velocity":{"x":-0.00010155215568374842,"y":0.00032762764021754265,"z":0.0013778824359178543},"angular_velocity":{"x":-0.06391491740942001,"y":0.032932646572589874,"z":-0.007046967279165983},"acceleration":{"x":-1.8865102902054787e-06,"y":0.0003664905671030283,"z":0.007393117994070053},"speed_mps":0.0014199340541621824,"speed_kph":0.005111762594983857,"speed_limit_kph":30.0,"collisions_this_frame":[],"waypoint":{"x":-87.62311553955078,"y":12.940515518188477,"z":0.0},"lane_deviation_m":0.02937162108719349,"lane_width":3.5,"goal":{"x":106.00283813476562,"y":92.81285095214844,"z":0.5999999642372131},"fault":{"name":"fault_free","severity":1.0},"capture_flags":{"save_rgb":true,"save_depth":false,"video_rgb":true,"video_depth":false}}
{"frame":1285034,"timestamp":{"delta_seconds":0.05000000074505806,"elapsed_seconds":12455.429126461968},"control":{"throttle":0.0,"steer":0.23399999737739563,"brake":1.0,"hand_brake":false,"reverse":false,"manual_gear_shift":false,"gear":0},"transform":{"location":{"x":-87.62319946289062,"y":12.96973991394043,"z":0.0029474638868123293},"rotation":{"pitch":0.047947924584150314,"yaw":-179.7997283935547,"roll":-0.1021118089556694}},"velocity":{"x":-0.00010247975296806544,"y":0.0003126233641523868,"z":0.001337728463113308},"angular_velocity":{"x":-0.053163617849349976,"y":0.02924043871462345,"z":-0.006692597642540932},"acceleration":{"x":-1.8551945686340332e-05,"y":-0.0003000855213031173,"z":-0.0008030794560909271},"speed_mps":0.0013775895283450162,"speed_kph":0.004959322302042058,"speed_limit_kph":30.0,"collisions_this_frame":[],"waypoint":{"x":-87.62312316894531,"y":12.940515518188477,"z":0.0},"lane_deviation_m":0.02937275357544422,"lane_width":3.5,"goal":{"x":106.00283813476562,"y":92.81285095214844,"z":0.5999999642372131},"fault":{"name":"fault_free","severity":1.0},"capture_flags":{"save_rgb":true,"save_depth":false,"video_rgb":true,"video_depth":false}}
{"frame":1285035,"timestamp":{"delta_seconds":0.05000000074505806,"elapsed_seconds":12455.479126462713},"control":{"throttle":0.0,"steer":0.19300000369548798,"brake":1.0,"hand_brake":false,"reverse":false,"manual_gear_shift":false,"gear":0},"transform":{"location":{"x":-87.62321472167969,"y":12.969735145568848,"z":0.003002509940415621},"rotation":{"pitch":0.04934811219573021,"yaw":-179.800048828125,"roll":-0.1046142429113388}},"velocity":{"x":-9.586125088389963e-05,"y":0.0003073573170695454,"z":0.0012128924718126655},"angular_velocity":{"x":-0.048762962222099304,"y":0.026485487818717957,"z":-0.006299221888184547},"acceleration":{"x":0.00013237004168331623,"y":-0.00010532094165682793,"z":-0.00249671982601285},"speed_mps":0.0012548968276145463,"speed_kph":0.004517628579412366,"speed_limit_kph":30.0,"collisions_this_frame":[],"waypoint":{"x":-87.62313842773438,"y":12.940515518188477,"z":0.0},"lane_deviation_m":0.029373586177825928,"lane_width":3.5,"goal":{"x":106.00283813476562,"y":92.81285095214844,"z":0.5999999642372131},"fault":{"name":"fault_free","severity":1.0},"capture_flags":{"save_rgb":true,"save_depth":false,"video_rgb":true,"video_depth":false}}
{"frame":1285036,"timestamp":{"delta_seconds":0.05000000074505806,"elapsed_seconds":12455.529126463458},"control":{"throttle":0.0,"steer":0.19699999690055847,"brake":1.0,"hand_brake":false,"reverse":false,"manual_gear_shift":false,"gear":0},"transform":{"location":{"x":-87.62322235107422,"y":12.969730377197266,"z":0.003050575265660882},"rotation":{"pitch":0.050557058304548264,"yaw":-179.8003692626953,"roll":-0.106842041015625}},"velocity":{"x":-9.464442700846121e-05,"y":0.0002911120536737144,"z":0.001034267945215106},"angular_velocity":{"x":-0.042496997863054276,"y":0.022918205708265305,"z":-0.005843679886311293},"acceleration":{"x":2.433647750876844e-05,"y":-0.0003249052679166198,"z":-0.003572490531951189},"speed_mps":0.0010786166964484487,"speed_kph":0.0038830201072144153,"speed_limit_kph":30.0,"collisions_this_frame":[],"waypoint":{"x":-87.6231460571289,"y":12.940515518188477,"z":0.0},"lane_deviation_m":0.02937379479408264,"lane_width":3.5,"goal":{"x":106.00283813476562,"y":92.81285095214844,"z":0.5999999642372131},"fault":{"name":"fault_free","severity":1.0},"capture_flags":{"save_rgb":true,"save_depth":false,"video_rgb":true,"video_depth":false}}
{"frame":1285037,"timestamp":{"delta_seconds":0.05000000074505806,"elapsed_seconds":12455.579126464203},"control":{"throttle":0.0,"steer":0.19900000095367432,"brake":1.0,"hand_brake":false,"reverse":false,"manual_gear_shift":false,"gear":0},"transform":{"location":{"x":-87.62322998046875,"y":12.9697265625,"z":0.003091430524364114},"rotation":{"pitch":0.05162256583571434,"yaw":-179.80062866210938,"roll":-0.1088256686925888}},"velocity":{"x":-9.30547685129568e-05,"y":0.0002785372780635953,"z":0.0008729780092835426},"angular_velocity":{"x":-0.03818812966346741,"y":0.02020184136927128,"z":-0.005468366667628288},"acceleration":{"x":3.179316991008818e-05,"y":-0.0002514955122023821,"z":-0.0032257987186312675},"speed_mps":0.0009210498411631879,"speed_kph":0.0033157794281874764,"speed_limit_kph":30.0,"collisions_this_frame":[],"waypoint":{"x":-87.62315368652344,"y":12.940515518188477,"z":0.0},"lane_deviation_m":0.029374273493885994,"lane_width":3.5,"goal":{"x":106.00283813476562,"y":92.81285095214844,"z":0.5999999642372131},"fault":{"name":"fault_free","severity":1.0},"capture_flags":{"save_rgb":true,"save_depth":false,"video_rgb":true,"video_depth":false}}
{"frame":1285038,"timestamp":{"delta_seconds":0.05000000074505806,"elapsed_seconds":12455.629126464948},"control":{"throttle":0.0,"steer":0.20999999344348907,"brake":1.0,"hand_brake":false,"reverse":false,"manual_gear_shift":false,"gear":0},"transform":{"location":{"x":-87.62323760986328,"y":12.96972370147705,"z":0.0031246566213667393},"rotation":{"pitch":0.052537813782691956,"yaw":-179.80088806152344,"roll":-0.1105651780962944}},"velocity":{"x":-9.348108869744465e-05,"y":0.0002648294030223042,"z":0.0007191425538621843},"angular_velocity":{"x":-0.03351440280675888,"y":0.017391204833984375,"z":-0.005112850107252598},"acceleration":{"x":-8.52640368975699e-06,"y":-0.00027415750082582235,"z":-0.003076709108427167},"speed_mps":0.0007720358407642964,"speed_kph":0.002779329026751467,"speed_limit_kph":30.0,"collisions_this_frame":[],"waypoint":{"x":-87.62316131591797,"y":12.940515518188477,"z":0.0},"lane_deviation_m":0.029374942183494568,"lane_width":3.5,"goal":{"x":106.00283813476562,"y":92.81285095214844,"z":0.5999999642372131},"fault":{"name":"fault_free","severity":1.0},"capture_flags":{"save_rgb":true,"save_depth":false,"video_rgb":true,"video_depth":false}}
{"frame":1285039,"timestamp":{"delta_seconds":0.05000000074505806,"elapsed_seconds":12455.679126465693},"control":{"throttle":0.0,"steer":0.1979999989271164,"brake":1.0,"hand_brake":false,"reverse":false,"manual_gear_shift":false,"gear":0},"transform":{"location":{"x":-87.62323760986328,"y":12.96972370147705,"z":0.0031520079355686903},"rotation":{"pitch":0.053357433527708054,"yaw":-179.80108642578125,"roll":-0.11212153732776642}},"velocity":{"x":-9.052037785295397e-05,"y":0.0002570041979197413,"z":0.0005997129483148456},"angular_velocity":{"x":-0.03040335886180401,"y":0.015448911115527153,"z":-0.004820352420210838},"acceleration":{"x":5.921421688981354e-05,"y":-0.0001565041020512581,"z":-0.0023885921109467745},"speed_mps":0.0006587114064076132,"speed_kph":0.0023713610630674074,"speed_limit_kph":30.0,"collisions_this_frame":[],"waypoint":{"x":-87.62316131591797,"y":12.940515518188477,"z":0.0},"lane_deviation_m":0.02937786467373371,"lane_width":3.5,"goal":{"x":106.00283813476562,"y":92.81285095214844,"z":0.5999999642372131},"fault":{"name":"fault_free","severity":1.0},"capture_flags":{"save_rgb":true,"save_depth":false,"video_rgb":true,"video_depth":false}}
{"frame":1285040,"timestamp":{"delta_seconds":0.05000000074505806,"elapsed_seconds":12455.729126466438},"control":{"throttle":0.0,"steer":0.2409999966621399,"brake":1.0,"hand_brake":false,"reverse":false,"manual_gear_shift":false,"gear":0},"transform":{"location":{"x":-87.62325286865234,"y":12.969724655151367,"z":0.0031667707953602076},"rotation":{"pitch":0.05382188782095909,"yaw":-179.80128479003906,"roll":-0.113067626953125}},"velocity":{"x":-8.739768964005634e-05,"y":0.00019452183914836496,"z":0.0001471452123951167},"angular_velocity":{"x":-0.014547314494848251,"y":0.005933565553277731,"z":-0.0033737930934876204},"acceleration":{"x":6.245376425795257e-05,"y":-0.0012496472336351871,"z":-0.009051354601979256},"speed_mps":0.00025909229164698433,"speed_kph":0.0009327322499291436,"speed_limit_kph":30.0,"collisions_this_frame":[],"waypoint":{"x":-87.62317657470703,"y":12.940515518188477,"z":0.0},"lane_deviation_m":0.029380399733781815,"lane_width":3.5,"goal":{"x":106.00283813476562,"y":92.81285095214844,"z":0.5999999642372131},"fault":{"name":"fault_free","severity":1.0},"capture_flags":{"save_rgb":true,"save_depth":false,"video_rgb":true,"video_depth":false}}
{"frame":1285041,"timestamp":{"delta_seconds":0.05000000074505806,"elapsed_seconds":12455.779126467183},"control":{"throttle":0.0,"steer":0.1979999989271164,"brake":1.0,"hand_brake":false,"reverse":false,"manual_gear_shift":false,"gear":0},"transform":{"location":{"x":-87.62325286865234,"y":12.969727516174316,"z":0.003177986014634371},"rotation":{"pitch":0.05434098094701767,"yaw":-179.80142211914062,"roll":-0.1142272800207138}},"velocity":{"x":-8.802935190033168e-05,"y":0.00023941724793985486,"z":0.00034272141056135297},"angular_velocity":{"x":-0.025449220091104507,"y":0.011728961952030659,"z":-0.004277325700968504},"acceleration":{"x":-1.2633245205506682e-05,"y":0.000897908175829798,"z":0.0039115240797400475},"speed_mps":0.00042723266572706006,"speed_kph":0.0015380375966174162,"speed_limit_kph":30.0,"collisions_this_frame":[],"waypoint":{"x":-87.62317657470703,"y":12.940515518188477,"z":0.0},"lane_deviation_m":0.02938445657491684,"lane_width":3.5,"goal":{"x":106.00283813476562,"y":92.81285095214844,"z":0.5999999642372131},"fault":{"name":"fault_free","severity":1.0},"capture_flags":{"save_rgb":true,"save_depth":false,"video_rgb":true,"video_depth":false}}
{"frame":1285042,"timestamp":{"delta_seconds":0.05000000074505806,"elapsed_seconds":12455.829126467928},"control":{"throttle":0.0,"steer":0.21299999952316284,"brake":1.0,"hand_brake":false,"reverse":false,"manual_gear_shift":false,"gear":0},"transform":{"location":{"x":-87.62325286865234,"y":12.969730377197266,"z":0.0031921768095344305},"rotation":{"pitch":0.05488739535212517,"yaw":-179.80165100097656,"roll":-0.1153564304113388}},"velocity":{"x":-9.036377014126629e-05,"y":0.00023434370814356953,"z":0.0003554467693902552},"angular_velocity":{"x":-0.021563183516263962,"y":0.010763095691800117,"z":-0.004215240478515625},"acceleration":{"x":-4.668836481869221e-05,"y":-0.00010147079592570662,"z":0.0002545071765780449},"speed_mps":0.0004352298132832715,"speed_kph":0.0015668273278197774,"speed_limit_kph":30.0,"collisions_this_frame":[],"waypoint":{"x":-87.62317657470703,"y":12.940515518188477,"z":0.0},"lane_deviation_m":0.02938883937895298,"lane_width":3.5,"goal":{"x":106.00283813476562,"y":92.81285095214844,"z":0.5999999642372131},"fault":{"name":"fault_free","severity":1.0},"capture_flags":{"save_rgb":true,"save_depth":false,"video_rgb":true,"video_depth":false}}
{"frame":1285043,"timestamp":{"delta_seconds":0.05000000074505806,"elapsed_seconds":12455.879126468673},"control":{"throttle":0.0,"steer":0.23800000548362732,"brake":1.0,"hand_brake":false,"reverse":false,"manual_gear_shift":false,"gear":0},"transform":{"location":{"x":-87.62326049804688,"y":12.969735145568848,"z":0.003205604385584593},"rotation":{"pitch":0.055345021188259125,"yaw":-179.8018035888672,"roll":-0.11624142527580261}},"velocity":{"x":-9.404718730365857e-05,"y":0.0002248245436931029,"z":0.00031323236180469394},"angular_velocity":{"x":-0.01731560193002224,"y":0.008836998604238033,"z":-0.004059880040585995},"acceleration":{"x":-7.366834324784577e-05,"y":-0.00019038328900933266,"z":-0.0008442881517112255},"speed_mps":0.00039686957727733184,"speed_kph":0.0014287304781983947,"speed_limit_kph":30.0,"collisions_this_frame":[],"waypoint":{"x":-87.62318420410156,"y":12.940515518188477,"z":0.0},"lane_deviation_m":0.02939504012465477,"lane_width":3.5,"goal":{"x":106.00283813476562,"y":92.81285095214844,"z":0.5999999642372131},"fault":{"name":"fault_free","severity":1.0},"capture_flags":{"save_rgb":true,"save_depth":false,"video_rgb":true,"video_depth":false}}
{"frame":1285044,"timestamp":{"delta_seconds":0.05000000074505806,"elapsed_seconds":12455.929126469418},"control":{"throttle":0.0,"steer":0.1979999989271164,"brake":1.0,"hand_brake":false,"reverse":false,"manual_gear_shift":false,"gear":0},"transform":{"location":{"x":-87.62326049804688,"y":12.96973991394043,"z":0.003218002151697874},"rotation":{"pitch":0.055761661380529404,"yaw":-179.802001953125,"roll":-0.11706537753343582}},"velocity":{"x":-8.752956637181342e-05,"y":0.00022790132788941264,"z":0.0002911514602601528},"angular_velocity":{"x":-0.01687452755868435,"y":0.00841548666357994,"z":-0.003946515265852213},"acceleration":{"x":0.00013035241863690317,"y":6.15356839261949e-05,"z":-0.0004416180308908224},"speed_mps":0.0003799600150734477,"speed_kph":0.0013678560542644117,"speed_limit_kph":30.0,"collisions_this_frame":[],"waypoint":{"x":-87.62318420410156,"y":12.940515518188477,"z":0.0},"lane_deviation_m":0.029401132836937904,"lane_width":3.5,"goal":{"x":106.00283813476562,"y":92.81285095214844,"z":0.5999999642372131},"fault":{"name":"fault_free","severity":1.0},"capture_flags":{"save_rgb":true,"save_depth":false,"video_rgb":true,"video_depth":false}}
{"frame":1285045,"timestamp":{"delta_seconds":0.05000000074505806,"elapsed_seconds":12455.979126470163},"control":{"throttle":0.0,"steer":0.210999995470047,"brake":1.0,"hand_brake":false,"reverse":false,"manual_gear_shift":false,"gear":0},"transform":{"location":{"x":-87.62326049804688,"y":12.969745635986328,"z":0.003228683490306139},"rotation":{"pitch":0.0561373233795166,"yaw":-179.80218505859375,"roll":-0.1177673190832138}},"velocity":{"x":-8.920773689169437e-05,"y":0.00022163211542647332,"z":0.0002472185587976128},"angular_velocity":{"x":-0.014315815642476082,"y":0.007107819430530071,"z":-0.0038213839288800955},"acceleration":{"x":-3.356341039761901e-05,"y":-0.00012538424925878644,"z":-0.0008786580292508006},"speed_mps":0.0003437962052200694,"speed_kph":0.0012376663387922498,"speed_limit_kph":30.0,"collisions_this_frame":[],"waypoint":{"x":-87.62318420410156,"y":12.940515518188477,"z":0.0},"lane_deviation_m":0.029407992959022522,"lane_width":3.5,"goal":{"x":106.00283813476562,"y":92.81285095214844,"z":0.5999999642372131},"fault":{"name":"fault_free","severity":1.0},"capture_flags":{"save_rgb":true,"save_depth":false,"video_rgb":true,"video_depth":false}}
{"frame":1285046,"timestamp":{"delta_seconds":0.05000000074505806,"elapsed_seconds":12456.029126470909},"control":{"throttle":0.0,"steer":0.1899999976158142,"brake":1.0,"hand_brake":false,"reverse":false,"manual_gear_shift":false,"gear":0},"transform":{"location":{"x":-87.62326049804688,"y":12.96975326538086,"z":0.003238105680793524},"rotation":{"pitch":0.05646517127752304,"yaw":-179.8023223876953,"roll":-0.11843869835138321}},"velocity":{"x":-8.566438918933272e-05,"y":0.0002219846792286262,"z":0.00022260261175688356},"angular_velocity":{"x":-0.013715646229684353,"y":0.006676815915852785,"z":-0.0037316041998565197},"acceleration":{"x":7.086695404723287e-05,"y":7.051276043057442e-06,"z":-0.0004923189408145845},"speed_mps":0.00032583355896592876,"speed_kph":0.0011730008122773435,"speed_limit_kph":30.0,"collisions_this_frame":[],"waypoint":{"x":-87.62318420410156,"y":12.940515518188477,"z":0.0},"lane_deviation_m":0.029416611418128014,"lane_width":3.5,"goal":{"x":106.00283813476562,"y":92.81285095214844,"z":0.5999999642372131},"fault":{"name":"fault_free","severity":1.0},"capture_flags":{"save_rgb":true,"save_depth":false,"video_rgb":true,"video_depth":false}}
{"frame":1285047,"timestamp":{"delta_seconds":0.05000000074505806,"elapsed_seconds":12456.079126471654},"control":{"throttle":0.0,"steer":0.23899999260902405,"brake":1.0,"hand_brake":false,"reverse":false,"manual_gear_shift":false,"gear":0},"transform":{"location":{"x":-87.6232681274414,"y":12.96976089477539,"z":0.003245391882956028},"rotation":{"pitch":0.0567178875207901,"yaw":-179.80247497558594,"roll":-0.11892697960138321}},"velocity":{"x":-9.298830991610885e-05,"y":0.0002081623679259792,"z":0.00016145787958521396},"angular_velocity":{"x":-0.0092086186632514,"y":0.004640218336135149,"z":-0.0035818738397210836},"acceleration":{"x":-0.00014647841453552246,"y":-0.0002764462260529399,"z":-0.001222894643433392},"speed_mps":0.00027936901059666316,"speed_kph":0.0010057284381479873,"speed_limit_kph":30.0,"collisions_this_frame":[],"waypoint":{"x":-87.6231918334961,"y":12.940515518188477,"z":0.0},"lane_deviation_m":0.02942499704658985,"lane_width":3.5,"goal":{"x":106.00283813476562,"y":92.81285095214844,"z":0.5999999642372131},"fault":{"name":"fault_free","severity":1.0},"capture_flags":{"save_rgb":true,"save_depth":false,"video_rgb":true,"video_depth":false}}
{"frame":1285048,"timestamp":{"delta_seconds":0.05000000074505806,"elapsed_seconds":12456.129126472399},"control":{"throttle":0.0,"steer":0.2029999941587448,"brake":1.0,"hand_brake":false,"reverse":false,"manual_gear_shift":false,"gear":0},"transform":{"location":{"x":-87.6232681274414,"y":12.969768524169922,"z":0.0032515334896743298},"rotation":{"pitch":0.05694328248500824,"yaw":-179.80262756347656,"roll":-0.1193847730755806}},"velocity":{"x":-8.704498031875119e-05,"y":0.0002126047038473189,"z":0.00014931961777620018},"angular_velocity":{"x":-0.00977664440870285,"y":0.0046374136582016945,"z":-0.003519548336043954},"acceleration":{"x":0.00011886659194715321,"y":8.884671842679381e-05,"z":-0.00024276523618027568},"speed_mps":0.0002739962352834952,"speed_kph":0.0009863864470205828,"speed_limit_kph":30.0,"collisions_this_frame":[],"waypoint":{"x":-87.6231918334961,"y":12.940515518188477,"z":0.0},"lane_deviation_m":0.02943325787782669,"lane_width":3.5,"goal":{"x":106.00283813476562,"y":92.81285095214844,"z":0.5999999642372131},"fault":{"name":"fault_free","severity":1.0},"capture_flags":{"save_rgb":true,"save_depth":false,"video_rgb":true,"video_depth":false}}
{"frame":1285049,"timestamp":{"delta_seconds":0.05000000074505806,"elapsed_seconds":12456.179126473144},"control":{"throttle":0.0,"steer":0.210999995470047,"brake":1.0,"hand_brake":false,"reverse":false,"manual_gear_shift":false,"gear":0},"transform":{"location":{"x":-87.6232681274414,"y":12.969775199890137,"z":0.0032532881014049053},"rotation":{"pitch":0.05704573541879654,"yaw":-179.802734375,"roll":-0.11959836632013321}},"velocity":{"x":-8.772507135290653e-05,"y":0.0002062436833512038,"z":8.119247650029138e-05},"angular_velocity":{"x":-0.007517729885876179,"y":0.003283598693087697,"z":-0.0033589054364711046},"acceleration":{"x":-1.360182068310678e-05,"y":-0.00012722040992230177,"z":-0.0013625428546220064},"speed_mps":0.00023837861335781473,"speed_kph":0.000858163008088133,"speed_limit_kph":30.0,"collisions_this_frame":[],"waypoint":{"x":-87.6231918334961,"y":12.940515518188477,"z":0.0},"lane_deviation_m":0.02944008633494377,"lane_width":3.5,"goal":{"x":106.00283813476562,"y":92.81285095214844,"z":0.5999999642372131},"fault":{"name":"fault_free","severity":1.0},"capture_flags":{"save_rgb":true,"save_depth":false,"video_rgb":true,"video_depth":false}}
{"frame":1285050,"timestamp":{"delta_seconds":0.05000000074505806,"elapsed_seconds":12456.229126473889},"control":{"throttle":0.0,"steer":0.18700000643730164,"brake":1.0,"hand_brake":false,"reverse":false,"manual_gear_shift":false,"gear":0},"transform":{"location":{"x":-87.6232681274414,"y":12.969783782958984,"z":0.0032572937197983265},"rotation":{"pitch":0.05723698064684868,"yaw":-179.80288696289062,"roll":-0.1200256273150444}},"velocity":{"x":-8.407711720792577e-05,"y":0.00021112352260388434,"z":0.00011314302537357435},"angular_velocity":{"x":-0.008767847903072834,"y":0.004110781010240316,"z":-0.003412319580093026},"acceleration":{"x":7.295908289961517e-05,"y":9.75967850536108e-05,"z":0.0006390109774656594},"speed_mps":0.00025385714018981903,"speed_kph":0.0009138857046833485,"speed_limit_kph":30.0,"collisions_this_frame":[],"waypoint":{"x":-87.6231918334961,"y":12.940515518188477,"z":0.0},"lane_deviation_m":0.029449060559272766,"lane_width":3.5,"goal":{"x":106.00283813476562,"y":92.81285095214844,"z":0.5999999642372131},"fault":{"name":"fault_free","severity":1.0},"capture_flags":{"save_rgb":true,"save_depth":false,"video_rgb":true,"video_depth":false}}
{"frame":1285051,"timestamp":{"delta_seconds":0.05000000074505806,"elapsed_seconds":12456.279126474634},"control":{"throttle":0.0,"steer":0.2770000100135803,"brake":1.0,"hand_brake":false,"reverse":false,"manual_gear_shift":false,"gear":0},"transform":{"location":{"x":-87.6232681274414,"y":12.969789505004883,"z":0.0032606124877929688},"rotation":{"pitch":0.05735309422016144,"yaw":-179.8030548095703,"roll":-0.12023922801017761}},"velocity":{"x":-9.863286686595529e-05,"y":0.00019116073963232338,"z":6.519352609757334e-05},"angular_velocity":{"x":-0.0029470196459442377,"y":0.001704349764622748,"z":-0.0033034635707736015},"acceleration":{"x":-0.00029111499316059053,"y":-0.0003992556594312191,"z":-0.0009589899564161897},"speed_mps":0.000224768918331715,"speed_kph":0.000809168105994174,"speed_limit_kph":30.0,"collisions_this_frame":[],"waypoint":{"x":-87.6231918334961,"y":12.940515518188477,"z":0.0},"lane_deviation_m":0.029455114156007767,"lane_width":3.5,"goal":{"x":106.00283813476562,"y":92.81285095214844,"z":0.5999999642372131},"fault":{"name":"fault_free","severity":1.0},"capture_flags":{"save_rgb":true,"save_depth":false,"video_rgb":true,"video_depth":false}}
{"frame":1285052,"timestamp":{"delta_seconds":0.05000000074505806,"elapsed_seconds":12456.329126475379},"control":{"throttle":0.0,"steer":0.1599999964237213,"brake":1.0,"hand_brake":false,"reverse":false,"manual_gear_shift":false,"gear":0},"transform":{"location":{"x":-87.6232681274414,"y":12.96979808807373,"z":0.003264045575633645},"rotation":{"pitch":0.057503361254930496,"yaw":-179.8031768798828,"roll":-0.12057492136955261}},"velocity":{"x":-7.99927074695006e-05,"y":0.00021399407705757767,"z":0.00011086904851254076},"angular_velocity":{"x":-0.008930245414376259,"y":0.003943561110645533,"z":-0.003366055665537715},"acceleration":{"x":0.00037280318792909384,"y":0.0004566667485050857,"z":0.0009135104482993484},"speed_mps":0.00025393748085326376,"speed_kph":0.0009141749310717496,"speed_limit_kph":30.0,"collisions_this_frame":[],"waypoint":{"x":-87.6231918334961,"y":12.940515518188477,"z":0.0},"lane_deviation_m":0.029464025050401688,"lane_width":3.5,"goal":{"x":106.00283813476562,"y":92.81285095214844,"z":0.5999999642372131},"fault":{"name":"fault_free","severity":1.0},"capture_flags":{"save_rgb":true,"save_depth":false,"video_rgb":true,"video_depth":false}}
{"frame":1285053,"timestamp":{"delta_seconds":0.05000000074505806,"elapsed_seconds":12456.379126476124},"control":{"throttle":0.0,"steer":0.2800000011920929,"brake":1.0,"hand_brake":false,"reverse":false,"manual_gear_shift":false,"gear":0},"transform":{"location":{"x":-87.6232681274414,"y":12.969805717468262,"z":0.0032671354711055756},"rotation":{"pitch":0.0576058104634285,"yaw":-179.80331420898438,"roll":-0.1207580417394638}},"velocity":{"x":-9.899258293444291e-05,"y":0.00018941164307761937,"z":5.4216903663473204e-05},"angular_velocity":{"x":-0.0018336588982492685,"y":0.0012639496708288789,"z":-0.0032532508485019207},"acceleration":{"x":-0.0003799975092988461,"y":-0.0004916486795991659,"z":-0.0011330428533256054},"speed_mps":0.0002204898515856237,"speed_kph":0.0007937634657082454,"speed_limit_kph":30.0,"collisions_this_frame":[],"waypoint":{"x":-87.6231918334961,"y":12.940515518188477,"z":0.0},"lane_deviation_m":0.029471948742866516,"lane_width":3.5,"goal":{"x":106.00283813476562,"y":92.81285095214844,"z":0.5999999642372131},"fault":{"name":"fault_free","severity":1.0},"capture_flags":{"save_rgb":true,"save_depth":false,"video_rgb":true,"video_depth":false}}
{"frame":1285054,"timestamp":{"delta_seconds":0.05000000074505806,"elapsed_seconds":12456.429126476869},"control":{"throttle":0.0,"steer":0.18799999356269836,"brake":1.0,"hand_brake":false,"reverse":false,"manual_gear_shift":false,"gear":0},"transform":{"location":{"x":-87.6232681274414,"y":12.969815254211426,"z":0.0032696151174604893},"rotation":{"pitch":0.057701434940099716,"yaw":-179.80348205566406,"roll":-0.1209716722369194}},"velocity":{"x":-8.399978105444461e-05,"y":0.0002065461885649711,"z":7.591070607304573e-05},"angular_velocity":{"x":-0.005834875628352165,"y":0.0025744859594851732,"z":-0.0032623223960399628},"acceleration":{"x":0.00029985603759996593,"y":0.0003426909097470343,"z":0.00043387606274336576},"speed_mps":0.0002355413478020782,"speed_kph":0.0008479488520874816,"speed_limit_kph":30.0,"collisions_this_frame":[],"waypoint":{"x":-87.6231918334961,"y":12.940515518188477,"z":0.0},"lane_deviation_m":0.02948170155286789,"lane_width":3.5,"goal":{"x":106.00283813476562,"y":92.81285095214844,"z":0.5999999642372131},"fault":{"name":"fault_free","severity":1.0},"capture_flags":{"save_rgb":true,"save_depth":false,"video_rgb":true,"video_depth":false}}
{"frame":1285055,"timestamp":{"delta_seconds":0.05000000074505806,"elapsed_seconds":12456.479126477614},"control":{"throttle":0.0,"steer":0.23600000143051147,"brake":1.0,"hand_brake":false,"reverse":false,"manual_gear_shift":false,"gear":0},"transform":{"location":{"x":-87.6232681274414,"y":12.969822883605957,"z":0.0032714460976421833},"rotation":{"pitch":0.057769738137722015,"yaw":-179.80361938476562,"roll":-0.12106320261955261}},"velocity":{"x":-9.15276978048496e-05,"y":0.00019545017858035862,"z":3.9352384192170575e-05},"angular_velocity":{"x":-0.0022564770188182592,"y":0.0011555446544662118,"z":-0.0031797196716070175},"acceleration":{"x":-0.00015055833500809968,"y":-0.0002219201996922493,"z":-0.0007311664521694183},"speed_mps":0.00021937798867287971,"speed_kph":0.000789760759222367,"speed_limit_kph":30.0,"collisions_this_frame":[],"waypoint":{"x":-87.6231918334961,"y":12.940515518188477,"z":0.0},"lane_deviation_m":0.029489487409591675,"lane_width":3.5,"goal":{"x":106.00283813476562,"y":92.81285095214844,"z":0.5999999642372131},"fault":{"name":"fault_free","severity":1.0},"capture_flags":{"save_rgb":true,"save_depth":false,"video_rgb":true,"video_depth":false}}
{"frame":1285056,"timestamp":{"delta_seconds":0.05000000074505806,"elapsed_seconds":12456.52912647836},"control":{"throttle":0.0,"steer":0.22599999606609344,"brake":1.0,"hand_brake":false,"reverse":false,"manual_gear_shift":false,"gear":0},"transform":{"location":{"x":-87.6232681274414,"y":12.969829559326172,"z":0.003272743197157979},"rotation":{"pitch":0.057810716331005096,"yaw":-179.8037567138672,"roll":-0.12118526548147202}},"velocity":{"x":-8.985563908936456e-05,"y":0.0001972278842004016,"z":3.5153349017491564e-05},"angular_velocity":{"x":-0.0028082681819796562,"y":0.0012096859281882644,"z":-0.0031703815329819918},"acceleration":{"x":3.344117430970073e-05,"y":3.5554112400859594e-05,"z":-8.398070349358022e-05},"speed_mps":0.00021956464225706,"speed_kph":0.000790432712125416,"speed_limit_kph":30.0,"collisions_this_frame":[],"waypoint":{"x":-87.6231918334961,"y":12.940515518188477,"z":0.0},"lane_deviation_m":0.029496265575289726,"lane_width":3.5,"goal":{"x":106.00283813476562,"y":92.81285095214844,"z":0.5999999642372131},"fault":{"name":"fault_free","severity":1.0},"capture_flags":{"save_rgb":true,"save_depth":false,"video_rgb":true,"video_depth":false}}
{"frame":1285057,"timestamp":{"delta_seconds":0.05000000074505806,"elapsed_seconds":12456.579126479104},"control":{"throttle":0.0,"steer":0.20800000429153442,"brake":1.0,"hand_brake":false,"reverse":false,"manual_gear_shift":false,"gear":0},"transform":{"location":{"x":-87.6232681274414,"y":12.969836235046387,"z":0.003273353446274996},"rotation":{"pitch":0.057810716331005096,"yaw":-179.8037567138672,"roll":-0.12118526548147202}},"velocity":{"x":-8.603990136180073e-05,"y":0.00019414513371884823,"z":1.7667058273218572e-05},"angular_velocity":{"x":-0.0015169022371992469,"y":0.0008890063618309796,"z":-0.003054535249248147},"acceleration":{"x":7.631475455127656e-05,"y":-6.165500963106751e-05,"z":-0.00034972582943737507},"speed_mps":0.00021308993998095537,"speed_kph":0.0007671237839314394,"speed_limit_kph":30.0,"collisions_this_frame":[],"waypoint":{"x":-87.6231918334961,"y":12.940515518188477,"z":0.0},"lane_deviation_m":0.02950296737253666,"lane_width":3.5,"goal":{"x":106.00283813476562,"y":92.81285095214844,"z":0.5999999642372131},"fault":{"name":"fault_free","severity":1.0},"capture_flags":{"save_rgb":true,"save_depth":false,"video_rgb":true,"video_depth":false}}
{"frame":1285058,"timestamp":{"delta_seconds":0.05000000074505806,"elapsed_seconds":12456.62912647985},"control":{"throttle":0.0,"steer":0.2199999988079071,"brake":1.0,"hand_brake":false,"reverse":false,"manual_gear_shift":false,"gear":0},"transform":{"location":{"x":-87.6232681274414,"y":12.969843864440918,"z":0.0032738493755459785},"rotation":{"pitch":0.057865358889102936,"yaw":-179.80397033691406,"roll":-0.12127681821584702}},"velocity":{"x":-8.876741048879921e-05,"y":0.00019723176956176758,"z":2.458188646414783e-05},"angular_velocity":{"x":-0.0023512057960033417,"y":0.0009809525217860937,"z":-0.0031315614469349384},"acceleration":{"x":-5.455018253996968e-05,"y":6.1732716858387e-05,"z":0.00013829657109454274},"speed_mps":0.00021767933579347723,"speed_kph":0.0007836456088565181,"speed_limit_kph":30.0,"collisions_this_frame":[],"waypoint":{"x":-87.6231918334961,"y":12.940515518188477,"z":0.0},"lane_deviation_m":0.029510604217648506,"lane_width":3.5,"goal":{"x":106.00283813476562,"y":92.81285095214844,"z":0.5999999642372131},"fault":{"name":"fault_free","severity":1.0},"capture_flags":{"save_rgb":true,"save_depth":false,"video_rgb":true,"video_depth":false}}
