{"frame":9422,"timestamp":{"delta_seconds":0.05000000074505806,"elapsed_seconds":91.4281596140936},"control":{"throttle":0.0,"steer":0.0,"brake":1.0,"hand_brake":false,"reverse":false,"manual_gear_shift":false,"gear":0},"transform":{"location":{"x":-87.6230239868164,"y":12.967159271240234,"z":0.48239994049072266},"rotation":{"pitch":0.0,"yaw":-179.84078979492188,"roll":0.0}},"velocity":{"x":0.0,"y":0.0,"z":-1.470000147819519},"angular_velocity":{"x":0.0,"y":0.0,"z":0.0},"acceleration":{"x":0.0,"y":0.0,"z":-9.80000114440918},"speed_mps":1.470000147819519,"speed_kph":5.2920005321502686,"speed_limit_kph":30.0,"collisions_this_frame":[],"waypoint":{"x":-87.62295532226562,"y":12.94051742553711,"z":0.0},"lane_deviation_m":0.48313507437705994,"lane_width":3.5,"goal":{"x":52.78997039794922,"y":69.8227767944336,"z":0.5999999642372131},"fault":{"name":"fault_free","severity":1.0},"capture_flags":{"save_rgb":true,"save_depth":false,"video_rgb":true,"video_depth":false}}
{"frame":9423,"timestamp":{"delta_seconds":0.05000000074505806,"elapsed_seconds":91.47815961483866},"control":{"throttle":0.0,"steer":0.0,"brake":1.0,"hand_brake":false,"reverse":false,"manual_gear_shift":false,"gear":0},"transform":{"location":{"x":-87.6230239868164,"y":12.967159271240234,"z":0.394199937582016},"rotation":{"pitch":0.0,"yaw":-179.84078979492188,"roll":0.0}},"velocity":{"x":0.0,"y":0.0,"z":-1.9600002765655518},"angular_velocity":{"x":0.0,"y":0.0,"z":0.0},"acceleration":{"x":0.0,"y":0.0,"z":-9.800003051757812},"speed_mps":1.9600002765655518,"speed_kph":7.056000995635986,"speed_limit_kph":30.0,"collisions_this_frame":[],"waypoint":{"x":-87.62295532226562,"y":12.94051742553711,"z":0.0},"lane_deviation_m":0.3950991928577423,"lane_width":3.5,"goal":{"x":52.78997039794922,"y":69.8227767944336,"z":0.5999999642372131},"fault":{"name":"fault_free","severity":1.0},"capture_flags":{"save_rgb":true,"save_depth":false,"video_rgb":true,"video_depth":false}}
{"frame":9424,"timestamp":{"delta_seconds":0.05000000074505806,"elapsed_seconds":91.52815961558372},"control":{"throttle":0.0,"steer":0.0,"brake":1.0,"hand_brake":false,"reverse":false,"manual_gear_shift":false,"gear":0},"transform":{"location":{"x":-87.6230239868164,"y":12.967159271240234,"z":0.281499981880188},"rotation":{"pitch":0.0,"yaw":-179.84078979492188,"roll":0.0}},"velocity":{"x":0.0,"y":0.0,"z":-2.450000286102295},"angular_velocity":{"x":0.0,"y":0.0,"z":0.0},"acceleration":{"x":0.0,"y":0.0,"z":-9.800000190734863},"speed_mps":2.450000286102295,"speed_kph":8.820001029968262,"speed_limit_kph":30.0,"collisions_this_frame":[],"waypoint":{"x":-87.62295532226562,"y":12.94051742553711,"z":0.0},"lane_deviation_m":0.2827579081058502,"lane_width":3.5,"goal":{"x":52.78997039794922,"y":69.8227767944336,"z":0.5999999642372131},"fault":{"name":"fault_free","severity":1.0},"capture_flags":{"save_rgb":true,"save_depth":false,"video_rgb":true,"video_depth":false}}
{"frame":9425,"timestamp":{"delta_seconds":0.05000000074505806,"elapsed_seconds":91.57815961632878},"control":{"throttle":0.0,"steer":0.0,"brake":1.0,"hand_brake":false,"reverse":false,"manual_gear_shift":false,"gear":0},"transform":{"location":{"x":-87.6230239868164,"y":12.967159271240234,"z":0.14429987967014313},"rotation":{"pitch":0.0,"yaw":-179.84078979492188,"roll":0.0}},"velocity":{"x":0.0,"y":0.0,"z":-2.93999981880188},"angular_velocity":{"x":0.0,"y":0.0,"z":0.0},"acceleration":{"x":0.0,"y":0.0,"z":-9.7999906539917},"speed_mps":2.93999981880188,"speed_kph":10.583999347686769,"speed_limit_kph":30.0,"collisions_this_frame":[],"waypoint":{"x":-87.62295532226562,"y":12.94051742553711,"z":0.0},"lane_deviation_m":0.1467387080192566,"lane_width":3.5,"goal":{"x":52.78997039794922,"y":69.8227767944336,"z":0.5999999642372131},"fault":{"name":"fault_free","severity":1.0},"capture_flags":{"save_rgb":true,"save_depth":false,"video_rgb":true,"video_depth":false}}
{"frame":9426,"timestamp":{"delta_seconds":0.05000000074505806,"elapsed_seconds":91.62815961707383},"control":{"throttle":0.0,"steer":0.0,"brake":1.0,"hand_brake":false,"reverse":false,"manual_gear_shift":false,"gear":0},"transform":{"location":{"x":-87.6231460571289,"y":12.964921951293945,"z":0.009860610589385033},"rotation":{"pitch":0.10385984927415848,"yaw":-179.7747039794922,"roll":-0.27181997895240784}},"velocity":{"x":0.025087803602218628,"y":-0.0073287286795675755,"z":-1.967410683631897},"angular_velocity":{"x":-9.892762184143066,"y":4.063372611999512,"z":1.6973363161087036},"acceleration":{"x":0.5017560720443726,"y":-0.14657457172870636,"z":19.4517822265625},"speed_mps":1.9675842818600098,"speed_kph":7.083303414696036,"speed_limit_kph":30.0,"collisions_this_frame":[],"waypoint":{"x":-87.62308502197266,"y":12.940515518188477,"z":0.0},"lane_deviation_m":0.026323171332478523,"lane_width":3.5,"goal":{"x":52.78997039794922,"y":69.8227767944336,"z":0.5999999642372131},"fault":{"name":"fault_free","severity":1.0},"capture_flags":{"save_rgb":true,"save_depth":false,"video_rgb":true,"video_depth":false}}
{"frame":9427,"timestamp":{"delta_seconds":0.05000000074505806,"elapsed_seconds":91.67815961781889},"control":{"throttle":0.0,"steer":0.0,"brake":1.0,"hand_brake":false,"reverse":false,"manual_gear_shift":false,"gear":0},"transform":{"location":{"x":-87.62371063232422,"y":12.963232040405273,"z":-0.04620387777686119},"rotation":{"pitch":0.2766294777393341,"yaw":-179.73243713378906,"roll":-0.6037901639938354}},"velocity":{"x":0.00880208145827055,"y":0.009608513675630093,"z":-0.6603050827980042},"angular_velocity":{"x":-4.220658779144287,"y":2.627147912979126,"z":0.4981393814086914},"acceleration":{"x":-0.3257144093513489,"y":0.3387448489665985,"z":26.14211082458496},"speed_mps":0.6604336473423593,"speed_kph":2.3775611304324937,"speed_limit_kph":30.0,"collisions_this_frame":[],"waypoint":{"x":-87.62364959716797,"y":12.940515518188477,"z":0.0},"lane_deviation_m":0.05148633196949959,"lane_width":3.5,"goal":{"x":52.78997039794922,"y":69.8227767944336,"z":0.5999999642372131},"fault":{"name":"fault_free","severity":1.0},"capture_flags":{"save_rgb":true,"save_depth":false,"video_rgb":true,"video_depth":false}}
{"frame":9428,"timestamp":{"delta_seconds":0.05000000074505806,"elapsed_seconds":91.72815961856395},"control":{"throttle":0.0,"steer":0.0,"brake":1.0,"hand_brake":false,"reverse":false,"manual_gear_shift":false,"gear":0},"transform":{"location":{"x":-87.62348175048828,"y":12.964058876037598,"z":-0.058820076286792755},"rotation":{"pitch":0.26825565099716187,"yaw":-179.71920776367188,"roll":-0.5242918729782104}},"velocity":{"x":0.0006645662942901254,"y":-0.01268939021974802,"z":-0.053729347884655},"angular_velocity":{"x":1.847066879272461,"y":-1.0167386531829834,"z":0.0978432297706604},"acceleration":{"x":-0.16275030374526978,"y":-0.44595807790756226,"z":12.131514549255371},"speed_mps":0.055211458019317185,"speed_kph":0.19876124886954186,"speed_limit_kph":30.0,"collisions_this_frame":[],"waypoint":{"x":-87.62342071533203,"y":12.940515518188477,"z":0.0},"lane_deviation_m":0.06335688382387161,"lane_width":3.5,"goal":{"x":52.78997039794922,"y":69.8227767944336,"z":0.5999999642372131},"fault":{"name":"fault_free","severity":1.0},"capture_flags":{"save_rgb":true,"save_depth":false,"video_rgb":true,"video_depth":false}}
{"frame":9429,"timestamp":{"delta_seconds":0.05000000074505806,"elapsed_seconds":91.77815961930901},"control":{"throttle":0.0,"steer":0.0,"brake":1.0,"hand_brake":false,"reverse":false,"manual_gear_shift":false,"gear":0},"transform":{"location":{"x":-87.6231918334961,"y":12.964444160461426,"z":-0.05442088842391968},"rotation":{"pitch":0.21887339651584625,"yaw":-179.7208251953125,"roll":-0.43167105317115784}},"velocity":{"x":-0.001999730011448264,"y":-0.0028643771074712276,"z":0.14493133127689362},"angular_velocity":{"x":1.9544248580932617,"y":-1.0102105140686035,"z":-0.10114498436450958},"acceleration":{"x":-0.05328592658042908,"y":0.1965002715587616,"z":3.9732134342193604},"speed_mps":0.14497342639954805,"speed_kph":0.521904335038373,"speed_limit_kph":30.0,"collisions_this_frame":[],"waypoint":{"x":-87.62313079833984,"y":12.940515518188477,"z":0.0},"lane_deviation_m":0.05944927781820297,"lane_width":3.5,"goal":{"x":52.78997039794922,"y":69.8227767944336,"z":0.5999999642372131},"fault":{"name":"fault_free","severity":1.0},"capture_flags":{"save_rgb":true,"save_depth":false,"video_rgb":true,"video_depth":false}}
{"frame":9430,"timestamp":{"delta_seconds":0.05000000074505806,"elapsed_seconds":91.82815962005407},"control":{"throttle":0.0,"steer":0.0,"brake":1.0,"hand_brake":false,"reverse":false,"manual_gear_shift":false,"gear":0},"transform":{"location":{"x":-87.62294006347656,"y":12.965046882629395,"z":-0.04489299654960632},"rotation":{"pitch":0.1668137013912201,"yaw":-179.7273406982422,"roll":-0.3327941596508026}},"velocity":{"x":-0.0026892453897744417,"y":-0.000720391923096031,"z":0.19865672290325165},"angular_velocity":{"x":1.968743920326233,"y":-1.0299131870269775,"z":-0.15573857724666595},"acceleration":{"x":-0.013790307566523552,"y":0.042879700660705566,"z":1.0745078325271606},"speed_mps":0.19867623048555302,"speed_kph":0.7152344297479909,"speed_limit_kph":30.0,"collisions_this_frame":[],"waypoint":{"x":-87.62287139892578,"y":12.94051742553711,"z":0.0},"lane_deviation_m":0.05115740746259689,"lane_width":3.5,"goal":{"x":52.78997039794922,"y":69.8227767944336,"z":0.5999999642372131},"fault":{"name":"fault_free","severity":1.0},"capture_flags":{"save_rgb":true,"save_depth":false,"video_rgb":true,"video_depth":false}}
{"frame":9431,"timestamp":{"delta_seconds":0.05000000074505806,"elapsed_seconds":91.87815962079912},"control":{"throttle":0.0,"steer":0.0,"brake":1.0,"hand_brake":false,"reverse":false,"manual_gear_shift":false,"gear":0},"transform":{"location":{"x":-87.62273406982422,"y":12.965655326843262,"z":-0.03474674001336098},"rotation":{"pitch":0.11898872256278992,"yaw":-179.7350311279297,"roll":-0.2437438815832138}},"velocity":{"x":-0.0025845172349363565,"y":0.0008760271011851728,"z":0.19161874055862427},"angular_velocity":{"x":1.6601660251617432,"y":-0.8853875994682312,"z":-0.15850718319416046},"acceleration":{"x":0.0020945630967617035,"y":0.03192837908864021,"z":-0.1407596468925476},"speed_mps":0.19163817178759834,"speed_kph":0.689897418435354,"speed_limit_kph":30.0,"collisions_this_frame":[],"waypoint":{"x":-87.62266540527344,"y":12.94051742553711,"z":0.0},"lane_deviation_m":0.042886532843112946,"lane_width":3.5,"goal":{"x":52.78997039794922,"y":69.8227767944336,"z":0.5999999642372131},"fault":{"name":"fault_free","severity":1.0},"capture_flags":{"save_rgb":true,"save_depth":false,"video_rgb":true,"video_depth":false}}
{"frame":9432,"timestamp":{"delta_seconds":0.05000000074505806,"elapsed_seconds":91.92815962154418},"control":{"throttle":0.0,"steer":0.0,"brake":1.0,"hand_brake":false,"reverse":false,"manual_gear_shift":false,"gear":0},"transform":{"location":{"x":-87.62256622314453,"y":12.966208457946777,"z":-0.025760535150766373},"rotation":{"pitch":0.08114264160394669,"yaw":-179.7422332763672,"roll":-0.1741638034582138}},"velocity":{"x":-0.0021961291786283255,"y":0.002539262641221285,"z":0.16293922066688538},"angular_velocity":{"x":1.2391836643218994,"y":-0.6647558212280273,"z":-0.14248798787593842},"acceleration":{"x":0.007767761126160622,"y":0.03326471149921417,"z":-0.5735903978347778},"speed_mps":0.16297380301650413,"speed_kph":0.5867056908594149,"speed_limit_kph":30.0,"collisions_this_frame":[],"waypoint":{"x":-87.62249755859375,"y":12.94051742553711,"z":0.0},"lane_deviation_m":0.03638184815645218,"lane_width":3.5,"goal":{"x":52.78997039794922,"y":69.8227767944336,"z":0.5999999642372131},"fault":{"name":"fault_free","severity":1.0},"capture_flags":{"save_rgb":true,"save_depth":false,"video_rgb":true,"video_depth":false}}
{"frame":9433,"timestamp":{"delta_seconds":0.05000000074505806,"elapsed_seconds":91.97815962228924},"control":{"throttle":0.0,"steer":0.0,"brake":1.0,"hand_brake":false,"reverse":false,"manual_gear_shift":false,"gear":0},"transform":{"location":{"x":-87.62246704101562,"y":12.966697692871094,"z":-0.018442992120981216},"rotation":{"pitch":0.05450490489602089,"yaw":-179.74859619140625,"roll":-0.1250305324792862}},"velocity":{"x":-0.0017559307161718607,"y":0.004012775607407093,"z":0.13007588684558868},"angular_velocity":{"x":0.8438125848770142,"y":-0.4474639296531677,"z":-0.12112925946712494},"acceleration":{"x":0.008803969249129295,"y":0.029470259323716164,"z":-0.6572666764259338},"speed_mps":0.13014961390423632,"speed_kph":0.46853861005525077,"speed_limit_kph":30.0,"collisions_this_frame":[],"waypoint":{"x":-87.62239837646484,"y":12.94051742553711,"z":0.0},"lane_deviation_m":0.03202429041266441,"lane_width":3.5,"goal":{"x":52.78997039794922,"y":69.8227767944336,"z":0.5999999642372131},"fault":{"name":"fault_free","severity":1.0},"capture_flags":{"save_rgb":true,"save_depth":false,"video_rgb":true,"video_depth":false}}
{"frame":9434,"timestamp":{"delta_seconds":0.05000000074505806,"elapsed_seconds":92.0281596230343},"control":{"throttle":0.0,"steer":0.0,"brake":1.0,"hand_brake":false,"reverse":false,"manual_gear_shift":false,"gear":0},"transform":{"location":{"x":-87.62242126464844,"y":12.967130661010742,"z":-0.012753943912684917},"rotation":{"pitch":0.037702642381191254,"yaw":-179.75390625,"roll":-0.0933532565832138}},"velocity":{"x":-0.0013581897364929318,"y":0.005151613615453243,"z":0.10014905780553818},"angular_velocity":{"x":0.5235954523086548,"y":-0.2686513066291809,"z":-0.10025640577077866},"acceleration":{"x":0.00795481912791729,"y":0.022776760160923004,"z":-0.5985366106033325},"speed_mps":0.10029066547560778,"speed_kph":0.361046395712188,"speed_limit_kph":30.0,"collisions_this_frame":[],"waypoint":{"x":-87.62235260009766,"y":12.94051742553711,"z":0.0},"lane_deviation_m":0.02951155975461006,"lane_width":3.5,"goal":{"x":52.78997039794922,"y":69.8227767944336,"z":0.5999999642372131},"fault":{"name":"fault_free","severity":1.0},"capture_flags":{"save_rgb":true,"save_depth":false,"video_rgb":true,"video_depth":false}}
{"frame":9435,"timestamp":{"delta_seconds":0.05000000074505806,"elapsed_seconds":92.07815962377936},"control":{"throttle":0.0,"steer":0.0,"brake":1.0,"hand_brake":false,"reverse":false,"manual_gear_shift":false,"gear":0},"transform":{"location":{"x":-87.62239837646484,"y":12.967520713806152,"z":-0.00845340732485056},"rotation":{"pitch":0.02850237861275673,"yaw":-179.75827026367188,"roll":-0.0751342624425888}},"velocity":{"x":-0.001031902153044939,"y":0.005937986075878143,"z":0.07542520016431808},"angular_velocity":{"x":0.28408291935920715,"y":-0.13559968769550323,"z":-0.08213251084089279},"acceleration":{"x":0.006525751668959856,"y":0.015727449208498,"z":-0.49447715282440186},"speed_mps":0.07566561517967213,"speed_kph":0.2723962146468197,"speed_limit_kph":30.0,"collisions_this_frame":[],"waypoint":{"x":-87.62232971191406,"y":12.94051742553711,"z":0.0},"lane_deviation_m":0.028295625001192093,"lane_width":3.5,"goal":{"x":52.78997039794922,"y":69.8227767944336,"z":0.5999999642372131},"fault":{"name":"fault_free","severity":1.0},"capture_flags":{"save_rgb":true,"save_depth":false,"video_rgb":true,"video_depth":false}}
{"frame":9436,"timestamp":{"delta_seconds":0.05000000074505806,"elapsed_seconds":92.12815962452441},"control":{"throttle":0.0,"steer":0.0,"brake":1.0,"hand_brake":false,"reverse":false,"manual_gear_shift":false,"gear":0},"transform":{"location":{"x":-87.62242126464844,"y":12.967873573303223,"z":-0.005260162055492401},"rotation":{"pitch":0.024663811549544334,"yaw":-179.76190185546875,"roll":-0.066497802734375}},"velocity":{"x":-0.0007770645315758884,"y":0.006389473099261522,"z":0.05600255727767944},"angular_velocity":{"x":0.1187283992767334,"y":-0.04503943771123886,"z":-0.0671682134270668},"acceleration":{"x":0.005096752196550369,"y":0.00902974046766758,"z":-0.3884528577327728},"speed_mps":0.05637123040534229,"speed_kph":0.20293642945923224,"speed_limit_kph":30.0,"collisions_this_frame":[],"waypoint":{"x":-87.62234497070312,"y":12.94051742553711,"z":0.0},"lane_deviation_m":0.027857385575771332,"lane_width":3.5,"goal":{"x":52.78997039794922,"y":69.8227767944336,"z":0.5999999642372131},"fault":{"name":"fault_free","severity":1.0},"capture_flags":{"save_rgb":true,"save_depth":false,"video_rgb":true,"video_depth":false}}
{"frame":9437,"timestamp":{"delta_seconds":0.05000000074505806,"elapsed_seconds":92.17815962526947},"control":{"throttle":0.0,"steer":0.0,"brake":1.0,"hand_brake":false,"reverse":false,"manual_gear_shift":false,"gear":0},"transform":{"location":{"x":-87.62246704101562,"y":12.968198776245117,"z":-0.0029164121951907873},"rotation":{"pitch":0.024322303012013435,"yaw":-179.76483154296875,"roll":-0.0643005296587944}},"velocity":{"x":-0.0005841834936290979,"y":0.006597381085157394,"z":0.041218351572752},"angular_velocity":{"x":0.010306565091013908,"y":0.0125717893242836,"z":-0.05523857846856117},"acceleration":{"x":0.003857620758935809,"y":0.004158159717917442,"z":-0.2956840991973877},"speed_mps":0.04174708629248284,"speed_kph":0.15028951065293822,"speed_limit_kph":30.0,"collisions_this_frame":[],"waypoint":{"x":-87.62239074707031,"y":12.94051742553711,"z":0.0},"lane_deviation_m":0.027834663167595863,"lane_width":3.5,"goal":{"x":52.78997039794922,"y":69.8227767944336,"z":0.5999999642372131},"fault":{"name":"fault_free","severity":1.0},"capture_flags":{"save_rgb":true,"save_depth":false,"video_rgb":true,"video_depth":false}}
{"frame":9438,"timestamp":{"delta_seconds":0.05000000074505806,"elapsed_seconds":92.22815962601453},"control":{"throttle":0.0,"steer":0.0,"brake":1.0,"hand_brake":false,"reverse":false,"manual_gear_shift":false,"gear":0},"transform":{"location":{"x":-87.62248992919922,"y":12.968501091003418,"z":-0.0012093352852389216},"rotation":{"pitch":0.02610498107969761,"yaw":-179.76724243164062,"roll":-0.0661010816693306}},"velocity":{"x":-0.0004407772212289274,"y":0.00662406487390399,"z":0.03016728162765503},"angular_velocity":{"x":-0.05603358894586563,"y":0.04599746689200401,"z":-0.045881178230047226},"acceleration":{"x":0.0028681254480034113,"y":0.0005336757749319077,"z":-0.2210213989019394},"speed_mps":0.030889114600692193,"speed_kph":0.1112008125624919,"speed_limit_kph":30.0,"collisions_this_frame":[],"waypoint":{"x":-87.6224136352539,"y":12.94051742553711,"z":0.0},"lane_deviation_m":0.028009887784719467,"lane_width":3.5,"goal":{"x":52.78997039794922,"y":69.8227767944336,"z":0.5999999642372131},"fault":{"name":"fault_free","severity":1.0},"capture_flags":{"save_rgb":true,"save_depth":false,"video_rgb":true,"video_depth":false}}
{"frame":9439,"timestamp":{"delta_seconds":0.05000000074505806,"elapsed_seconds":92.27815962675959},"control":{"throttle":0.0,"steer":0.0,"brake":1.0,"hand_brake":false,"reverse":false,"manual_gear_shift":false,"gear":0},"transform":{"location":{"x":-87.62250518798828,"y":12.968789100646973,"z":2.8190612283651717e-05},"rotation":{"pitch":0.029028302058577538,"yaw":-179.7693328857422,"roll":-0.0702209398150444}},"velocity":{"x":-0.00033532141242176294,"y":0.0065360525622963905,"z":0.022007256746292114},"angular_velocity":{"x":-0.09178242832422256,"y":0.06266327947378159,"z":-0.03859182074666023},"acceleration":{"x":0.0021091161761432886,"y":-0.0017602462321519852,"z":-0.1632004976272583},"speed_mps":0.022959785997346525,"speed_kph":0.0826552295904475,"speed_limit_kph":30.0,"collisions_this_frame":[],"waypoint":{"x":-87.62242889404297,"y":12.94051742553711,"z":0.0},"lane_deviation_m":0.028271792456507683,"lane_width":3.5,"goal":{"x":52.78997039794922,"y":69.8227767944336,"z":0.5999999642372131},"fault":{"name":"fault_free","severity":1.0},"capture_flags":{"save_rgb":true,"save_depth":false,"video_rgb":true,"video_depth":false}}
{"frame":9440,"timestamp":{"delta_seconds":0.05000000074505806,"elapsed_seconds":92.32815962750465},"control":{"throttle":0.0,"steer":0.0,"brake":1.0,"hand_brake":false,"reverse":false,"manual_gear_shift":false,"gear":0},"transform":{"location":{"x":-87.6225357055664,"y":12.969063758850098,"z":0.0009226989350281656},"rotation":{"pitch":0.032416075468063354,"yaw":-179.77102661132812,"roll":-0.07543942332267761}},"velocity":{"x":-0.00025840013404376805,"y":0.006380850449204445,"z":0.01602376624941826},"angular_velocity":{"x":-0.10743287950754166,"y":0.06828252226114273,"z":-0.032939426600933075},"acceleration":{"x":0.001538425567559898,"y":-0.003104042261838913,"z":-0.11966980993747711},"speed_mps":0.01724943790099788,"speed_kph":0.06209797644359237,"speed_limit_kph":30.0,"collisions_this_frame":[],"waypoint":{"x":-87.6224594116211,"y":12.94051742553711,"z":0.0},"lane_deviation_m":0.028561342507600784,"lane_width":3.5,"goal":{"x":52.78997039794922,"y":69.8227767944336,"z":0.5999999642372131},"fault":{"name":"fault_free","severity":1.0},"capture_flags":{"save_rgb":true,"save_depth":false,"video_rgb":true,"video_depth":false}}
{"frame":9441,"timestamp":{"delta_seconds":0.05000000074505806,"elapsed_seconds":92.3781596282497},"control":{"throttle":0.0,"steer":0.0,"brake":1.0,"hand_brake":false,"reverse":false,"manual_gear_shift":false,"gear":0},"transform":{"location":{"x":-87.62255859375,"y":12.969327926635742,"z":0.0015680694486945868},"rotation":{"pitch":0.0358789823949337,"yaw":-179.7725372314453,"roll":-0.0810241550207138}},"velocity":{"x":-0.0002024856221396476,"y":0.00618786970153451,"z":0.011660680174827576},"angular_velocity":{"x":-0.1098676323890686,"y":0.0671532154083252,"z":-0.028565116226673126},"acceleration":{"x":0.001118290238082409,"y":-0.0038596149533987045,"z":-0.08726172149181366},"speed_mps":0.013202355623522604,"speed_kph":0.04752848024468138,"speed_limit_kph":30.0,"collisions_this_frame":[],"waypoint":{"x":-87.62248229980469,"y":12.94051742553711,"z":0.0},"lane_deviation_m":0.028853243216872215,"lane_width":3.5,"goal":{"x":52.78997039794922,"y":69.8227767944336,"z":0.5999999642372131},"fault":{"name":"fault_free","severity":1.0},"capture_flags":{"save_rgb":true,"save_depth":false,"video_rgb":true,"video_depth":false}}
{"frame":9442,"timestamp":{"delta_seconds":0.05000000074505806,"elapsed_seconds":92.42815962899476},"control":{"throttle":0.75,"steer":0.0,"brake":0.0,"hand_brake":false,"reverse":false,"manual_gear_shift":false,"gear":0},"transform":{"location":{"x":-87.62258911132812,"y":12.969583511352539,"z":0.0020333861466497183},"rotation":{"pitch":0.03914381191134453,"yaw":-179.7738800048828,"roll":-0.08645627647638321}},"velocity":{"x":-0.00016189961752388626,"y":0.00598595617339015,"z":0.008481387048959732},"angular_velocity":{"x":-0.10424886643886566,"y":0.062047503888607025,"z":-0.02516731061041355},"acceleration":{"x":0.0008117200923152268,"y":-0.004038270562887192,"z":-0.06358586251735687},"speed_mps":0.01038228342274299,"speed_kph":0.037376220321874765,"speed_limit_kph":30.0,"collisions_this_frame":[],"waypoint":{"x":-87.62251281738281,"y":12.94051742553711,"z":0.0},"lane_deviation_m":0.029137223958969116,"lane_width":3.5,"goal":{"x":52.78997039794922,"y":69.8227767944336,"z":0.5999999642372131},"fault":{"name":"fault_free","severity":1.0},"capture_flags":{"save_rgb":true,"save_depth":false,"video_rgb":true,"video_depth":false}}
{"frame":9443,"timestamp":{"delta_seconds":0.05000000074505806,"elapsed_seconds":92.47815962973982},"control":{"throttle":0.75,"steer":0.0,"brake":0.0,"hand_brake":false,"reverse":false,"manual_gear_shift":false,"gear":0},"transform":{"location":{"x":-87.62260437011719,"y":12.969833374023438,"z":0.0023685453925281763},"rotation":{"pitch":0.042094454169273376,"yaw":-179.77505493164062,"roll":-0.09149166941642761}},"velocity":{"x":-0.0001325835328316316,"y":0.005787453148514032,"z":0.006173986010253429},"angular_velocity":{"x":-0.09532569348812103,"y":0.05534748733043671,"z":-0.022561820223927498},"acceleration":{"x":0.0005863216938450933,"y":-0.003970060497522354,"z":-0.04614802077412605},"speed_mps":0.008463468295812784,"speed_kph":0.030468485864926023,"speed_limit_kph":30.0,"collisions_this_frame":[],"waypoint":{"x":-87.62252807617188,"y":12.94051742553711,"z":0.0},"lane_deviation_m":0.029411572962999344,"lane_width":3.5,"goal":{"x":52.78997039794922,"y":69.8227767944336,"z":0.5999999642372131},"fault":{"name":"fault_free","severity":1.0},"capture_flags":{"save_rgb":true,"save_depth":false,"video_rgb":true,"video_depth":false}}
{"frame":9444,"timestamp":{"delta_seconds":0.05000000074505806,"elapsed_seconds":92.52815963048488},"control":{"throttle":0.75,"steer":0.0,"brake":0.0,"hand_brake":false,"reverse":false,"manual_gear_shift":false,"gear":0},"transform":{"location":{"x":-87.62262725830078,"y":12.970077514648438,"z":0.0026098249945789576},"rotation":{"pitch":0.044676266610622406,"yaw":-179.77610778808594,"roll":-0.0959777683019638}},"velocity":{"x":-0.00011117473331978545,"y":0.005598902702331543,"z":0.004487170372158289},"angular_velocity":{"x":-0.08338543027639389,"y":0.04760745167732239,"z":-0.02050781436264515},"acceleration":{"x":0.0004281759902369231,"y":-0.003771008923649788,"z":-0.03373631089925766},"speed_mps":0.0071759855936504875,"speed_kph":0.025833548137141754,"speed_limit_kph":30.0,"collisions_this_frame":[],"waypoint":{"x":-87.62255096435547,"y":12.94051742553711,"z":0.0},"lane_deviation_m":0.02967517264187336,"lane_width":3.5,"goal":{"x":52.78997039794922,"y":69.8227767944336,"z":0.5999999642372131},"fault":{"name":"fault_free","severity":1.0},"capture_flags":{"save_rgb":true,"save_depth":false,"video_rgb":true,"video_depth":false}}
{"frame":9445,"timestamp":{"delta_seconds":0.05000000074505806,"elapsed_seconds":92.57815963122994},"control":{"throttle":0.75,"steer":0.0,"brake":0.0,"hand_brake":false,"reverse":false,"manual_gear_shift":false,"gear":0},"transform":{"location":{"x":-87.62263488769531,"y":12.970319747924805,"z":0.0027835846412926912},"rotation":{"pitch":0.04686875641345978,"yaw":-179.7770538330078,"roll":-0.0998535081744194}},"velocity":{"x":-9.558320016367361e-05,"y":0.005425881128758192,"z":0.0032597507815808058},"angular_velocity":{"x":-0.07120345532894135,"y":0.040047790855169296,"z":-0.01891588792204857},"acceleration":{"x":0.00031183066312223673,"y":-0.003460431471467018,"z":-0.024548392742872238},"speed_mps":0.006330505298124667,"speed_kph":0.0227898190732488,"speed_limit_kph":30.0,"collisions_this_frame":[],"waypoint":{"x":-87.62255859375,"y":12.94051742553711,"z":0.0},"lane_deviation_m":0.029932133853435516,"lane_width":3.5,"goal":{"x":52.78997039794922,"y":69.8227767944336,"z":0.5999999642372131},"fault":{"name":"fault_free","severity":1.0},"capture_flags":{"save_rgb":true,"save_depth":false,"video_rgb":true,"video_depth":false}}
{"frame":9446,"timestamp":{"delta_seconds":0.05000000074505806,"elapsed_seconds":92.628159631975},"control":{"throttle":0.75,"steer":0.0,"brake":0.0,"hand_brake":false,"reverse":false,"manual_gear_shift":false,"gear":0},"transform":{"location":{"x":-87.6226577758789,"y":12.97048282623291,"z":0.0029108428861945868},"rotation":{"pitch":0.04884267970919609,"yaw":-179.7778778076172,"roll":-0.10403440147638321}},"velocity":{"x":-9.244009561371058e-05,"y":0.0005553114460781217,"z":0.0024763282854110003},"angular_velocity":{"x":-0.09664435684680939,"y":0.03749341145157814,"z":-0.009472058154642582},"acceleration":{"x":6.286209099926054e-05,"y":-0.0974113941192627,"z":-0.01566844992339611},"speed_mps":0.002539511321209069,"speed_kph":0.009142240756352648,"speed_limit_kph":30.0,"collisions_this_frame":[],"waypoint":{"x":-87.6225814819336,"y":12.94051742553711,"z":0.0},"lane_deviation_m":0.030106544494628906,"lane_width":3.5,"goal":{"x":52.78997039794922,"y":69.8227767944336,"z":0.5999999642372131},"fault":{"name":"fault_free","severity":1.0},"capture_flags":{"save_rgb":true,"save_depth":false,"video_rgb":true,"video_depth":false}}
{"frame":9447,"timestamp":{"delta_seconds":0.05000000074505806,"elapsed_seconds":92.67815963272005},"control":{"throttle":0.75,"steer":0.0,"brake":0.0,"hand_brake":false,"reverse":false,"manual_gear_shift":false,"gear":0},"transform":{"location":{"x":-87.62266540527344,"y":12.970476150512695,"z":0.0030029297340661287},"rotation":{"pitch":0.050434112548828125,"yaw":-179.77825927734375,"roll":-0.107330322265625}},"velocity":{"x":-7.928997365524992e-05,"y":0.0003507065703161061,"z":0.0017756391316652298},"angular_velocity":{"x":-0.05442652851343155,"y":0.028775081038475037,"z":-0.007145017851144075},"acceleration":{"x":0.0002630024391692132,"y":-0.004092097282409668,"z":-0.014013783074915409},"speed_mps":0.0018116777650250024,"speed_kph":0.006522039954090009,"speed_limit_kph":30.0,"collisions_this_frame":[],"waypoint":{"x":-87.6225814819336,"y":12.94051742553711,"z":0.0},"lane_deviation_m":0.030108965933322906,"lane_width":3.5,"goal":{"x":52.78997039794922,"y":69.8227767944336,"z":0.5999999642372131},"fault":{"name":"fault_free","severity":1.0},"capture_flags":{"save_rgb":true,"save_depth":false,"video_rgb":true,"video_depth":false}}
{"frame":9448,"timestamp":{"delta_seconds":0.05000000074505806,"elapsed_seconds":92.72815963346511},"control":{"throttle":0.75,"steer":0.0,"brake":0.0,"hand_brake":false,"reverse":false,"manual_gear_shift":false,"gear":0},"transform":{"location":{"x":-87.62267303466797,"y":12.970473289489746,"z":0.0030709074344486},"rotation":{"pitch":0.05180015042424202,"yaw":-179.77859497070312,"roll":-0.1098327562212944}},"velocity":{"x":-7.359578739851713e-05,"y":0.00032484738039784133,"z":0.0013586007989943027},"angular_velocity":{"x":-0.04713417962193489,"y":0.02593584731221199,"z":-0.006357037927955389},"acceleration":{"x":0.00011388372513465583,"y":-0.0005171837983652949,"z":-0.008340766653418541},"speed_mps":0.0013988346190676386,"speed_kph":0.005035804628643499,"speed_limit_kph":30.0,"collisions_this_frame":[],"waypoint":{"x":-87.62259674072266,"y":12.94051742553711,"z":0.0},"lane_deviation_m":0.03011295571923256,"lane_width":3.5,"goal":{"x":52.78997039794922,"y":69.8227767944336,"z":0.5999999642372131},"fault":{"name":"fault_free","severity":1.0},"capture_flags":{"save_rgb":true,"save_depth":false,"video_rgb":true,"video_depth":false}}
{"frame":9449,"timestamp":{"delta_seconds":0.05000000074505806,"elapsed_seconds":92.77815963421017},"control":{"throttle":0.75,"steer":0.0,"brake":0.0,"hand_brake":false,"reverse":false,"manual_gear_shift":false,"gear":0},"transform":{"location":{"x":-87.6226806640625,"y":12.970473289489746,"z":0.003099975408986211},"rotation":{"pitch":0.052599284797906876,"yaw":-179.77880859375,"roll":-0.11145015805959702}},"velocity":{"x":-6.414129893528298e-05,"y":0.0002729529223870486,"z":0.0004817356530111283},"angular_velocity":{"x":-0.03783104941248894,"y":0.016227416694164276,"z":-0.00468358863145113},"acceleration":{"x":0.00018908976926468313,"y":-0.0010378891602158546,"z":-0.017537303268909454},"speed_mps":0.0005573927192301615,"speed_kph":0.0020066137892285813,"speed_limit_kph":30.0,"collisions_this_frame":[],"waypoint":{"x":-87.62259674072266,"y":12.94051742553711,"z":0.0},"lane_deviation_m":0.03011595457792282,"lane_width":3.5,"goal":{"x":52.78997039794922,"y":69.8227767944336,"z":0.5999999642372131},"fault":{"name":"fault_free","severity":1.0},"capture_flags":{"save_rgb":true,"save_depth":false,"video_rgb":true,"video_depth":false}}
{"frame":9450,"timestamp":{"delta_seconds":0.05000000074505806,"elapsed_seconds":92.82815963495523},"control":{"throttle":0.75,"steer":0.0,"brake":0.0,"hand_brake":false,"reverse":false,"manual_gear_shift":false,"gear":0},"transform":{"location":{"x":-87.6226806640625,"y":12.970468521118164,"z":0.0031280135735869408},"rotation":{"pitch":0.05365113168954849,"yaw":-179.77903747558594,"roll":-0.11361692100763321}},"velocity":{"x":-6.658494385192171e-05,"y":0.0002905362634919584,"z":0.000759603688493371},"angular_velocity":{"x":-0.04286808520555496,"y":0.021883711218833923,"z":-0.005346410442143679},"acceleration":{"x":-4.887289833277464e-05,"y":0.00035166682209819555,"z":0.005557360593229532},"speed_mps":0.0008159918129027805,"speed_kph":0.00293757052645001,"speed_limit_kph":30.0,"collisions_this_frame":[],"waypoint":{"x":-87.62259674072266,"y":12.94051742553711,"z":0.0},"lane_deviation_m":0.030114110559225082,"lane_width":3.5,"goal":{"x":52.78997039794922,"y":69.8227767944336,"z":0.5999999642372131},"fault":{"name":"fault_free","severity":1.0},"capture_flags":{"save_rgb":true,"save_depth":false,"video_rgb":true,"video_depth":false}}
{"frame":9451,"timestamp":{"delta_seconds":0.05000000074505806,"elapsed_seconds":92.87815963570029},"control":{"throttle":0.75,"steer":0.0,"brake":0.0,"hand_brake":false,"reverse":false,"manual_gear_shift":false,"gear":0},"transform":{"location":{"x":-87.62269592285156,"y":12.970464706420898,"z":0.003160629188641906},"rotation":{"pitch":0.05470298230648041,"yaw":-179.77931213378906,"roll":-0.11557002365589142}},"velocity":{"x":-6.628066330449656e-05,"y":0.0002839055669028312,"z":0.0007669982733204961},"angular_velocity":{"x":-0.03648504614830017,"y":0.019968915730714798,"z":-0.005175095517188311},"acceleration":{"x":6.0856109485030174e-06,"y":-0.00013261393178254366,"z":0.00014789169654250145},"speed_mps":0.0008205375363279393,"speed_kph":0.0029539351307805817,"speed_limit_kph":30.0,"collisions_this_frame":[],"waypoint":{"x":-87.62261199951172,"y":12.94051742553711,"z":0.0},"lane_deviation_m":0.030113723129034042,"lane_width":3.5,"goal":{"x":52.78997039794922,"y":69.8227767944336,"z":0.5999999642372131},"fault":{"name":"fault_free","severity":1.0},"capture_flags":{"save_rgb":true,"save_depth":false,"video_rgb":true,"video_depth":false}}
{"frame":9452,"timestamp":{"delta_seconds":0.05000000074505806,"elapsed_seconds":92.92815963644534},"control":{"throttle":0.75,"steer":0.0,"brake":0.0,"hand_brake":false,"reverse":false,"manual_gear_shift":false,"gear":0},"transform":{"location":{"x":-87.63605499267578,"y":12.970513343811035,"z":0.0030403519049286842},"rotation":{"pitch":0.06822675466537476,"yaw":-179.7866668701172,"roll":-0.10910031944513321}},"velocity":{"x":-0.6372439861297607,"y":0.0002224973140982911,"z":0.00013865470828022808},"angular_velocity":{"x":-0.07915294170379639,"y":0.6869701147079468,"z":-0.25611087679862976},"acceleration":{"x":-12.74355411529541,"y":-0.0012281651142984629,"z":-0.012566871009767056},"speed_mps":0.6372440400574411,"speed_kph":2.294078544206788,"speed_limit_kph":30.0,"collisions_this_frame":[],"waypoint":{"x":-87.63597106933594,"y":12.940481185913086,"z":0.0},"lane_deviation_m":0.030185779556632042,"lane_width":3.5,"goal":{"x":52.78997039794922,"y":69.8227767944336,"z":0.5999999642372131},"fault":{"name":"fault_free","severity":1.0},"capture_flags":{"save_rgb":true,"save_depth":false,"video_rgb":true,"video_depth":false}}
{"frame":9453,"timestamp":{"delta_seconds":0.05000000074505806,"elapsed_seconds":92.9781596371904},"control":{"throttle":0.75,"steer":0.0,"brake":0.0,"hand_brake":false,"reverse":false,"manual_gear_shift":false,"gear":0},"transform":{"location":{"x":-87.68820190429688,"y":12.970203399658203,"z":0.003187904367223382},"rotation":{"pitch":0.12086018919944763,"yaw":-179.7830047607422,"roll":-0.1592101901769638}},"velocity":{"x":-1.2480182647705078,"y":0.003412003628909588,"z":0.017527751624584198},"angular_velocity":{"x":-1.7234898805618286,"y":1.2580087184906006,"z":0.2921935021877289},"acceleration":{"x":-12.215485572814941,"y":0.06379012763500214,"z":0.3477819263935089},"speed_mps":1.2481460063015728,"speed_kph":4.493325622685663,"speed_limit_kph":30.0,"collisions_this_frame":[],"waypoint":{"x":-87.68812561035156,"y":12.940336227416992,"z":0.0},"lane_deviation_m":0.030036918818950653,"lane_width":3.5,"goal":{"x":52.78997039794922,"y":69.8227767944336,"z":0.5999999642372131},"fault":{"name":"fault_free","severity":1.0},"capture_flags":{"save_rgb":true,"save_depth":false,"video_rgb":true,"video_depth":false}}
{"frame":9454,"timestamp":{"delta_seconds":0.05000000074505806,"elapsed_seconds":93.02815963793546},"control":{"throttle":0.75,"steer":0.06304783374071121,"brake":0.0,"hand_brake":false,"reverse":false,"manual_gear_shift":false,"gear":0},"transform":{"location":{"x":-87.7697525024414,"y":12.968684196472168,"z":0.003657493507489562},"rotation":{"pitch":0.17304283380508423,"yaw":-179.7045135498047,"roll":-0.2170104682445526}},"velocity":{"x":-1.821158766746521,"y":-0.05359356850385666,"z":0.00834143627434969},"angular_velocity":{"x":-0.33683860301971436,"y":0.6079195737838745,"z":2.2980167865753174},"acceleration":{"x":-11.462810516357422,"y":-1.1401114463806152,"z":-0.18372631072998047},"speed_mps":1.821966274068158,"speed_kph":6.559078586645368,"speed_limit_kph":30.0,"collisions_this_frame":[],"waypoint":{"x":-87.7696762084961,"y":12.940109252929688,"z":0.0},"lane_deviation_m":0.028808167204260826,"lane_width":3.5,"goal":{"x":52.78997039794922,"y":69.8227767944336,"z":0.5999999642372131},"fault":{"name":"fault_free","severity":1.0},"capture_flags":{"save_rgb":true,"save_depth":false,"video_rgb":true,"video_depth":false}}
{"frame":9455,"timestamp":{"delta_seconds":0.05000000074505806,"elapsed_seconds":93.07815963868052},"control":{"throttle":0.75,"steer":0.06304783374071121,"brake":0.0,"hand_brake":false,"reverse":false,"manual_gear_shift":false,"gear":0},"transform":{"location":{"x":-87.87364196777344,"y":12.965368270874023,"z":0.003840217599645257},"rotation":{"pitch":0.1938612461090088,"yaw":-179.5734100341797,"roll":-0.234375}},"velocity":{"x":-2.2347571849823,"y":-0.09294918179512024,"z":0.011831607669591904},"angular_velocity":{"x":-1.1895010471343994,"y":0.6175287961959839,"z":2.9620213508605957},"acceleration":{"x":-8.271968841552734,"y":-0.7871122360229492,"z":0.06980343163013458},"speed_mps":2.2367206381590083,"speed_kph":8.05219429737243,"speed_limit_kph":30.0,"collisions_this_frame":[],"waypoint":{"x":-87.87357330322266,"y":12.9398193359375,"z":0.0},"lane_deviation_m":0.025836022570729256,"lane_width":3.5,"goal":{"x":52.78997039794922,"y":69.8227767944336,"z":0.5999999642372131},"fault":{"name":"fault_free","severity":1.0},"capture_flags":{"save_rgb":true,"save_depth":false,"video_rgb":true,"video_depth":false}}
{"frame":9456,"timestamp":{"delta_seconds":0.05000000074505806,"elapsed_seconds":93.12815963942558},"control":{"throttle":0.75,"steer":0.06907033175230026,"brake":0.0,"hand_brake":false,"reverse":false,"manual_gear_shift":false,"gear":0},"transform":{"location":{"x":-87.99518585205078,"y":12.960319519042969,"z":0.004206314217299223},"rotation":{"pitch":0.21338193118572235,"yaw":-179.39028930664062,"roll":-0.26989734172821045}},"velocity":{"x":-2.569643259048462,"y":-0.1327572911977768,"z":0.006762857083231211},"angular_velocity":{"x":-0.3234926164150238,"y":0.21841682493686676,"z":3.849482536315918},"acceleration":{"x":-6.697721481323242,"y":-0.7961621880531311,"z":-0.10137501358985901},"speed_mps":2.573079227963123,"speed_kph":9.263085220667243,"speed_limit_kph":30.0,"collisions_this_frame":[],"waypoint":{"x":-87.99513244628906,"y":12.939481735229492,"z":0.0},"lane_deviation_m":0.02125815488398075,"lane_width":3.5,"goal":{"x":52.78997039794922,"y":69.8227767944336,"z":0.5999999642372131},"fault":{"name":"fault_free","severity":1.0},"capture_flags":{"save_rgb":true,"save_depth":false,"video_rgb":true,"video_depth":false}}
{"frame":9457,"timestamp":{"delta_seconds":0.05000000074505806,"elapsed_seconds":93.17815964017063},"control":{"throttle":0.75,"steer":0.06907033175230026,"brake":0.0,"hand_brake":false,"reverse":false,"manual_gear_shift":false,"gear":0},"transform":{"location":{"x":-88.13176727294922,"y":12.954740524291992,"z":0.003583564655855298},"rotation":{"pitch":0.16847343742847443,"yaw":-179.18629455566406,"roll":-0.1500549018383026}},"velocity":{"x":-2.861802816390991,"y":-0.18437419831752777,"z":-0.05558362230658531},"angular_velocity":{"x":5.985608100891113,"y":-2.3792405128479004,"z":3.7499568462371826},"acceleration":{"x":-5.843191146850586,"y":-1.0323381423950195,"z":-1.24692964553833},"speed_mps":2.8682745238169516,"speed_kph":10.325788285741027,"speed_limit_kph":30.0,"collisions_this_frame":[],"waypoint":{"x":-88.13172912597656,"y":12.939102172851562,"z":0.0},"lane_deviation_m":0.016043735668063164,"lane_width":3.5,"goal":{"x":52.78997039794922,"y":69.8227767944336,"z":0.5999999642372131},"fault":{"name":"fault_free","severity":1.0},"capture_flags":{"save_rgb":true,"save_depth":false,"video_rgb":true,"video_depth":false}}
{"frame":9458,"timestamp":{"delta_seconds":0.05000000074505806,"elapsed_seconds":93.22815964091569},"control":{"throttle":0.75,"steer":0.08616882562637329,"brake":0.0,"hand_brake":false,"reverse":false,"manual_gear_shift":false,"gear":0},"transform":{"location":{"x":-88.28266143798828,"y":12.94603443145752,"z":0.0021437453106045723},"rotation":{"pitch":0.0996934324502945,"yaw":-178.91903686523438,"roll":-0.028076171875}},"velocity":{"x":-3.1379902362823486,"y":-0.23682725429534912,"z":-0.026722801849246025},"angular_velocity":{"x":1.1449549198150635,"y":-0.8420931696891785,"z":6.091831684112549},"acceleration":{"x":-5.523748397827148,"y":-1.0490610599517822,"z":0.577216386795044},"speed_mps":3.14702780088119,"speed_kph":11.329300083172283,"speed_limit_kph":30.0,"collisions_this_frame":[],"waypoint":{"x":-88.28264617919922,"y":12.938684463500977,"z":0.0},"lane_deviation_m":0.0076562329195439816,"lane_width":3.5,"goal":{"x":52.78997039794922,"y":69.8227767944336,"z":0.5999999642372131},"fault":{"name":"fault_free","severity":1.0},"capture_flags":{"save_rgb":true,"save_depth":false,"video_rgb":true,"video_depth":false}}
{"frame":9459,"timestamp":{"delta_seconds":0.05000000074505806,"elapsed_seconds":93.27815964166075},"control":{"throttle":0.75,"steer":0.08616882562637329,"brake":0.0,"hand_brake":false,"reverse":false,"manual_gear_shift":false,"gear":0},"transform":{"location":{"x":-88.44762420654297,"y":12.935312271118164,"z":0.001437721191905439},"rotation":{"pitch":0.0761224552989006,"yaw":-178.6216583251953,"roll":-0.006103514693677425}},"velocity":{"x":-3.409066677093506,"y":-0.26375922560691833,"z":-0.011651134118437767},"angular_velocity":{"x":0.17516715824604034,"y":-0.285948783159256,"z":5.932782173156738},"acceleration":{"x":-5.4215288162231445,"y":-0.5386394262313843,"z":0.30143335461616516},"speed_mps":3.419274818859748,"speed_kph":12.309389347895094,"speed_limit_kph":30.0,"collisions_this_frame":[],"waypoint":{"x":-88.44763946533203,"y":12.938224792480469,"z":0.0},"lane_deviation_m":0.0032480850350111723,"lane_width":3.5,"goal":{"x":52.78997039794922,"y":69.8227767944336,"z":0.5999999642372131},"fault":{"name":"fault_free","severity":1.0},"capture_flags":{"save_rgb":true,"save_depth":false,"video_rgb":true,"video_depth":false}}
{"frame":9460,"timestamp":{"delta_seconds":0.05000000074505806,"elapsed_seconds":93.32815964240581},"control":{"throttle":0.0,"steer":0.08937741070985794,"brake":0.0,"hand_brake":false,"reverse":false,"manual_gear_shift":false,"gear":0},"transform":{"location":{"x":-88.62535095214844,"y":12.922910690307617,"z":0.0011533737415447831},"rotation":{"pitch":0.0676666796207428,"yaw":-178.28675842285156,"roll":-0.005920409690588713}},"velocity":{"x":-3.6421236991882324,"y":-0.30224207043647766,"z":-0.0040850830264389515},"angular_velocity":{"x":-0.04792974144220352,"y":-0.12668170034885406,"z":7.080064296722412},"acceleration":{"x":-4.661140441894531,"y":-0.7696568965911865,"z":0.15132102370262146},"speed_mps":3.6546452628447588,"speed_kph":13.156722946241132,"speed_limit_kph":30.0,"collisions_this_frame":[],"waypoint":{"x":-88.62539672851562,"y":12.93773078918457,"z":0.0},"lane_deviation_m":0.014864982105791569,"lane_width":3.5,"goal":{"x":52.78997039794922,"y":69.8227767944336,"z":0.5999999642372131},"fault":{"name":"fault_free","severity":1.0},"capture_flags":{"save_rgb":true,"save_depth":false,"video_rgb":true,"video_depth":false}}
{"frame":9461,"timestamp":{"delta_seconds":0.05000000074505806,"elapsed_seconds":93.37815964315087},"control":{"throttle":0.0,"steer":0.08937741070985794,"brake":0.0,"hand_brake":false,"reverse":false,"manual_gear_shift":false,"gear":0},"transform":{"location":{"x":-88.81177520751953,"y":12.908817291259766,"z":0.0011064910795539618},"rotation":{"pitch":0.060966264456510544,"yaw":-177.93887329101562,"roll":-0.0091552734375}},"velocity":{"x":-3.768559455871582,"y":-0.33439362049102783,"z":-0.0005301857017911971},"angular_velocity":{"x":-0.056517116725444794,"y":-0.15682353079319,"z":6.684899806976318},"acceleration":{"x":-2.528715133666992,"y":-0.6430310010910034,"z":0.0710979476571083},"speed_mps":3.7833661925540714,"speed_kph":13.620118293194658,"speed_limit_kph":30.0,"collisions_this_frame":[],"waypoint":{"x":-88.81210327148438,"y":12.937211036682129,"z":0.0},"lane_deviation_m":0.02841719053685665,"lane_width":3.5,"goal":{"x":52.78997039794922,"y":69.8227767944336,"z":0.5999999642372131},"fault":{"name":"fault_free","severity":1.0},"capture_flags":{"save_rgb":true,"save_depth":false,"video_rgb":true,"video_depth":false}}
{"frame":9462,"timestamp":{"delta_seconds":0.05000000074505806,"elapsed_seconds":93.42815964389592},"control":{"throttle":0.0,"steer":-0.005609453655779362,"brake":1.0,"hand_brake":false,"reverse":false,"manual_gear_shift":false,"gear":0},"transform":{"location":{"x":-89.0009765625,"y":12.897859573364258,"z":0.0011900329263880849},"rotation":{"pitch":0.050714150071144104,"yaw":-177.78952026367188,"roll":0.00872145313769579}},"velocity":{"x":-3.7794570922851562,"y":-0.18815307319164276,"z":0.0009471607045270503},"angular_velocity":{"x":0.3998236656188965,"y":-0.22475653886795044,"z":1.3981714248657227},"acceleration":{"x":-0.21795272827148438,"y":2.9248108863830566,"z":0.02954692766070366},"speed_mps":3.7841377338159123,"speed_kph":13.622895841737284,"speed_limit_kph":30.0,"collisions_this_frame":[],"waypoint":{"x":-89.00141906738281,"y":12.936684608459473,"z":0.0},"lane_deviation_m":0.038845788687467575,"lane_width":3.5,"goal":{"x":52.78997039794922,"y":69.8227767944336,"z":0.5999999642372131},"fault":{"name":"fault_free","severity":1.0},"capture_flags":{"save_rgb":true,"save_depth":false,"video_rgb":true,"video_depth":false}}
{"frame":9463,"timestamp":{"delta_seconds":0.05000000074505806,"elapsed_seconds":93.47815964464098},"control":{"throttle":0.0,"steer":-0.005609453655779362,"brake":1.0,"hand_brake":false,"reverse":false,"manual_gear_shift":false,"gear":0},"transform":{"location":{"x":-89.18751525878906,"y":12.890054702758789,"z":0.0013351821107789874},"rotation":{"pitch":0.03677373751997948,"yaw":-177.79270935058594,"roll":0.019391443580389023}},"velocity":{"x":-3.6907873153686523,"y":-0.14366231858730316,"z":0.001396017032675445},"angular_velocity":{"x":0.11727530509233475,"y":-0.2952478229999542,"z":-0.8102277517318726},"acceleration":{"x":1.7733955383300781,"y":0.889815092086792,"z":0.008977126330137253},"speed_mps":3.693582518088851,"speed_kph":13.296897065119865,"speed_limit_kph":30.0,"collisions_this_frame":[],"waypoint":{"x":-89.18804168701172,"y":12.936165809631348,"z":0.0},"lane_deviation_m":0.046133436262607574,"lane_width":3.5,"goal":{"x":52.78997039794922,"y":69.8227767944336,"z":0.5999999642372131},"fault":{"name":"fault_free","severity":1.0},"capture_flags":{"save_rgb":true,"save_depth":false,"video_rgb":true,"video_depth":false}}
{"frame":9464,"timestamp":{"delta_seconds":0.05000000074505806,"elapsed_seconds":93.52815964538604},"control":{"throttle":0.0,"steer":0.00404591066762805,"brake":1.0,"hand_brake":false,"reverse":false,"manual_gear_shift":false,"gear":0},"transform":{"location":{"x":-89.3673095703125,"y":12.882884979248047,"z":0.0014987945323809981},"rotation":{"pitch":0.02091403864324093,"yaw":-177.7814483642578,"roll":0.01773342676460743}},"velocity":{"x":-3.528350353240967,"y":-0.14343196153640747,"z":0.0013811683747917414},"angular_velocity":{"x":-0.05986153706908226,"y":-0.32761767506599426,"z":0.8491712212562561},"acceleration":{"x":3.248739242553711,"y":0.004607141017913818,"z":-0.0002969731576740742},"speed_mps":3.531264766401964,"speed_kph":12.71255315904707,"speed_limit_kph":30.0,"collisions_this_frame":[],"waypoint":{"x":-89.36790466308594,"y":12.93566608428955,"z":0.0},"lane_deviation_m":0.05280573293566704,"lane_width":3.5,"goal":{"x":52.78997039794922,"y":69.8227767944336,"z":0.5999999642372131},"fault":{"name":"fault_free","severity":1.0},"capture_flags":{"save_rgb":true,"save_depth":false,"video_rgb":true,"video_depth":false}}
{"frame":9465,"timestamp":{"delta_seconds":0.05000000074505806,"elapsed_seconds":93.5781596461311},"control":{"throttle":0.0,"steer":0.00404591066762805,"brake":1.0,"hand_brake":false,"reverse":false,"manual_gear_shift":false,"gear":0},"transform":{"location":{"x":-89.53742980957031,"y":12.87592601776123,"z":0.0016564178513363004},"rotation":{"pitch":0.004835773725062609,"yaw":-177.77479553222656,"roll":0.013862290419638157}},"velocity":{"x":-3.3193631172180176,"y":-0.1366068422794342,"z":0.001184005755931139},"angular_velocity":{"x":-0.06308267265558243,"y":-0.31438273191452026,"z":-0.41796326637268066},"acceleration":{"x":4.179744720458984,"y":0.13650238513946533,"z":-0.003943252377212048},"speed_mps":3.3221731344369307,"speed_kph":11.95982328397295,"speed_limit_kph":30.0,"collisions_this_frame":[],"waypoint":{"x":-89.53809356689453,"y":12.93519401550293,"z":0.0},"lane_deviation_m":0.05929485708475113,"lane_width":3.5,"goal":{"x":52.78997039794922,"y":69.8227767944336,"z":0.5999999642372131},"fault":{"name":"fault_free","severity":1.0},"capture_flags":{"save_rgb":true,"save_depth":false,"video_rgb":true,"video_depth":false}}
{"frame":9466,"timestamp":{"delta_seconds":0.05000000074505806,"elapsed_seconds":93.62815964687616},"control":{"throttle":0.06900013983249664,"steer":0.13864663243293762,"brake":0.0,"hand_brake":false,"reverse":false,"manual_gear_shift":false,"gear":0},"transform":{"location":{"x":-89.69741821289062,"y":12.866514205932617,"z":0.0017866133712232113},"rotation":{"pitch":-0.008483094163239002,"yaw":-177.60983276367188,"roll":-0.004486083053052425}},"velocity":{"x":-3.1286303997039795,"y":-0.2694891095161438,"z":0.0009424590971320868},"angular_velocity":{"x":-0.5288634300231934,"y":-0.25117364525794983,"z":6.398529529571533},"acceleration":{"x":3.8146543502807617,"y":-2.6576452255249023,"z":-0.004830933175981045},"speed_mps":3.1402155095357447,"speed_kph":11.304775834328682,"speed_limit_kph":30.0,"collisions_this_frame":[],"waypoint":{"x":-89.69818115234375,"y":12.934748649597168,"z":0.0},"lane_deviation_m":0.06826209276914597,"lane_width":3.5,"goal":{"x":52.78997039794922,"y":69.8227767944336,"z":0.5999999642372131},"fault":{"name":"fault_free","severity":1.0},"capture_flags":{"save_rgb":true,"save_depth":false,"video_rgb":true,"video_depth":false}}
{"frame":9467,"timestamp":{"delta_seconds":0.05000000074505806,"elapsed_seconds":93.67815964762121},"control":{"throttle":0.06900013983249664,"steer":0.13864663243293762,"brake":0.0,"hand_brake":false,"reverse":false,"manual_gear_shift":false,"gear":0},"transform":{"location":{"x":-89.85027313232422,"y":12.851625442504883,"z":0.0018707657000049949},"rotation":{"pitch":-0.015955321490764618,"yaw":-177.22645568847656,"roll":-0.026031494140625}},"velocity":{"x":-3.0227575302124023,"y":-0.37114280462265015,"z":0.0007139014778658748},"angular_velocity":{"x":-0.2919904589653015,"y":-0.10653971135616302,"z":7.811089992523193},"acceleration":{"x":2.117457389831543,"y":-2.033073902130127,"z":-0.00457115238532424},"speed_mps":3.0454573675450245,"speed_kph":10.963646523162089,"speed_limit_kph":30.0,"collisions_this_frame":[],"waypoint":{"x":-89.85120391845703,"y":12.93432331085205,"z":0.0},"lane_deviation_m":0.08272425830364227,"lane_width":3.5,"goal":{"x":52.78997039794922,"y":69.8227767944336,"z":0.5999999642372131},"fault":{"name":"fault_free","severity":1.0},"capture_flags":{"save_rgb":true,"save_depth":false,"video_rgb":true,"video_depth":false}}
{"frame":9468,"timestamp":{"delta_seconds":0.05000000074505806,"elapsed_seconds":93.72815964836627},"control":{"throttle":0.2466113120317459,"steer":0.12523771822452545,"brake":0.0,"hand_brake":false,"reverse":false,"manual_gear_shift":false,"gear":0},"transform":{"location":{"x":-90.00008392333984,"y":12.834925651550293,"z":0.0019100570352748036},"rotation":{"pitch":-0.017546754330396652,"yaw":-176.80746459960938,"roll":-0.029998773708939552}},"velocity":{"x":-2.9785778522491455,"y":-0.39039453864097595,"z":0.0005252265837043524},"angular_velocity":{"x":-0.0006964757922105491,"y":-0.0003672364691738039,"z":8.84913158416748},"acceleration":{"x":0.8835935592651367,"y":-0.3850346803665161,"z":-0.0037734978832304478},"speed_mps":3.0040529611797453,"speed_kph":10.814590660247083,"speed_limit_kph":30.0,"collisions_this_frame":[],"waypoint":{"x":-90.0011978149414,"y":12.933906555175781,"z":0.0},"lane_deviation_m":0.09900559484958649,"lane_width":3.5,"goal":{"x":52.78997039794922,"y":69.8227767944336,"z":0.5999999642372131},"fault":{"name":"fault_free","severity":1.0},"capture_flags":{"save_rgb":true,"save_depth":false,"video_rgb":true,"video_depth":false}}
{"frame":9469,"timestamp":{"delta_seconds":0.05000000074505806,"elapsed_seconds":93.77815964911133},"control":{"throttle":0.2466113120317459,"steer":0.12523771822452545,"brake":0.0,"hand_brake":false,"reverse":false,"manual_gear_shift":false,"gear":0},"transform":{"location":{"x":-90.14865112304688,"y":12.817103385925293,"z":0.0019223021809011698},"rotation":{"pitch":-0.015955321490764618,"yaw":-176.4119415283203,"roll":-0.02838134579360485}},"velocity":{"x":-2.9641177654266357,"y":-0.4115220904350281,"z":0.0003784275031648576},"angular_velocity":{"x":0.03989027068018913,"y":0.05094422027468681,"z":7.301813125610352},"acceleration":{"x":0.2892017364501953,"y":-0.4225510358810425,"z":-0.002935981610789895},"speed_mps":2.992548195341419,"speed_kph":10.773173503229108,"speed_limit_kph":30.0,"collisions_this_frame":[],"waypoint":{"x":-90.14996337890625,"y":12.933493614196777,"z":0.0},"lane_deviation_m":0.11641350388526917,"lane_width":3.5,"goal":{"x":52.78997039794922,"y":69.8227767944336,"z":0.5999999642372131},"fault":{"name":"fault_free","severity":1.0},"capture_flags":{"save_rgb":true,"save_depth":false,"video_rgb":true,"video_depth":false}}
{"frame":9470,"timestamp":{"delta_seconds":0.05000000074505806,"elapsed_seconds":93.82815964985639},"control":{"throttle":0.3589302897453308,"steer":0.1424088478088379,"brake":0.0,"hand_brake":false,"reverse":false,"manual_gear_shift":false,"gear":0},"transform":{"location":{"x":-90.29689025878906,"y":12.797581672668457,"z":0.0019200133392587304},"rotation":{"pitch":-0.012963698245584965,"yaw":-175.96896362304688,"roll":-0.02923583984375}},"velocity":{"x":-2.964148998260498,"y":-0.45852360129356384,"z":0.0002693271671887487},"angular_velocity":{"x":-0.01700555346906185,"y":0.06779816746711731,"z":9.667757034301758},"acceleration":{"x":-0.0006246566772460938,"y":-0.9400302171707153,"z":-0.0021820068359375},"speed_mps":2.999403815655547,"speed_kph":10.79785373635997,"speed_limit_kph":30.0,"collisions_this_frame":[],"waypoint":{"x":-90.29842376708984,"y":12.933080673217773,"z":0.0},"lane_deviation_m":0.1355212777853012,"lane_width":3.5,"goal":{"x":52.78997039794922,"y":69.8227767944336,"z":0.5999999642372131},"fault":{"name":"fault_free","severity":1.0},"capture_flags":{"save_rgb":true,"save_depth":false,"video_rgb":true,"video_depth":false}}
{"frame":9471,"timestamp":{"delta_seconds":0.05000000074505806,"elapsed_seconds":93.87815965060145},"control":{"throttle":0.3589302897453308,"steer":0.1424088478088379,"brake":0.0,"hand_brake":false,"reverse":false,"manual_gear_shift":false,"gear":0},"transform":{"location":{"x":-90.44620513916016,"y":12.77623176574707,"z":0.0019071578281000257},"rotation":{"pitch":-0.00887924525886774,"yaw":-175.52163696289062,"roll":-0.02902221865952015}},"velocity":{"x":-2.9964845180511475,"y":-0.4928160607814789,"z":0.00018965720664709806},"angular_velocity":{"x":0.006072313990443945,"y":0.08868128061294556,"z":8.456905364990234},"acceleration":{"x":-0.6467103958129883,"y":-0.6858491897583008,"z":-0.001593399210833013},"speed_mps":3.0367395628624867,"speed_kph":10.932262426304952,"speed_limit_kph":30.0,"collisions_this_frame":[],"waypoint":{"x":-90.4479751586914,"y":12.932665824890137,"z":0.0},"lane_deviation_m":0.15645569562911987,"lane_width":3.5,"goal":{"x":52.78997039794922,"y":69.8227767944336,"z":0.5999999642372131},"fault":{"name":"fault_free","severity":1.0},"capture_flags":{"save_rgb":true,"save_depth":false,"video_rgb":true,"video_depth":false}}
{"frame":9472,"timestamp":{"delta_seconds":0.05000000074505806,"elapsed_seconds":93.9281596513465},"control":{"throttle":0.011808617040514946,"steer":0.15335914492607117,"brake":0.0,"hand_brake":false,"reverse":false,"manual_gear_shift":false,"gear":0},"transform":{"location":{"x":-90.59707641601562,"y":12.752960205078125,"z":0.0018917846027761698},"rotation":{"pitch":-0.004945056512951851,"yaw":-175.03091430664062,"roll":-0.02990722469985485}},"velocity":{"x":-3.018470048904419,"y":-0.5386742949485779,"z":0.00013086319086141884},"angular_velocity":{"x":-0.01349620334804058,"y":0.06448347121477127,"z":10.555694580078125},"acceleration":{"x":-0.4397106170654297,"y":-0.91716468334198,"z":-0.0011758803157135844},"speed_mps":3.0661590711012643,"speed_kph":11.038172655964551,"speed_limit_kph":30.0,"collisions_this_frame":[],"waypoint":{"x":-90.59911346435547,"y":12.932245254516602,"z":0.0},"lane_deviation_m":0.17930659651756287,"lane_width":3.5,"goal":{"x":52.78997039794922,"y":69.8227767944336,"z":0.5999999642372131},"fault":{"name":"fault_free","severity":1.0},"capture_flags":{"save_rgb":true,"save_depth":false,"video_rgb":true,"video_depth":false}}
{"frame":9473,"timestamp":{"delta_seconds":0.05000000074505806,"elapsed_seconds":93.97815965209156},"control":{"throttle":0.011808617040514946,"steer":0.15335914492607117,"brake":0.0,"hand_brake":false,"reverse":false,"manual_gear_shift":false,"gear":0},"transform":{"location":{"x":-90.74794006347656,"y":12.727670669555664,"z":0.0025135420728474855},"rotation":{"pitch":-0.03097490593791008,"yaw":-174.54156494140625,"roll":-0.0853271335363388}},"velocity":{"x":-3.0134129524230957,"y":-0.5598976612091064,"z":0.04645364731550217},"angular_velocity":{"x":-5.292644500732422,"y":-3.2903892993927,"z":9.212912559509277},"acceleration":{"x":0.10114192962646484,"y":-0.4244673252105713,"z":0.9264557361602783},"speed_mps":3.065338636139182,"speed_kph":11.035219090101055,"speed_limit_kph":30.0,"collisions_this_frame":[],"waypoint":{"x":-90.74104309082031,"y":12.913432121276855,"z":0.0},"lane_deviation_m":0.18590644001960754,"lane_width":3.5,"goal":{"x":52.78997039794922,"y":69.8227767944336,"z":0.5999999642372131},"fault":{"name":"fault_free","severity":1.0},"capture_flags":{"save_rgb":true,"save_depth":false,"video_rgb":true,"video_depth":false}}
{"frame":9474,"timestamp":{"delta_seconds":0.05000000074505806,"elapsed_seconds":94.02815965283662},"control":{"throttle":0.06397539377212524,"steer":0.16941340267658234,"brake":0.0,"hand_brake":false,"reverse":false,"manual_gear_shift":false,"gear":0},"transform":{"location":{"x":-90.8973159790039,"y":12.70091724395752,"z":0.0045328522101044655},"rotation":{"pitch":-0.10830630362033844,"yaw":-174.0089569091797,"roll":-0.2104492038488388}},"velocity":{"x":-2.9744250774383545,"y":-0.5975329279899597,"z":0.02789166383445263},"angular_velocity":{"x":-1.8071635961532593,"y":-1.481347680091858,"z":11.475866317749023},"acceleration":{"x":0.7797574996948242,"y":-0.7527053356170654,"z":-0.37123966217041016},"speed_mps":3.033978919873681,"speed_kph":10.922324111545253,"speed_limit_kph":30.0,"collisions_this_frame":[],"waypoint":{"x":-90.87521362304688,"y":12.905586242675781,"z":0.0},"lane_deviation_m":0.205908864736557,"lane_width":3.5,"goal":{"x":52.78997039794922,"y":69.8227767944336,"z":0.5999999642372131},"fault":{"name":"fault_free","severity":1.0},"capture_flags":{"save_rgb":true,"save_depth":false,"video_rgb":true,"video_depth":false}}
