{"frame":39,"timestamp":{"delta_seconds":0.05000000074505806,"elapsed_seconds":3.978228323161602},"control":{"throttle":0.75,"steer":0.0,"brake":0.0,"hand_brake":false,"reverse":false,"manual_gear_shift":false,"gear":0},"transform":{"location":{"x":-87.6230239868164,"y":12.967159271240234,"z":0.48239994049072266},"rotation":{"pitch":0.0,"yaw":-179.84078979492188,"roll":0.0}},"velocity":{"x":0.0,"y":0.0,"z":-1.470000147819519},"angular_velocity":{"x":0.0,"y":0.0,"z":0.0},"acceleration":{"x":0.0,"y":0.0,"z":-9.80000114440918},"speed_mps":1.470000147819519,"speed_kph":5.2920005321502686,"speed_limit_kph":30.0,"collisions_this_frame":[],"waypoint":{"x":-87.62295532226562,"y":12.94051742553711,"z":0.0},"lane_deviation_m":0.48313507437705994,"lane_width":3.5,"goal":{"x":106.00283813476562,"y":92.81285095214844,"z":0.5999999642372131},"fault":{"name":"fault_free","severity":1.0},"capture_flags":{"save_rgb":true,"save_depth":false,"video_rgb":true,"video_depth":false}}
{"frame":40,"timestamp":{"delta_seconds":0.05000000074505806,"elapsed_seconds":4.02822832390666},"control":{"throttle":0.75,"steer":0.0,"brake":0.0,"hand_brake":false,"reverse":false,"manual_gear_shift":false,"gear":0},"transform":{"location":{"x":-87.6230239868164,"y":12.967159271240234,"z":0.394199937582016},"rotation":{"pitch":0.0,"yaw":-179.84078979492188,"roll":0.0}},"velocity":{"x":0.0,"y":0.0,"z":-1.9600002765655518},"angular_velocity":{"x":0.0,"y":0.0,"z":0.0},"acceleration":{"x":0.0,"y":0.0,"z":-9.800003051757812},"speed_mps":1.9600002765655518,"speed_kph":7.056000995635986,"speed_limit_kph":30.0,"collisions_this_frame":[],"waypoint":{"x":-87.62295532226562,"y":12.94051742553711,"z":0.0},"lane_deviation_m":0.3950991928577423,"lane_width":3.5,"goal":{"x":106.00283813476562,"y":92.81285095214844,"z":0.5999999642372131},"fault":{"name":"fault_free","severity":1.0},"capture_flags":{"save_rgb":true,"save_depth":false,"video_rgb":true,"video_depth":false}}
{"frame":41,"timestamp":{"delta_seconds":0.05000000074505806,"elapsed_seconds":4.078228324651718},"control":{"throttle":0.75,"steer":0.0,"brake":0.0,"hand_brake":false,"reverse":false,"manual_gear_shift":false,"gear":0},"transform":{"location":{"x":-87.6230239868164,"y":12.967159271240234,"z":0.281499981880188},"rotation":{"pitch":0.0,"yaw":-179.84078979492188,"roll":0.0}},"velocity":{"x":0.0,"y":0.0,"z":-2.450000286102295},"angular_velocity":{"x":0.0,"y":0.0,"z":0.0},"acceleration":{"x":0.0,"y":0.0,"z":-9.800000190734863},"speed_mps":2.450000286102295,"speed_kph":8.820001029968262,"speed_limit_kph":30.0,"collisions_this_frame":[],"waypoint":{"x":-87.62295532226562,"y":12.94051742553711,"z":0.0},"lane_deviation_m":0.2827579081058502,"lane_width":3.5,"goal":{"x":106.00283813476562,"y":92.81285095214844,"z":0.5999999642372131},"fault":{"name":"fault_free","severity":1.0},"capture_flags":{"save_rgb":true,"save_depth":false,"video_rgb":true,"video_depth":false}}
{"frame":42,"timestamp":{"delta_seconds":0.05000000074505806,"elapsed_seconds":4.128228325396776},"control":{"throttle":0.75,"steer":0.0,"brake":0.0,"hand_brake":false,"reverse":false,"manual_gear_shift":false,"gear":0},"transform":{"location":{"x":-87.6230239868164,"y":12.967159271240234,"z":0.14429987967014313},"rotation":{"pitch":0.0,"yaw":-179.84078979492188,"roll":0.0}},"velocity":{"x":0.0,"y":0.0,"z":-2.93999981880188},"angular_velocity":{"x":0.0,"y":0.0,"z":0.0},"acceleration":{"x":0.0,"y":0.0,"z":-9.7999906539917},"speed_mps":2.93999981880188,"speed_kph":10.583999347686769,"speed_limit_kph":30.0,"collisions_this_frame":[],"waypoint":{"x":-87.62295532226562,"y":12.94051742553711,"z":0.0},"lane_deviation_m":0.1467387080192566,"lane_width":3.5,"goal":{"x":106.00283813476562,"y":92.81285095214844,"z":0.5999999642372131},"fault":{"name":"fault_free","severity":1.0},"capture_flags":{"save_rgb":true,"save_depth":false,"video_rgb":true,"video_depth":false}}
{"frame":43,"timestamp":{"delta_seconds":0.05000000074505806,"elapsed_seconds":4.178228326141834},"control":{"throttle":0.75,"steer":0.0,"brake":0.0,"hand_brake":false,"reverse":false,"manual_gear_shift":false,"gear":0},"transform":{"location":{"x":-87.62357330322266,"y":12.96517276763916,"z":0.009365997277200222},"rotation":{"pitch":0.07286445051431656,"yaw":-179.8075408935547,"roll":-0.1875305026769638}},"velocity":{"x":0.0027095067780464888,"y":-0.022531399503350258,"z":-2.008272886276245},"angular_velocity":{"x":-5.179205417633057,"y":2.2222490310668945,"z":0.21223808825016022},"acceleration":{"x":0.05419013649225235,"y":-0.45062798261642456,"z":18.634538650512695},"speed_mps":2.0084011031521767,"speed_kph":7.230243971347837,"speed_limit_kph":30.0,"collisions_this_frame":[],"waypoint":{"x":-87.62350463867188,"y":12.940515518188477,"z":0.0},"lane_deviation_m":0.026376251131296158,"lane_width":3.5,"goal":{"x":106.00283813476562,"y":92.81285095214844,"z":0.5999999642372131},"fault":{"name":"fault_free","severity":1.0},"capture_flags":{"save_rgb":true,"save_depth":false,"video_rgb":true,"video_depth":false}}
{"frame":44,"timestamp":{"delta_seconds":0.05000000074505806,"elapsed_seconds":4.228228326886892},"control":{"throttle":0.75,"steer":0.0,"brake":0.0,"hand_brake":false,"reverse":false,"manual_gear_shift":false,"gear":0},"transform":{"location":{"x":-87.62406921386719,"y":12.96351146697998,"z":-0.04846011847257614},"rotation":{"pitch":0.15083788335323334,"yaw":-179.8032989501953,"roll":-0.33303821086883545}},"velocity":{"x":-0.0006389307673089206,"y":-0.006589831784367561,"z":-0.7027705311775208},"angular_velocity":{"x":-1.4378985166549683,"y":1.0056092739105225,"z":-0.048369329422712326},"acceleration":{"x":-0.06696875393390656,"y":0.31883135437965393,"z":26.110048294067383},"speed_mps":0.702801717134361,"speed_kph":2.5300861816837,"speed_limit_kph":30.0,"collisions_this_frame":[],"waypoint":{"x":-87.62400817871094,"y":12.940513610839844,"z":0.0},"lane_deviation_m":0.05364036187529564,"lane_width":3.5,"goal":{"x":106.00283813476562,"y":92.81285095214844,"z":0.5999999642372131},"fault":{"name":"fault_free","severity":1.0},"capture_flags":{"save_rgb":true,"save_depth":false,"video_rgb":true,"video_depth":false}}
{"frame":45,"timestamp":{"delta_seconds":0.05000000074505806,"elapsed_seconds":4.27822832763195},"control":{"throttle":0.75,"steer":0.0,"brake":0.0,"hand_brake":false,"reverse":false,"manual_gear_shift":false,"gear":0},"transform":{"location":{"x":-87.62419128417969,"y":12.963289260864258,"z":-0.06371334195137024},"rotation":{"pitch":0.17248958349227905,"yaw":-179.8021240234375,"roll":-0.34954833984375}},"velocity":{"x":0.0011277806479483843,"y":-0.00022247667948249727,"z":-0.1011342778801918},"angular_velocity":{"x":0.21106195449829102,"y":0.11070902645587921,"z":0.06372814625501633},"acceleration":{"x":0.035334229469299316,"y":0.12734709680080414,"z":12.032724380493164},"speed_mps":0.10114081049413562,"speed_kph":0.36410691777888826,"speed_limit_kph":30.0,"collisions_this_frame":[],"waypoint":{"x":-87.62413024902344,"y":12.940513610839844,"z":0.0},"lane_deviation_m":0.0676618367433548,"lane_width":3.5,"goal":{"x":106.00283813476562,"y":92.81285095214844,"z":0.5999999642372131},"fault":{"name":"fault_free","severity":1.0},"capture_flags":{"save_rgb":true,"save_depth":false,"video_rgb":true,"video_depth":false}}
{"frame":46,"timestamp":{"delta_seconds":0.05000000074505806,"elapsed_seconds":4.328228328377008},"control":{"throttle":0.75,"steer":0.0,"brake":0.0,"hand_brake":false,"reverse":false,"manual_gear_shift":false,"gear":0},"transform":{"location":{"x":-87.62409973144531,"y":12.96371078491211,"z":-0.06023666262626648},"rotation":{"pitch":0.15232686698436737,"yaw":-179.80409240722656,"roll":-0.29660025238990784}},"velocity":{"x":-0.001690506935119629,"y":0.0026213484816253185,"z":0.14474524557590485},"angular_velocity":{"x":1.149038314819336,"y":-0.4998834431171417,"z":-0.0935584306716919},"acceleration":{"x":-0.05636575073003769,"y":0.05687650293111801,"z":4.917590618133545},"speed_mps":0.1447788499691471,"speed_kph":0.5212038598889296,"speed_limit_kph":30.0,"collisions_this_frame":[],"waypoint":{"x":-87.62403869628906,"y":12.940513610839844,"z":0.0},"lane_deviation_m":0.06454896181821823,"lane_width":3.5,"goal":{"x":106.00283813476562,"y":92.81285095214844,"z":0.5999999642372131},"fault":{"name":"fault_free","severity":1.0},"capture_flags":{"save_rgb":true,"save_depth":false,"video_rgb":true,"video_depth":false}}
{"frame":47,"timestamp":{"delta_seconds":0.05000000074505806,"elapsed_seconds":4.3782283291220665},"control":{"throttle":0.75,"steer":0.0,"brake":0.0,"hand_brake":false,"reverse":false,"manual_gear_shift":false,"gear":0},"transform":{"location":{"x":-87.62395477294922,"y":12.964290618896484,"z":-0.050149381160736084},"rotation":{"pitch":0.12685710191726685,"yaw":-179.8055877685547,"roll":-0.245391845703125}},"velocity":{"x":5.244612566457363e-06,"y":0.005225048400461674,"z":0.2200310230255127},"angular_velocity":{"x":0.9269015789031982,"y":-0.49148479104042053,"z":-6.928906077519059e-05},"acceleration":{"x":0.03391503170132637,"y":0.05207400023937225,"z":1.5057156085968018},"speed_mps":0.22009305362038764,"speed_kph":0.7923349930333955,"speed_limit_kph":30.0,"collisions_this_frame":[],"waypoint":{"x":-87.62389373779297,"y":12.940513610839844,"z":0.0},"lane_deviation_m":0.05550054460763931,"lane_width":3.5,"goal":{"x":106.00283813476562,"y":92.81285095214844,"z":0.5999999642372131},"fault":{"name":"fault_free","severity":1.0},"capture_flags":{"save_rgb":true,"save_depth":false,"video_rgb":true,"video_depth":false}}
{"frame":48,"timestamp":{"delta_seconds":0.05000000074505806,"elapsed_seconds":4.428228329867125},"control":{"throttle":0.75,"steer":0.0,"brake":0.0,"hand_brake":false,"reverse":false,"manual_gear_shift":false,"gear":0},"transform":{"location":{"x":-87.62382507324219,"y":12.964905738830566,"z":-0.03888813033699989},"rotation":{"pitch":0.10226842015981674,"yaw":-179.80819702148438,"roll":-0.1998290717601776}},"velocity":{"x":-0.001454890938475728,"y":0.0064743999391794205,"z":0.21779030561447144},"angular_velocity":{"x":0.8898360133171082,"y":-0.47551146149635315,"z":-0.08678608387708664},"acceleration":{"x":-0.029202710837125778,"y":0.024987030774354935,"z":-0.044814348220825195},"speed_mps":0.2178913761071332,"speed_kph":0.7844089539856794,"speed_limit_kph":30.0,"collisions_this_frame":[],"waypoint":{"x":-87.62376403808594,"y":12.940513610839844,"z":0.0},"lane_deviation_m":0.0459049716591835,"lane_width":3.5,"goal":{"x":106.00283813476562,"y":92.81285095214844,"z":0.5999999642372131},"fault":{"name":"fault_free","severity":1.0},"capture_flags":{"save_rgb":true,"save_depth":false,"video_rgb":true,"video_depth":false}}
{"frame":49,"timestamp":{"delta_seconds":0.05000000074505806,"elapsed_seconds":4.478228330612183},"control":{"throttle":0.75,"steer":0.0,"brake":0.0,"hand_brake":false,"reverse":false,"manual_gear_shift":false,"gear":0},"transform":{"location":{"x":-87.62371063232422,"y":12.965472221374512,"z":-0.028712119907140732},"rotation":{"pitch":0.08295947313308716,"yaw":-179.80992126464844,"roll":-0.1660766452550888}},"velocity":{"x":7.454991282429546e-05,"y":0.006701248697936535,"z":0.18824395537376404},"angular_velocity":{"x":0.536929726600647,"y":-0.32188013195991516,"z":-0.0026958035305142403},"acceleration":{"x":0.030588816851377487,"y":0.004536975175142288,"z":-0.590927004814148},"speed_mps":0.1883632103850451,"speed_kph":0.6781075573861625,"speed_limit_kph":30.0,"collisions_this_frame":[],"waypoint":{"x":-87.62364196777344,"y":12.940515518188477,"z":0.0},"lane_deviation_m":0.03804244473576546,"lane_width":3.5,"goal":{"x":106.00283813476562,"y":92.81285095214844,"z":0.5999999642372131},"fault":{"name":"fault_free","severity":1.0},"capture_flags":{"save_rgb":true,"save_depth":false,"video_rgb":true,"video_depth":false}}
{"frame":50,"timestamp":{"delta_seconds":0.05000000074505806,"elapsed_seconds":4.528228331357241},"control":{"throttle":0.75,"steer":0.0,"brake":0.0,"hand_brake":false,"reverse":false,"manual_gear_shift":false,"gear":0},"transform":{"location":{"x":-87.63607025146484,"y":12.965995788574219,"z":-0.020585402846336365},"rotation":{"pitch":0.07563751190900803,"yaw":-179.82827758789062,"roll":-0.12274166941642761}},"velocity":{"x":-0.5698153972625732,"y":0.003159251529723406,"z":0.14755013585090637},"angular_velocity":{"x":0.4818536043167114,"y":0.2622916102409363,"z":-0.6147181391716003},"acceleration":{"x":-11.397799491882324,"y":-0.07083994150161743,"z":-0.8138763904571533},"speed_mps":0.5886175417173304,"speed_kph":2.1190231501823895,"speed_limit_kph":30.0,"collisions_this_frame":[],"waypoint":{"x":-87.63600158691406,"y":12.940481185913086,"z":0.0},"lane_deviation_m":0.03278350830078125,"lane_width":3.5,"goal":{"x":106.00283813476562,"y":92.81285095214844,"z":0.5999999642372131},"fault":{"name":"fault_free","severity":1.0},"capture_flags":{"save_rgb":true,"save_depth":false,"video_rgb":true,"video_depth":false}}
{"frame":51,"timestamp":{"delta_seconds":0.05000000074505806,"elapsed_seconds":4.578228332102299},"control":{"throttle":0.75,"steer":0.027901461347937584,"brake":0.0,"hand_brake":false,"reverse":false,"manual_gear_shift":false,"gear":0},"transform":{"location":{"x":-87.6876220703125,"y":12.965099334716797,"z":-0.013940887525677681},"rotation":{"pitch":0.12300486862659454,"yaw":-179.8190155029297,"roll":-0.1697082370519638}},"velocity":{"x":-1.298584222793579,"y":-0.01930491253733635,"z":0.13538511097431183},"angular_velocity":{"x":-1.9364957809448242,"y":1.3704297542572021,"z":0.2928532063961029},"acceleration":{"x":-14.575376510620117,"y":-0.44928327202796936,"z":-0.24330049753189087},"speed_mps":1.305765213049423,"speed_kph":4.700754766977923,"speed_limit_kph":30.0,"collisions_this_frame":[],"waypoint":{"x":-87.68755340576172,"y":12.940336227416992,"z":0.0},"lane_deviation_m":0.0284176804125309,"lane_width":3.5,"goal":{"x":106.00283813476562,"y":92.81285095214844,"z":0.5999999642372131},"fault":{"name":"fault_free","severity":1.0},"capture_flags":{"save_rgb":true,"save_depth":false,"video_rgb":true,"video_depth":false}}
{"frame":52,"timestamp":{"delta_seconds":0.05000000074505806,"elapsed_seconds":4.628228332847357},"control":{"throttle":0.75,"steer":0.027901461347937584,"brake":0.0,"hand_brake":false,"reverse":false,"manual_gear_shift":false,"gear":0},"transform":{"location":{"x":-87.76992797851562,"y":12.963767051696777,"z":-0.008419685065746307},"rotation":{"pitch":0.18005061149597168,"yaw":-179.78443908691406,"roll":-0.2331847846508026}},"velocity":{"x":-1.8502252101898193,"y":-0.022755030542612076,"z":0.09628934413194656},"angular_velocity":{"x":-0.0006076733698137105,"y":0.5989377498626709,"z":0.1219165250658989},"acceleration":{"x":-11.032819747924805,"y":-0.06900236010551453,"z":-0.7819153070449829},"speed_mps":1.8528687912613555,"speed_kph":6.67032764854088,"speed_limit_kph":30.0,"collisions_this_frame":[],"waypoint":{"x":-87.76986694335938,"y":12.940109252929688,"z":0.0},"lane_deviation_m":0.025111477822065353,"lane_width":3.5,"goal":{"x":106.00283813476562,"y":92.81285095214844,"z":0.5999999642372131},"fault":{"name":"fault_free","severity":1.0},"capture_flags":{"save_rgb":true,"save_depth":false,"video_rgb":true,"video_depth":false}}
{"frame":53,"timestamp":{"delta_seconds":0.05000000074505806,"elapsed_seconds":4.678228333592415},"control":{"throttle":0.75,"steer":-0.004571801517158747,"brake":0.0,"hand_brake":false,"reverse":false,"manual_gear_shift":false,"gear":0},"transform":{"location":{"x":-87.87598419189453,"y":12.963584899902344,"z":-0.00470951059833169},"rotation":{"pitch":0.19448962807655334,"yaw":-179.79534912109375,"roll":-0.22076416015625}},"velocity":{"x":-2.2666594982147217,"y":0.0017886068671941757,"z":0.07172395288944244},"angular_velocity":{"x":-0.6173660159111023,"y":0.4431135952472687,"z":-0.3196752965450287},"acceleration":{"x":-8.328685760498047,"y":0.49087274074554443,"z":-0.4913078248500824},"speed_mps":2.2677947008888673,"speed_kph":8.164060923199923,"speed_limit_kph":30.0,"collisions_this_frame":[],"waypoint":{"x":-87.87592315673828,"y":12.939813613891602,"z":0.0},"lane_deviation_m":0.024233391508460045,"lane_width":3.5,"goal":{"x":106.00283813476562,"y":92.81285095214844,"z":0.5999999642372131},"fault":{"name":"fault_free","severity":1.0},"capture_flags":{"save_rgb":true,"save_depth":false,"video_rgb":true,"video_depth":false}}
{"frame":54,"timestamp":{"delta_seconds":0.05000000074505806,"elapsed_seconds":4.728228334337473},"control":{"throttle":0.75,"steer":-0.004571801517158747,"brake":0.0,"hand_brake":false,"reverse":false,"manual_gear_shift":false,"gear":0},"transform":{"location":{"x":-87.99898529052734,"y":12.96341323852539,"z":-0.001772384624928236},"rotation":{"pitch":0.21138067543506622,"yaw":-179.81076049804688,"roll":-0.248565673828125}},"velocity":{"x":-2.581754684448242,"y":0.0022739190608263016,"z":0.0523558035492897},"angular_velocity":{"x":-0.32968372106552124,"y":0.21048185229301453,"z":-0.3223073184490204},"acceleration":{"x":-6.30190372467041,"y":0.009706243872642517,"z":-0.3873629868030548},"speed_mps":2.5822864967976793,"speed_kph":9.296231388471647,"speed_limit_kph":30.0,"collisions_this_frame":[],"waypoint":{"x":-87.9989242553711,"y":12.939472198486328,"z":0.0},"lane_deviation_m":0.024006633087992668,"lane_width":3.5,"goal":{"x":106.00283813476562,"y":92.81285095214844,"z":0.5999999642372131},"fault":{"name":"fault_free","severity":1.0},"capture_flags":{"save_rgb":true,"save_depth":false,"video_rgb":true,"video_depth":false}}
{"frame":55,"timestamp":{"delta_seconds":0.05000000074505806,"elapsed_seconds":4.778228335082531},"control":{"throttle":0.75,"steer":-0.007083281874656677,"brake":0.0,"hand_brake":false,"reverse":false,"manual_gear_shift":false,"gear":0},"transform":{"location":{"x":-88.13674926757812,"y":12.964165687561035,"z":-0.000641784630715847},"rotation":{"pitch":0.16143150627613068,"yaw":-179.8290557861328,"roll":-0.11703488230705261}},"velocity":{"x":-2.883552074432373,"y":-0.02025483176112175,"z":-0.021754369139671326},"angular_velocity":{"x":5.597249984741211,"y":-2.3339617252349854,"z":-0.473977267742157},"acceleration":{"x":-6.035947799682617,"y":-0.4505750238895416,"z":-1.482203483581543},"speed_mps":2.883705268703717,"speed_kph":10.381338967333381,"speed_limit_kph":30.0,"collisions_this_frame":[],"waypoint":{"x":-88.13668060302734,"y":12.939088821411133,"z":0.0},"lane_deviation_m":0.025085171684622765,"lane_width":3.5,"goal":{"x":106.00283813476562,"y":92.81285095214844,"z":0.5999999642372131},"fault":{"name":"fault_free","severity":1.0},"capture_flags":{"save_rgb":true,"save_depth":false,"video_rgb":true,"video_depth":false}}
{"frame":56,"timestamp":{"delta_seconds":0.05000000074505806,"elapsed_seconds":4.828228335827589},"control":{"throttle":0.75,"steer":-0.007083281874656677,"brake":0.0,"hand_brake":false,"reverse":false,"manual_gear_shift":false,"gear":0},"transform":{"location":{"x":-88.28853607177734,"y":12.96390438079834,"z":-0.0007363128243014216},"rotation":{"pitch":0.09622369706630707,"yaw":-179.85317993164062,"roll":0.0007039743359200656}},"velocity":{"x":-3.1528804302215576,"y":-0.013047301210463047,"z":-0.00328655238263309},"angular_velocity":{"x":1.1146107912063599,"y":-0.812277615070343,"z":-0.49890339374542236},"acceleration":{"x":-5.386567115783691,"y":0.14415061473846436,"z":0.36935633420944214},"speed_mps":3.1529091393139628,"speed_kph":11.350472901530265,"speed_limit_kph":30.0,"collisions_this_frame":[],"waypoint":{"x":-88.28846740722656,"y":12.938667297363281,"z":0.0},"lane_deviation_m":0.025247914716601372,"lane_width":3.5,"goal":{"x":106.00283813476562,"y":92.81285095214844,"z":0.5999999642372131},"fault":{"name":"fault_free","severity":1.0},"capture_flags":{"save_rgb":true,"save_depth":false,"video_rgb":true,"video_depth":false}}
{"frame":57,"timestamp":{"delta_seconds":0.05000000074505806,"elapsed_seconds":4.878228336572647},"control":{"throttle":0.75,"steer":-0.004985945764929056,"brake":0.0,"hand_brake":false,"reverse":false,"manual_gear_shift":false,"gear":0},"transform":{"location":{"x":-88.4544448852539,"y":12.96362018585205,"z":-0.000511550868395716},"rotation":{"pitch":0.07442173361778259,"yaw":-179.8736572265625,"roll":0.021943271160125732}},"velocity":{"x":-3.4335339069366455,"y":-0.0023859026841819286,"z":0.0044424342922866344},"angular_velocity":{"x":0.1570231318473816,"y":-0.2570541203022003,"z":-0.3900240361690521},"acceleration":{"x":-5.613069534301758,"y":0.2132279872894287,"z":0.15457972884178162},"speed_mps":3.4335376097893096,"speed_kph":12.360735395241514,"speed_limit_kph":30.0,"collisions_this_frame":[],"waypoint":{"x":-88.45437622070312,"y":12.93820571899414,"z":0.0},"lane_deviation_m":0.025419708341360092,"lane_width":3.5,"goal":{"x":106.00283813476562,"y":92.81285095214844,"z":0.5999999642372131},"fault":{"name":"fault_free","severity":1.0},"capture_flags":{"save_rgb":true,"save_depth":false,"video_rgb":true,"video_depth":false}}
{"frame":58,"timestamp":{"delta_seconds":0.05000000074505806,"elapsed_seconds":4.928228337317705},"control":{"throttle":0.75,"steer":-0.004985945764929056,"brake":0.0,"hand_brake":false,"reverse":false,"manual_gear_shift":false,"gear":0},"transform":{"location":{"x":-88.63397979736328,"y":12.96357250213623,"z":-0.00016246795712504536},"rotation":{"pitch":0.06762570142745972,"yaw":-179.8935089111328,"roll":0.02244672365486622}},"velocity":{"x":-3.696178913116455,"y":0.0031823557801544666,"z":0.006874389480799437},"angular_velocity":{"x":-0.045897554606199265,"y":-0.08176913112401962,"z":-0.4056239426136017},"acceleration":{"x":-5.252900123596191,"y":0.1113651692867279,"z":0.04863910377025604},"speed_mps":3.696186675803291,"speed_kph":13.306272032891847,"speed_limit_kph":30.0,"collisions_this_frame":[],"waypoint":{"x":-88.6339111328125,"y":12.937707901000977,"z":0.0},"lane_deviation_m":0.025865202769637108,"lane_width":3.5,"goal":{"x":106.00283813476562,"y":92.81285095214844,"z":0.5999999642372131},"fault":{"name":"fault_free","severity":1.0},"capture_flags":{"save_rgb":true,"save_depth":false,"video_rgb":true,"video_depth":false}}
{"frame":59,"timestamp":{"delta_seconds":0.05000000074505806,"elapsed_seconds":4.978228338062763},"control":{"throttle":0.0,"steer":0.0008112239884212613,"brake":1.0,"hand_brake":false,"reverse":false,"manual_gear_shift":false,"gear":0},"transform":{"location":{"x":-88.82537078857422,"y":12.96333122253418,"z":0.00020774840959347785},"rotation":{"pitch":0.06419011205434799,"yaw":-179.89791870117188,"roll":0.017386196181178093}},"velocity":{"x":-3.8990416526794434,"y":-0.006079642102122307,"z":0.0068862722255289555},"angular_velocity":{"x":-0.10539132356643677,"y":-0.08307628333568573,"z":0.017582915723323822},"acceleration":{"x":-4.057254791259766,"y":-0.18523994088172913,"z":0.0002376548945903778},"speed_mps":3.899052473630292,"speed_kph":14.03658890506905,"speed_limit_kph":30.0,"collisions_this_frame":[],"waypoint":{"x":-88.82514953613281,"y":12.937174797058105,"z":0.0},"lane_deviation_m":0.026158185675740242,"lane_width":3.5,"goal":{"x":106.00283813476562,"y":92.81285095214844,"z":0.5999999642372131},"fault":{"name":"fault_free","severity":1.0},"capture_flags":{"save_rgb":true,"save_depth":false,"video_rgb":true,"video_depth":false}}
{"frame":60,"timestamp":{"delta_seconds":0.05000000074505806,"elapsed_seconds":5.028228338807821},"control":{"throttle":0.0,"steer":0.0008112239884212613,"brake":1.0,"hand_brake":false,"reverse":false,"manual_gear_shift":false,"gear":0},"transform":{"location":{"x":-89.02223205566406,"y":12.962939262390137,"z":0.0005706405499950051},"rotation":{"pitch":0.05646517127752304,"yaw":-179.89549255371094,"roll":0.012875024229288101}},"velocity":{"x":-3.941098213195801,"y":-0.007999464869499207,"z":0.005933103617280722},"angular_velocity":{"x":-0.07897043228149414,"y":-0.2100982815027237,"z":0.06035973131656647},"acceleration":{"x":-0.8411312103271484,"y":-0.038396455347537994,"z":-0.019063372164964676},"speed_mps":3.9411107976320414,"speed_kph":14.187998871475349,"speed_limit_kph":30.0,"collisions_this_frame":[],"waypoint":{"x":-89.02201080322266,"y":12.936628341674805,"z":0.0},"lane_deviation_m":0.026318037882447243,"lane_width":3.5,"goal":{"x":106.00283813476562,"y":92.81285095214844,"z":0.5999999642372131},"fault":{"name":"fault_free","severity":1.0},"capture_flags":{"save_rgb":true,"save_depth":false,"video_rgb":true,"video_depth":false}}
{"frame":61,"timestamp":{"delta_seconds":0.05000000074505806,"elapsed_seconds":5.078228339552879},"control":{"throttle":0.0,"steer":0.00015688248095102608,"brake":1.0,"hand_brake":false,"reverse":false,"manual_gear_shift":false,"gear":0},"transform":{"location":{"x":-89.21691131591797,"y":12.962553024291992,"z":0.0009127425728365779},"rotation":{"pitch":0.042593058198690414,"yaw":-179.89395141601562,"roll":0.009753188118338585}},"velocity":{"x":-3.851205348968506,"y":-0.007221594452857971,"z":0.004734630696475506},"angular_velocity":{"x":-0.05408206582069397,"y":-0.31404414772987366,"z":0.020642343908548355},"acceleration":{"x":1.7978572845458984,"y":0.015557408332824707,"z":-0.023969458416104317},"speed_mps":3.851215030101267,"speed_kph":13.864374108364562,"speed_limit_kph":30.0,"collisions_this_frame":[],"waypoint":{"x":-89.21668243408203,"y":12.936087608337402,"z":0.0},"lane_deviation_m":0.02648214064538479,"lane_width":3.5,"goal":{"x":106.00283813476562,"y":92.81285095214844,"z":0.5999999642372131},"fault":{"name":"fault_free","severity":1.0},"capture_flags":{"save_rgb":true,"save_depth":false,"video_rgb":true,"video_depth":false}}
{"frame":62,"timestamp":{"delta_seconds":0.05000000074505806,"elapsed_seconds":5.128228340297937},"control":{"throttle":0.0,"steer":0.00015688248095102608,"brake":1.0,"hand_brake":false,"reverse":false,"manual_gear_shift":false,"gear":0},"transform":{"location":{"x":-89.4041748046875,"y":12.962193489074707,"z":0.0012169264955446124},"rotation":{"pitch":0.025217056274414062,"yaw":-179.89315795898438,"roll":0.00742283696308732}},"velocity":{"x":-3.672839879989624,"y":-0.006864320021122694,"z":0.003605012781918049},"angular_velocity":{"x":-0.04115094244480133,"y":-0.3584420084953308,"z":0.013719907961785793},"acceleration":{"x":3.5673093795776367,"y":0.0071454886347055435,"z":-0.02259235829114914},"speed_mps":3.672848063703249,"speed_kph":13.222253029331696,"speed_limit_kph":30.0,"collisions_this_frame":[],"waypoint":{"x":-89.40394592285156,"y":12.935566902160645,"z":0.0},"lane_deviation_m":0.02665536478161812,"lane_width":3.5,"goal":{"x":106.00283813476562,"y":92.81285095214844,"z":0.5999999642372131},"fault":{"name":"fault_free","severity":1.0},"capture_flags":{"save_rgb":true,"save_depth":false,"video_rgb":true,"video_depth":false}}
{"frame":63,"timestamp":{"delta_seconds":0.05000000074505806,"elapsed_seconds":5.1782283410429955},"control":{"throttle":0.0,"steer":0.00015688248095102608,"brake":1.0,"hand_brake":false,"reverse":false,"manual_gear_shift":false,"gear":0},"transform":{"location":{"x":-89.58190155029297,"y":12.961849212646484,"z":0.0014673995319753885},"rotation":{"pitch":0.008271358907222748,"yaw":-179.89256286621094,"roll":0.005632915999740362}},"velocity":{"x":-3.477949380874634,"y":-0.006576966028660536,"z":0.002662172308191657},"angular_velocity":{"x":-0.03153643757104874,"y":-0.3200504183769226,"z":0.012338670901954174},"acceleration":{"x":3.8978099822998047,"y":0.005747079849243164,"z":-0.01885680854320526},"speed_mps":3.477956618414006,"speed_kph":12.520643826290422,"speed_limit_kph":30.0,"collisions_this_frame":[],"waypoint":{"x":-89.5816650390625,"y":12.935072898864746,"z":0.0},"lane_deviation_m":0.02681753598153591,"lane_width":3.5,"goal":{"x":106.00283813476562,"y":92.81285095214844,"z":0.5999999642372131},"fault":{"name":"fault_free","severity":1.0},"capture_flags":{"save_rgb":true,"save_depth":false,"video_rgb":true,"video_depth":false}}
{"frame":64,"timestamp":{"delta_seconds":0.05000000074505806,"elapsed_seconds":5.2282283417880535},"control":{"throttle":0.0,"steer":0.00015688248095102608,"brake":1.0,"hand_brake":false,"reverse":false,"manual_gear_shift":false,"gear":0},"transform":{"location":{"x":-89.74919891357422,"y":12.96152400970459,"z":0.0016640472458675504},"rotation":{"pitch":-0.006502339616417885,"yaw":-179.8919219970703,"roll":0.0042628631927073}},"velocity":{"x":-3.259699821472168,"y":-0.006238538306206465,"z":0.0019183158874511719},"angular_velocity":{"x":-0.0240058284252882,"y":-0.2785758376121521,"z":0.011316967196762562},"acceleration":{"x":4.364991188049316,"y":0.006768554449081421,"z":-0.014877128414809704},"speed_mps":3.259706355701649,"speed_kph":11.734942880525937,"speed_limit_kph":30.0,"collisions_this_frame":[],"waypoint":{"x":-89.74896240234375,"y":12.934608459472656,"z":0.0},"lane_deviation_m":0.026967978104948997,"lane_width":3.5,"goal":{"x":106.00283813476562,"y":92.81285095214844,"z":0.5999999642372131},"fault":{"name":"fault_free","severity":1.0},"capture_flags":{"save_rgb":true,"save_depth":false,"video_rgb":true,"video_depth":false}}
{"frame":65,"timestamp":{"delta_seconds":0.05000000074505806,"elapsed_seconds":5.278228342533112},"control":{"throttle":0.06114265322685242,"steer":-0.02998042292892933,"brake":0.0,"hand_brake":false,"reverse":false,"manual_gear_shift":false,"gear":0},"transform":{"location":{"x":-89.90675354003906,"y":12.96257495880127,"z":0.0018056868575513363},"rotation":{"pitch":-0.017273547127842903,"yaw":-179.9569854736328,"roll":0.009222209453582764}},"velocity":{"x":-3.092250108718872,"y":0.04192125052213669,"z":0.0013569832080975175},"angular_velocity":{"x":0.09211469441652298,"y":-0.16539743542671204,"z":-1.7415498495101929},"acceleration":{"x":3.348994255065918,"y":0.96319580078125,"z":-0.011226654052734375},"speed_mps":3.0925345539735916,"speed_kph":11.13312439430493,"speed_limit_kph":30.0,"collisions_this_frame":[],"waypoint":{"x":-89.90650177001953,"y":12.934170722961426,"z":0.0},"lane_deviation_m":0.028462685644626617,"lane_width":3.5,"goal":{"x":106.00283813476562,"y":92.81285095214844,"z":0.5999999642372131},"fault":{"name":"fault_free","severity":1.0},"capture_flags":{"save_rgb":true,"save_depth":false,"video_rgb":true,"video_depth":false}}
{"frame":66,"timestamp":{"delta_seconds":0.05000000074505806,"elapsed_seconds":5.32822834327817},"control":{"throttle":0.06114265322685242,"steer":-0.02998042292892933,"brake":0.0,"hand_brake":false,"reverse":false,"manual_gear_shift":false,"gear":0},"transform":{"location":{"x":-90.05809020996094,"y":12.964566230773926,"z":0.0018893432570621371},"rotation":{"pitch":-0.022157132625579834,"yaw":179.94943237304688,"roll":0.011059779673814774}},"velocity":{"x":-2.9955732822418213,"y":0.054626889526844025,"z":0.000949268345721066},"angular_velocity":{"x":0.005810470320284367,"y":-0.052027616649866104,"z":-1.9028408527374268},"acceleration":{"x":1.9335365295410156,"y":0.25411278009414673,"z":-0.00815429724752903},"speed_mps":2.9960714756912608,"speed_kph":10.785857312488538,"speed_limit_kph":30.0,"collisions_this_frame":[],"waypoint":{"x":-90.05341339111328,"y":12.933717727661133,"z":0.0},"lane_deviation_m":0.03125815838575363,"lane_width":3.5,"goal":{"x":106.00283813476562,"y":92.81285095214844,"z":0.5999999642372131},"fault":{"name":"fault_free","severity":1.0},"capture_flags":{"save_rgb":true,"save_depth":false,"video_rgb":true,"video_depth":false}}
{"frame":67,"timestamp":{"delta_seconds":0.05000000074505806,"elapsed_seconds":5.378228344023228},"control":{"throttle":0.07506206631660461,"steer":-0.023876119405031204,"brake":0.0,"hand_brake":false,"reverse":false,"manual_gear_shift":false,"gear":0},"transform":{"location":{"x":-90.20648956298828,"y":12.966694831848145,"z":0.001927184988744557},"rotation":{"pitch":-0.022095661610364914,"yaw":179.86566162109375,"roll":0.009320561774075031}},"velocity":{"x":-2.9503233432769775,"y":0.05269250273704529,"z":0.0006537246517837048},"angular_velocity":{"x":-0.038669198751449585,"y":0.02638355828821659,"z":-1.6035895347595215},"acceleration":{"x":0.904998779296875,"y":-0.03868773579597473,"z":-0.005910873878747225},"speed_mps":2.950793919792715,"speed_kph":10.622858111253773,"speed_limit_kph":30.0,"collisions_this_frame":[],"waypoint":{"x":-90.18550872802734,"y":12.932403564453125,"z":0.0},"lane_deviation_m":0.04024674370884895,"lane_width":3.5,"goal":{"x":106.00283813476562,"y":92.81285095214844,"z":0.5999999642372131},"fault":{"name":"fault_free","severity":1.0},"capture_flags":{"save_rgb":true,"save_depth":false,"video_rgb":true,"video_depth":false}}
{"frame":68,"timestamp":{"delta_seconds":0.05000000074505806,"elapsed_seconds":5.428228344768286},"control":{"throttle":0.07506206631660461,"steer":-0.023876119405031204,"brake":0.0,"hand_brake":false,"reverse":false,"manual_gear_shift":false,"gear":0},"transform":{"location":{"x":-90.35250854492188,"y":12.96889591217041,"z":0.0019436645088717341},"rotation":{"pitch":-0.02040860429406166,"yaw":179.78863525390625,"roll":0.007470777258276939}},"velocity":{"x":-2.900153636932373,"y":0.053924668580293655,"z":0.0004470062267500907},"angular_velocity":{"x":-0.03496531397104263,"y":0.034797683358192444,"z":-1.5078928470611572},"acceleration":{"x":1.0033941268920898,"y":0.024643316864967346,"z":-0.004134368617087603},"speed_mps":2.9006549583685635,"speed_kph":10.442357850126829,"speed_limit_kph":30.0,"collisions_this_frame":[],"waypoint":{"x":-90.31548309326172,"y":12.929914474487305,"z":0.0},"lane_deviation_m":0.05379790440201759,"lane_width":3.5,"goal":{"x":106.00283813476562,"y":92.81285095214844,"z":0.5999999642372131},"fault":{"name":"fault_free","severity":1.0},"capture_flags":{"save_rgb":true,"save_depth":false,"video_rgb":true,"video_depth":false}}
{"frame":69,"timestamp":{"delta_seconds":0.05000000074505806,"elapsed_seconds":5.478228345513344},"control":{"throttle":0.5469315052032471,"steer":-0.028302215039730072,"brake":0.0,"hand_brake":false,"reverse":false,"manual_gear_shift":false,"gear":0},"transform":{"location":{"x":-90.49659729003906,"y":12.971440315246582,"z":0.0019479369511827826},"rotation":{"pitch":-0.01806584931910038,"yaw":179.70372009277344,"roll":0.007085153833031654}},"velocity":{"x":-2.8728749752044678,"y":0.06444018334150314,"z":0.0003044033073820174},"angular_velocity":{"x":-0.002256801351904869,"y":0.05738571286201477,"z":-1.7679728269577026},"acceleration":{"x":0.5455732345581055,"y":0.21031029522418976,"z":-0.0028520585037767887},"speed_mps":2.8735976150196345,"speed_kph":10.344951414070685,"speed_limit_kph":30.0,"collisions_this_frame":[],"waypoint":{"x":-90.44371032714844,"y":12.926291465759277,"z":0.0},"lane_deviation_m":0.06956467032432556,"lane_width":3.5,"goal":{"x":106.00283813476562,"y":92.81285095214844,"z":0.5999999642372131},"fault":{"name":"fault_free","severity":1.0},"capture_flags":{"save_rgb":true,"save_depth":false,"video_rgb":true,"video_depth":false}}
{"frame":70,"timestamp":{"delta_seconds":0.05000000074505806,"elapsed_seconds":5.528228346258402},"control":{"throttle":0.5469315052032471,"steer":-0.028302215039730072,"brake":0.0,"hand_brake":false,"reverse":false,"manual_gear_shift":false,"gear":0},"transform":{"location":{"x":-90.64032745361328,"y":12.974225997924805,"z":0.002266197232529521},"rotation":{"pitch":-0.028932679444551468,"yaw":179.61819458007812,"roll":-0.0214843712747097}},"velocity":{"x":-2.889134645462036,"y":0.0815269947052002,"z":0.024449586868286133},"angular_velocity":{"x":-2.831418991088867,"y":-1.3448822498321533,"z":-1.4691569805145264},"acceleration":{"x":-0.3251934051513672,"y":0.34173622727394104,"z":0.48290368914604187},"speed_mps":2.8903881110973204,"speed_kph":10.405397199950354,"speed_limit_kph":30.0,"collisions_this_frame":[],"waypoint":{"x":-90.6295394897461,"y":12.918985366821289,"z":0.0},"lane_deviation_m":0.056329771876335144,"lane_width":3.5,"goal":{"x":106.00283813476562,"y":92.81285095214844,"z":0.5999999642372131},"fault":{"name":"fault_free","severity":1.0},"capture_flags":{"save_rgb":true,"save_depth":false,"video_rgb":true,"video_depth":false}}
{"frame":71,"timestamp":{"delta_seconds":0.05000000074505806,"elapsed_seconds":5.57822834700346},"control":{"throttle":0.47662481665611267,"steer":-0.028114652261137962,"brake":0.0,"hand_brake":false,"reverse":false,"manual_gear_shift":false,"gear":0},"transform":{"location":{"x":-90.78632354736328,"y":12.97764778137207,"z":0.003961601294577122},"rotation":{"pitch":-0.09075954556465149,"yaw":179.54244995117188,"roll":-0.1308898627758026}},"velocity":{"x":-2.9684879779815674,"y":0.09718453884124756,"z":0.015787944197654724},"angular_velocity":{"x":-0.5318858027458191,"y":-0.4350539743900299,"z":-1.6806482076644897},"acceleration":{"x":-1.587066650390625,"y":0.31315088272094727,"z":-0.17323285341262817},"speed_mps":2.970120362745064,"speed_kph":10.692433305882231,"speed_limit_kph":30.0,"collisions_this_frame":[],"waypoint":{"x":-90.78569793701172,"y":12.931727409362793,"z":0.0},"lane_deviation_m":0.04609518498182297,"lane_width":3.5,"goal":{"x":106.00283813476562,"y":92.81285095214844,"z":0.5999999642372131},"fault":{"name":"fault_free","severity":1.0},"capture_flags":{"save_rgb":true,"save_depth":false,"video_rgb":true,"video_depth":false}}
{"frame":72,"timestamp":{"delta_seconds":0.05000000074505806,"elapsed_seconds":5.628228347748518},"control":{"throttle":0.47662481665611267,"steer":-0.028114652261137962,"brake":0.0,"hand_brake":false,"reverse":false,"manual_gear_shift":false,"gear":0},"transform":{"location":{"x":-90.93666076660156,"y":12.981607437133789,"z":0.004891586024314165},"rotation":{"pitch":-0.11562826484441757,"yaw":179.47215270996094,"roll":-0.1743469089269638}},"velocity":{"x":-3.039888858795166,"y":0.09179577976465225,"z":0.01663278602063656},"angular_velocity":{"x":-1.0418400764465332,"y":-0.5671812295913696,"z":-1.364554762840271},"acceleration":{"x":-1.4280176162719727,"y":-0.10777518153190613,"z":0.016896836459636688},"speed_mps":3.041320007592162,"speed_kph":10.948752027331782,"speed_limit_kph":30.0,"collisions_this_frame":[],"waypoint":{"x":-90.93597412109375,"y":12.931309700012207,"z":0.0},"lane_deviation_m":0.05053970217704773,"lane_width":3.5,"goal":{"x":106.00283813476562,"y":92.81285095214844,"z":0.5999999642372131},"fault":{"name":"fault_free","severity":1.0},"capture_flags":{"save_rgb":true,"save_depth":false,"video_rgb":true,"video_depth":false}}
{"frame":73,"timestamp":{"delta_seconds":0.05000000074505806,"elapsed_seconds":5.678228348493576},"control":{"throttle":0.0,"steer":-0.03469265252351761,"brake":0.0,"hand_brake":false,"reverse":false,"manual_gear_shift":false,"gear":0},"transform":{"location":{"x":-91.09220123291016,"y":12.98635482788086,"z":0.004611091688275337},"rotation":{"pitch":-0.08840996026992798,"yaw":179.3684539794922,"roll":-0.11727902293205261}},"velocity":{"x":-3.141127586364746,"y":0.09446073323488235,"z":-0.03934549540281296},"angular_velocity":{"x":5.114222526550293,"y":2.6043059825897217,"z":-2.2266316413879395},"acceleration":{"x":-2.0247745513916016,"y":0.05329906940460205,"z":-1.119565725326538},"speed_mps":3.1427938863300247,"speed_kph":11.31405799078809,"speed_limit_kph":30.0,"collisions_this_frame":[],"waypoint":{"x":-91.09144592285156,"y":12.930877685546875,"z":0.0},"lane_deviation_m":0.055673565715551376,"lane_width":3.5,"goal":{"x":106.00283813476562,"y":92.81285095214844,"z":0.5999999642372131},"fault":{"name":"fault_free","severity":1.0},"capture_flags":{"save_rgb":true,"save_depth":false,"video_rgb":true,"video_depth":false}}
{"frame":74,"timestamp":{"delta_seconds":0.05000000074505806,"elapsed_seconds":5.728228349238634},"control":{"throttle":0.0,"steer":-0.03469265252351761,"brake":0.0,"hand_brake":false,"reverse":false,"manual_gear_shift":false,"gear":0},"transform":{"location":{"x":-91.25094604492188,"y":12.990954399108887,"z":0.002848510630428791},"rotation":{"pitch":-0.015224491246044636,"yaw":179.2521209716797,"roll":-0.009674073196947575}},"velocity":{"x":-3.1725001335144043,"y":0.09433143585920334,"z":-0.019758863374590874},"angular_velocity":{"x":1.045701265335083,"y":0.8792976140975952,"z":-2.355825901031494},"acceleration":{"x":-0.6274509429931641,"y":-0.0025859475135803223,"z":0.3917326331138611},"speed_mps":3.173963756822379,"speed_kph":11.426269524560565,"speed_limit_kph":30.0,"collisions_this_frame":[],"waypoint":{"x":-91.25012969970703,"y":12.930437088012695,"z":0.0},"lane_deviation_m":0.06058981269598007,"lane_width":3.5,"goal":{"x":106.00283813476562,"y":92.81285095214844,"z":0.5999999642372131},"fault":{"name":"fault_free","severity":1.0},"capture_flags":{"save_rgb":true,"save_depth":false,"video_rgb":true,"video_depth":false}}
{"frame":75,"timestamp":{"delta_seconds":0.05000000074505806,"elapsed_seconds":5.778228349983692},"control":{"throttle":0.06527693569660187,"steer":-0.03882325068116188,"brake":0.0,"hand_brake":false,"reverse":false,"manual_gear_shift":false,"gear":0},"transform":{"location":{"x":-91.40921783447266,"y":12.99580192565918,"z":0.002071380615234375},"rotation":{"pitch":0.0068438490852713585,"yaw":179.12347412109375,"roll":0.0129192303866148}},"velocity":{"x":-3.155518054962158,"y":0.11660344898700714,"z":-0.00930008850991726},"angular_velocity":{"x":0.21852296590805054,"y":0.23061591386795044,"z":-2.6497080326080322},"acceleration":{"x":0.3396415710449219,"y":0.44544026255607605,"z":0.2091754972934723},"speed_mps":3.1576853945816263,"speed_kph":11.367667420493856,"speed_limit_kph":30.0,"collisions_this_frame":[],"waypoint":{"x":-91.40833282470703,"y":12.929997444152832,"z":0.0},"lane_deviation_m":0.06584302335977554,"lane_width":3.5,"goal":{"x":106.00283813476562,"y":92.81285095214844,"z":0.5999999642372131},"fault":{"name":"fault_free","severity":1.0},"capture_flags":{"save_rgb":true,"save_depth":false,"video_rgb":true,"video_depth":false}}
{"frame":76,"timestamp":{"delta_seconds":0.05000000074505806,"elapsed_seconds":5.82822835072875},"control":{"throttle":0.06527693569660187,"steer":-0.03882325068116188,"brake":0.0,"hand_brake":false,"reverse":false,"manual_gear_shift":false,"gear":0},"transform":{"location":{"x":-91.5660629272461,"y":13.001214027404785,"z":0.0017617415869608521},"rotation":{"pitch":0.010559472255408764,"yaw":178.99192810058594,"roll":0.016220007091760635}},"velocity":{"x":-3.1223084926605225,"y":0.12677860260009766,"z":-0.003886585123836994},"angular_velocity":{"x":0.003680878086015582,"y":0.0006764204590581357,"z":-2.6090266704559326},"acceleration":{"x":0.6641912460327148,"y":0.2035030722618103,"z":0.108270063996315},"speed_mps":3.1248837167103005,"speed_kph":11.249581380157082,"speed_limit_kph":30.0,"collisions_this_frame":[],"waypoint":{"x":-91.56510162353516,"y":12.929561614990234,"z":0.0},"lane_deviation_m":0.07168051600456238,"lane_width":3.5,"goal":{"x":106.00283813476562,"y":92.81285095214844,"z":0.5999999642372131},"fault":{"name":"fault_free","severity":1.0},"capture_flags":{"save_rgb":true,"save_depth":false,"video_rgb":true,"video_depth":false}}
{"frame":77,"timestamp":{"delta_seconds":0.05000000074505806,"elapsed_seconds":5.878228351473808},"control":{"throttle":0.06527693569660187,"steer":-0.03721917048096657,"brake":0.0,"hand_brake":false,"reverse":false,"manual_gear_shift":false,"gear":0},"transform":{"location":{"x":-91.72126770019531,"y":13.00696849822998,"z":0.0016678619431331754},"rotation":{"pitch":0.008455773815512657,"yaw":178.86419677734375,"roll":0.014771777205169201}},"velocity":{"x":-3.091264009475708,"y":0.1328040361404419,"z":-0.0012058448046445847},"angular_velocity":{"x":-0.03740604966878891,"y":-0.05771839618682861,"z":-2.5416109561920166},"acceleration":{"x":0.6208896636962891,"y":0.12050867080688477,"z":0.05361480638384819},"speed_mps":3.09411563170427,"speed_kph":11.138816274135372,"speed_limit_kph":30.0,"collisions_this_frame":[],"waypoint":{"x":-91.72022247314453,"y":12.929130554199219,"z":0.0},"lane_deviation_m":0.07786282896995544,"lane_width":3.5,"goal":{"x":106.00283813476562,"y":92.81285095214844,"z":0.5999999642372131},"fault":{"name":"fault_free","severity":1.0},"capture_flags":{"save_rgb":true,"save_depth":false,"video_rgb":true,"video_depth":false}}
{"frame":78,"timestamp":{"delta_seconds":0.05000000074505806,"elapsed_seconds":5.928228352218866},"control":{"throttle":0.06527693569660187,"steer":-0.03721917048096657,"brake":0.0,"hand_brake":false,"reverse":false,"manual_gear_shift":false,"gear":0},"transform":{"location":{"x":-91.87452697753906,"y":13.012979507446289,"z":0.0016694259829819202},"rotation":{"pitch":0.004849433898925781,"yaw":178.7399139404297,"roll":0.012596506625413895}},"velocity":{"x":-3.0476744174957275,"y":0.1366068571805954,"z":1.4400481632037554e-05},"angular_velocity":{"x":-0.04803228750824928,"y":-0.07610184699296951,"z":-2.4501922130584717},"acceleration":{"x":0.8717918395996094,"y":0.07605642080307007,"z":0.02440490573644638},"speed_mps":3.050734467090516,"speed_kph":10.982644081525857,"speed_limit_kph":30.0,"collisions_this_frame":[],"waypoint":{"x":-91.87340545654297,"y":12.928705215454102,"z":0.0},"lane_deviation_m":0.0842982828617096,"lane_width":3.5,"goal":{"x":106.00283813476562,"y":92.81285095214844,"z":0.5999999642372131},"fault":{"name":"fault_free","severity":1.0},"capture_flags":{"save_rgb":true,"save_depth":false,"video_rgb":true,"video_depth":false}}
{"frame":79,"timestamp":{"delta_seconds":0.05000000074505806,"elapsed_seconds":5.978228352963924},"control":{"throttle":0.05902693793177605,"steer":-0.045092105865478516,"brake":0.0,"hand_brake":false,"reverse":false,"manual_gear_shift":false,"gear":0},"transform":{"location":{"x":-92.0257797241211,"y":13.019606590270996,"z":0.0017070770263671875},"rotation":{"pitch":0.0014138490660116076,"yaw":178.59994506835938,"roll":0.012342606671154499}},"velocity":{"x":-3.0097780227661133,"y":0.15491308271884918,"z":0.000496721244417131},"angular_velocity":{"x":-0.0021344206761568785,"y":-0.06183990091085434,"z":-2.9178919792175293},"acceleration":{"x":0.7579278945922852,"y":0.3661245107650757,"z":0.009646414779126644},"speed_mps":3.013762110096838,"speed_kph":10.849543596348617,"speed_limit_kph":30.0,"collisions_this_frame":[],"waypoint":{"x":-92.02456665039062,"y":12.928284645080566,"z":0.0},"lane_deviation_m":0.09134595096111298,"lane_width":3.5,"goal":{"x":106.00283813476562,"y":92.81285095214844,"z":0.5999999642372131},"fault":{"name":"fault_free","severity":1.0},"capture_flags":{"save_rgb":true,"save_depth":false,"video_rgb":true,"video_depth":false}}
{"frame":80,"timestamp":{"delta_seconds":0.05000000074505806,"elapsed_seconds":6.0282283537089825},"control":{"throttle":0.05902693793177605,"steer":-0.045092105865478516,"brake":0.0,"hand_brake":false,"reverse":false,"manual_gear_shift":false,"gear":0},"transform":{"location":{"x":-92.17484283447266,"y":13.026695251464844,"z":0.0017540359403938055},"rotation":{"pitch":-0.0015914340037852526,"yaw":178.45498657226562,"roll":0.011450793594121933}},"velocity":{"x":-2.9617302417755127,"y":0.16108600795269012,"z":0.0006201743963174522},"angular_velocity":{"x":-0.02956440858542919,"y":-0.057992979884147644,"z":-2.8723208904266357},"acceleration":{"x":0.9609556198120117,"y":0.12345850467681885,"z":0.002469063038006425},"speed_mps":2.966107737696332,"speed_kph":10.677987855706796,"speed_limit_kph":30.0,"collisions_this_frame":[],"waypoint":{"x":-92.17353820800781,"y":12.927870750427246,"z":0.0},"lane_deviation_m":0.09884867817163467,"lane_width":3.5,"goal":{"x":106.00283813476562,"y":92.81285095214844,"z":0.5999999642372131},"fault":{"name":"fault_free","severity":1.0},"capture_flags":{"save_rgb":true,"save_depth":false,"video_rgb":true,"video_depth":false}}
{"frame":81,"timestamp":{"delta_seconds":0.05000000074505806,"elapsed_seconds":6.0782283544540405},"control":{"throttle":0.052776940166950226,"steer":-0.056412223726511,"brake":0.0,"hand_brake":false,"reverse":false,"manual_gear_shift":false,"gear":0},"transform":{"location":{"x":-92.32168579101562,"y":13.034603118896484,"z":0.0017981718992814422},"rotation":{"pitch":-0.003968339879065752,"yaw":178.28680419921875,"roll":0.012470283545553684}},"velocity":{"x":-2.9203217029571533,"y":0.1854788213968277,"z":0.000579833984375},"angular_velocity":{"x":0.020065931603312492,"y":-0.03976059705018997,"z":-3.529632091522217},"acceleration":{"x":0.8281707763671875,"y":0.48785626888275146,"z":-0.0008068082388490438},"speed_mps":2.926206004053162,"speed_kph":10.534341614591384,"speed_limit_kph":30.0,"collisions_this_frame":[],"waypoint":{"x":-92.32027435302734,"y":12.92746353149414,"z":0.0},"lane_deviation_m":0.10716397315263748,"lane_width":3.5,"goal":{"x":106.00283813476562,"y":92.81285095214844,"z":0.5999999642372131},"fault":{"name":"fault_free","severity":1.0},"capture_flags":{"save_rgb":true,"save_depth":false,"video_rgb":true,"video_depth":false}}
{"frame":82,"timestamp":{"delta_seconds":0.05000000074505806,"elapsed_seconds":6.128228355199099},"control":{"throttle":0.052776940166950226,"steer":-0.056412223726511,"brake":0.0,"hand_brake":false,"reverse":false,"manual_gear_shift":false,"gear":0},"transform":{"location":{"x":-92.4662094116211,"y":13.043091773986816,"z":0.0018356704385951161},"rotation":{"pitch":-0.005894452799111605,"yaw":178.1112823486328,"roll":0.012141621671617031}},"velocity":{"x":-2.869818925857544,"y":0.19293861091136932,"z":0.00048569677164778113},"angular_velocity":{"x":-0.023940544575452805,"y":-0.03769271448254585,"z":-3.4756224155426025},"acceleration":{"x":1.0100555419921875,"y":0.14919579029083252,"z":-0.0018827442545443773},"speed_mps":2.8762973091618864,"speed_kph":10.354670312982792,"speed_limit_kph":30.0,"collisions_this_frame":[],"waypoint":{"x":-92.46468353271484,"y":12.927062034606934,"z":0.0},"lane_deviation_m":0.11605428904294968,"lane_width":3.5,"goal":{"x":106.00283813476562,"y":92.81285095214844,"z":0.5999999642372131},"fault":{"name":"fault_free","severity":1.0},"capture_flags":{"save_rgb":true,"save_depth":false,"video_rgb":true,"video_depth":false}}
{"frame":83,"timestamp":{"delta_seconds":0.05000000074505806,"elapsed_seconds":6.178228355944157},"control":{"throttle":0.5511394143104553,"steer":-0.05830800533294678,"brake":0.0,"hand_brake":false,"reverse":false,"manual_gear_shift":false,"gear":0},"transform":{"location":{"x":-92.60868835449219,"y":13.052059173583984,"z":0.0018635558662936091},"rotation":{"pitch":-0.007048754952847958,"yaw":177.93218994140625,"roll":0.011571317911148071}},"velocity":{"x":-2.838688611984253,"y":0.2049819827079773,"z":0.00038232802762649953},"angular_velocity":{"x":-0.006994640454649925,"y":-0.009024117141962051,"z":-3.629852533340454},"acceleration":{"x":0.6226062774658203,"y":0.24086743593215942,"z":-0.002067374996840954},"speed_mps":2.8460798996547334,"speed_kph":10.24588763875704,"speed_limit_kph":30.0,"collisions_this_frame":[],"waypoint":{"x":-92.60704803466797,"y":12.926666259765625,"z":0.0},"lane_deviation_m":0.12541748583316803,"lane_width":3.5,"goal":{"x":106.00283813476562,"y":92.81285095214844,"z":0.5999999642372131},"fault":{"name":"fault_free","severity":1.0},"capture_flags":{"save_rgb":true,"save_depth":false,"video_rgb":true,"video_depth":false}}
{"frame":84,"timestamp":{"delta_seconds":0.05000000074505806,"elapsed_seconds":6.228228356689215},"control":{"throttle":0.5511394143104553,"steer":-0.05830800533294678,"brake":0.0,"hand_brake":false,"reverse":false,"manual_gear_shift":false,"gear":0},"transform":{"location":{"x":-92.75062561035156,"y":13.061485290527344,"z":0.0018758391961455345},"rotation":{"pitch":-0.006379396189004183,"yaw":177.75241088867188,"roll":0.010716739110648632}},"velocity":{"x":-2.845534086227417,"y":0.21331818401813507,"z":0.0002847480645868927},"angular_velocity":{"x":-0.02122790738940239,"y":0.03277391567826271,"z":-3.5799007415771484},"acceleration":{"x":-0.13690948486328125,"y":0.16672402620315552,"z":-0.0019515992607921362},"speed_mps":2.8535186988341876,"speed_kph":10.272667315803076,"speed_limit_kph":30.0,"collisions_this_frame":[],"waypoint":{"x":-92.74886322021484,"y":12.92627239227295,"z":0.0},"lane_deviation_m":0.13523739576339722,"lane_width":3.5,"goal":{"x":106.00283813476562,"y":92.81285095214844,"z":0.5999999642372131},"fault":{"name":"fault_free","severity":1.0},"capture_flags":{"save_rgb":true,"save_depth":false,"video_rgb":true,"video_depth":false}}
{"frame":85,"timestamp":{"delta_seconds":0.05000000074505806,"elapsed_seconds":6.278228357434273},"control":{"throttle":0.6075165867805481,"steer":-0.05588090792298317,"brake":0.0,"hand_brake":false,"reverse":false,"manual_gear_shift":false,"gear":0},"transform":{"location":{"x":-92.89507293701172,"y":13.071450233459473,"z":0.001866302452981472},"rotation":{"pitch":-0.0027184151113033295,"yaw":177.57359313964844,"roll":0.009875694289803505}},"velocity":{"x":-2.9231765270233154,"y":0.2262822538614273,"z":0.0002083206200040877},"angular_velocity":{"x":-0.0019416878931224346,"y":0.09959175437688828,"z":-3.6143908500671387},"acceleration":{"x":-1.5528488159179688,"y":0.2592813968658447,"z":-0.0015285488916561007},"speed_mps":2.9319216752754804,"speed_kph":10.554918030991729,"speed_limit_kph":30.0,"collisions_this_frame":[],"waypoint":{"x":-92.89318084716797,"y":12.925871849060059,"z":0.0},"lane_deviation_m":0.14560264348983765,"lane_width":3.5,"goal":{"x":106.00283813476562,"y":92.81285095214844,"z":0.5999999642372131},"fault":{"name":"fault_free","severity":1.0},"capture_flags":{"save_rgb":true,"save_depth":false,"video_rgb":true,"video_depth":false}}
{"frame":86,"timestamp":{"delta_seconds":0.05000000074505806,"elapsed_seconds":6.328228358179331},"control":{"throttle":0.6075165867805481,"steer":-0.05588090792298317,"brake":0.0,"hand_brake":false,"reverse":false,"manual_gear_shift":false,"gear":0},"transform":{"location":{"x":-93.0445556640625,"y":13.082146644592285,"z":0.0018404388101771474},"rotation":{"pitch":0.0031623775139451027,"yaw":177.39161682128906,"roll":0.009545714594423771}},"velocity":{"x":-3.035693883895874,"y":0.24194492399692535,"z":0.0001481723738834262},"angular_velocity":{"x":-0.0015123648336157203,"y":0.1259622871875763,"z":-3.6674301624298096},"acceleration":{"x":-2.250347137451172,"y":0.31325340270996094,"z":-0.00120296492241323},"speed_mps":3.0453201350475037,"speed_kph":10.963152486171014,"speed_limit_kph":30.0,"collisions_this_frame":[],"waypoint":{"x":-93.04252624511719,"y":12.925456047058105,"z":0.0},"lane_deviation_m":0.1567145437002182,"lane_width":3.5,"goal":{"x":106.00283813476562,"y":92.81285095214844,"z":0.5999999642372131},"fault":{"name":"fault_free","severity":1.0},"capture_flags":{"save_rgb":true,"save_depth":false,"video_rgb":true,"video_depth":false}}
{"frame":87,"timestamp":{"delta_seconds":0.05000000074505806,"elapsed_seconds":6.378228358924389},"control":{"throttle":0.0,"steer":-0.06274731457233429,"brake":0.0,"hand_brake":false,"reverse":false,"manual_gear_shift":false,"gear":0},"transform":{"location":{"x":-93.20037841796875,"y":13.094103813171387,"z":0.001808929373510182},"rotation":{"pitch":0.009575924836099148,"yaw":177.18658447265625,"roll":0.011235424317419529}},"velocity":{"x":-3.1618101596832275,"y":0.27460503578186035,"z":0.00010542869131313637},"angular_velocity":{"x":0.043809521943330765,"y":0.11673909425735474,"z":-4.280912399291992},"acceleration":{"x":-2.5223255157470703,"y":0.6532022356987,"z":-0.0008548736805096269},"speed_mps":3.1737125614440957,"speed_kph":11.425365221198746,"speed_limit_kph":30.0,"collisions_this_frame":[],"waypoint":{"x":-93.19681549072266,"y":12.925023078918457,"z":0.0},"lane_deviation_m":0.1691279411315918,"lane_width":3.5,"goal":{"x":106.00283813476562,"y":92.81285095214844,"z":0.5999999642372131},"fault":{"name":"fault_free","severity":1.0},"capture_flags":{"save_rgb":true,"save_depth":false,"video_rgb":true,"video_depth":false}}
{"frame":88,"timestamp":{"delta_seconds":0.05000000074505806,"elapsed_seconds":6.428228359669447},"control":{"throttle":0.0,"steer":-0.06274731457233429,"brake":0.0,"hand_brake":false,"reverse":false,"manual_gear_shift":false,"gear":0},"transform":{"location":{"x":-93.36080169677734,"y":13.107149124145508,"z":0.001791038434021175},"rotation":{"pitch":0.013346188701689243,"yaw":176.9701385498047,"roll":0.012017746455967426}},"velocity":{"x":-3.2275795936584473,"y":0.29287710785865784,"z":6.977080920478329e-05},"angular_velocity":{"x":0.003844520775601268,"y":0.04161429405212402,"z":-4.343104839324951},"acceleration":{"x":-1.3153886795043945,"y":0.3654414415359497,"z":-0.0007131576421670616},"speed_mps":3.240840483358606,"speed_kph":11.667025740090981,"speed_limit_kph":30.0,"collisions_this_frame":[],"waypoint":{"x":-93.34168243408203,"y":12.923869132995605,"z":0.0},"lane_deviation_m":0.18428322672843933,"lane_width":3.5,"goal":{"x":106.00283813476562,"y":92.81285095214844,"z":0.5999999642372131},"fault":{"name":"fault_free","severity":1.0},"capture_flags":{"save_rgb":true,"save_depth":false,"video_rgb":true,"video_depth":false}}
{"frame":89,"timestamp":{"delta_seconds":0.05000000074505806,"elapsed_seconds":6.478228360414505},"control":{"throttle":0.03256329149007797,"steer":-0.06337512284517288,"brake":0.0,"hand_brake":false,"reverse":false,"manual_gear_shift":false,"gear":0},"transform":{"location":{"x":-93.52239990234375,"y":13.120975494384766,"z":0.0017968368483707309},"rotation":{"pitch":0.012888566590845585,"yaw":176.7490234375,"roll":0.012122927233576775}},"velocity":{"x":-3.2295875549316406,"y":0.30839383602142334,"z":5.101203714730218e-05},"angular_velocity":{"x":0.0019440416945144534,"y":-0.033448562026023865,"z":-4.457935810089111},"acceleration":{"x":-0.04015922546386719,"y":0.31033456325531006,"z":-0.0003751754411496222},"speed_mps":3.2442784306633685,"speed_kph":11.679402350388127,"speed_limit_kph":30.0,"collisions_this_frame":[],"waypoint":{"x":-93.48759460449219,"y":12.921419143676758,"z":0.0},"lane_deviation_m":0.20257684588432312,"lane_width":3.5,"goal":{"x":106.00283813476562,"y":92.81285095214844,"z":0.5999999642372131},"fault":{"name":"fault_free","severity":1.0},"capture_flags":{"save_rgb":true,"save_depth":false,"video_rgb":true,"video_depth":false}}
{"frame":90,"timestamp":{"delta_seconds":0.05000000074505806,"elapsed_seconds":6.528228361159563},"control":{"throttle":0.03256329149007797,"steer":-0.06337512284517288,"brake":0.0,"hand_brake":false,"reverse":false,"manual_gear_shift":false,"gear":0},"transform":{"location":{"x":-93.68313598632812,"y":13.135368347167969,"z":0.0018167495727539062},"rotation":{"pitch":0.009835472330451012,"yaw":176.52915954589844,"roll":0.011634106747806072}},"velocity":{"x":-3.2005794048309326,"y":0.31684520840644836,"z":3.4332275390625e-05},"angular_velocity":{"x":-0.022702068090438843,"y":-0.07390318065881729,"z":-4.353044509887695},"acceleration":{"x":0.5801630020141602,"y":0.1690274477005005,"z":-0.0003335952351335436},"speed_mps":3.2162244035354184,"speed_kph":11.578407852727507,"speed_limit_kph":30.0,"collisions_this_frame":[],"waypoint":{"x":-93.63269805908203,"y":12.917701721191406,"z":0.0},"lane_deviation_m":0.22344137728214264,"lane_width":3.5,"goal":{"x":106.00283813476562,"y":92.81285095214844,"z":0.5999999642372131},"fault":{"name":"fault_free","severity":1.0},"capture_flags":{"save_rgb":true,"save_depth":false,"video_rgb":true,"video_depth":false}}
