{"frame":3599,"timestamp":{"delta_seconds":0.05000000074505806,"elapsed_seconds":39.06194707099348},"control":{"throttle":0.0,"steer":0.0,"brake":1.0,"hand_brake":false,"reverse":false,"manual_gear_shift":false,"gear":0},"transform":{"location":{"x":-87.6230239868164,"y":12.967159271240234,"z":0.48239994049072266},"rotation":{"pitch":0.0,"yaw":-179.84078979492188,"roll":0.0}},"velocity":{"x":0.0,"y":0.0,"z":-1.470000147819519},"angular_velocity":{"x":0.0,"y":0.0,"z":0.0},"acceleration":{"x":0.0,"y":0.0,"z":-9.80000114440918},"speed_mps":1.470000147819519,"speed_kph":5.2920005321502686,"speed_limit_kph":30.0,"collisions_this_frame":[],"waypoint":{"x":-87.62295532226562,"y":12.94051742553711,"z":0.0},"lane_deviation_m":0.48313507437705994,"lane_width":3.5,"goal":{"x":-15.407496452331543,"y":133.7284698486328,"z":0.5999999642372131},"fault":{"name":"tire_pressure_imbalance","severity":1.0},"capture_flags":{"save_rgb":true,"save_depth":false,"video_rgb":true,"video_depth":false}}
{"frame":3600,"timestamp":{"delta_seconds":0.05000000074505806,"elapsed_seconds":39.11194707173854},"control":{"throttle":0.0,"steer":0.0,"brake":1.0,"hand_brake":false,"reverse":false,"manual_gear_shift":false,"gear":0},"transform":{"location":{"x":-87.6230239868164,"y":12.967159271240234,"z":0.394199937582016},"rotation":{"pitch":0.0,"yaw":-179.84078979492188,"roll":0.0}},"velocity":{"x":0.0,"y":0.0,"z":-1.9600002765655518},"angular_velocity":{"x":0.0,"y":0.0,"z":0.0},"acceleration":{"x":0.0,"y":0.0,"z":-9.800003051757812},"speed_mps":1.9600002765655518,"speed_kph":7.056000995635986,"speed_limit_kph":30.0,"collisions_this_frame":[],"waypoint":{"x":-87.62295532226562,"y":12.94051742553711,"z":0.0},"lane_deviation_m":0.3950991928577423,"lane_width":3.5,"goal":{"x":-15.407496452331543,"y":133.7284698486328,"z":0.5999999642372131},"fault":{"name":"tire_pressure_imbalance","severity":1.0},"capture_flags":{"save_rgb":true,"save_depth":false,"video_rgb":true,"video_depth":false}}
{"frame":3601,"timestamp":{"delta_seconds":0.05000000074505806,"elapsed_seconds":39.1619470724836},"control":{"throttle":0.0,"steer":0.0,"brake":1.0,"hand_brake":false,"reverse":false,"manual_gear_shift":false,"gear":0},"transform":{"location":{"x":-87.6230239868164,"y":12.967159271240234,"z":0.281499981880188},"rotation":{"pitch":0.0,"yaw":-179.84078979492188,"roll":0.0}},"velocity":{"x":0.0,"y":0.0,"z":-2.450000286102295},"angular_velocity":{"x":0.0,"y":0.0,"z":0.0},"acceleration":{"x":0.0,"y":0.0,"z":-9.800000190734863},"speed_mps":2.450000286102295,"speed_kph":8.820001029968262,"speed_limit_kph":30.0,"collisions_this_frame":[],"waypoint":{"x":-87.62295532226562,"y":12.94051742553711,"z":0.0},"lane_deviation_m":0.2827579081058502,"lane_width":3.5,"goal":{"x":-15.407496452331543,"y":133.7284698486328,"z":0.5999999642372131},"fault":{"name":"tire_pressure_imbalance","severity":1.0},"capture_flags":{"save_rgb":true,"save_depth":false,"video_rgb":true,"video_depth":false}}
{"frame":3602,"timestamp":{"delta_seconds":0.05000000074505806,"elapsed_seconds":39.21194707322866},"control":{"throttle":0.75,"steer":0.0,"brake":0.0,"hand_brake":false,"reverse":false,"manual_gear_shift":false,"gear":0},"transform":{"location":{"x":-87.6230239868164,"y":12.967159271240234,"z":0.14429987967014313},"rotation":{"pitch":0.0,"yaw":-179.84078979492188,"roll":0.0}},"velocity":{"x":0.0,"y":0.0,"z":-2.93999981880188},"angular_velocity":{"x":0.0,"y":0.0,"z":0.0},"acceleration":{"x":0.0,"y":0.0,"z":-9.7999906539917},"speed_mps":2.93999981880188,"speed_kph":10.583999347686769,"speed_limit_kph":30.0,"collisions_this_frame":[],"waypoint":{"x":-87.62295532226562,"y":12.94051742553711,"z":0.0},"lane_deviation_m":0.1467387080192566,"lane_width":3.5,"goal":{"x":-15.407496452331543,"y":133.7284698486328,"z":0.5999999642372131},"fault":{"name":"tire_pressure_imbalance","severity":1.0},"capture_flags":{"save_rgb":true,"save_depth":false,"video_rgb":true,"video_depth":false}}
{"frame":3603,"timestamp":{"delta_seconds":0.05000000074505806,"elapsed_seconds":39.261947073973715},"control":{"throttle":0.0,"steer":0.0,"brake":1.0,"hand_brake":false,"reverse":false,"manual_gear_shift":false,"gear":0},"transform":{"location":{"x":-87.6231460571289,"y":12.964921951293945,"z":0.009860610589385033},"rotation":{"pitch":0.10385984927415848,"yaw":-179.7747039794922,"roll":-0.27181997895240784}},"velocity":{"x":0.025087803602218628,"y":-0.0073287286795675755,"z":-1.967410683631897},"angular_velocity":{"x":-9.892762184143066,"y":4.063372611999512,"z":1.6973363161087036},"acceleration":{"x":0.5017560720443726,"y":-0.14657457172870636,"z":19.4517822265625},"speed_mps":1.9675842818600098,"speed_kph":7.083303414696036,"speed_limit_kph":30.0,"collisions_this_frame":[],"waypoint":{"x":-87.62308502197266,"y":12.940515518188477,"z":0.0},"lane_deviation_m":0.026323171332478523,"lane_width":3.5,"goal":{"x":-15.407496452331543,"y":133.7284698486328,"z":0.5999999642372131},"fault":{"name":"tire_pressure_imbalance","severity":1.0},"capture_flags":{"save_rgb":true,"save_depth":false,"video_rgb":true,"video_depth":false}}
{"frame":3604,"timestamp":{"delta_seconds":0.05000000074505806,"elapsed_seconds":39.31194707471877},"control":{"throttle":0.0,"steer":0.0,"brake":1.0,"hand_brake":false,"reverse":false,"manual_gear_shift":false,"gear":0},"transform":{"location":{"x":-87.62371063232422,"y":12.963232040405273,"z":-0.04620387777686119},"rotation":{"pitch":0.2766294777393341,"yaw":-179.73243713378906,"roll":-0.6037901639938354}},"velocity":{"x":0.00880208145827055,"y":0.009608513675630093,"z":-0.6603050827980042},"angular_velocity":{"x":-4.220658779144287,"y":2.627147912979126,"z":0.4981393814086914},"acceleration":{"x":-0.3257144093513489,"y":0.3387448489665985,"z":26.14211082458496},"speed_mps":0.6604336473423593,"speed_kph":2.3775611304324937,"speed_limit_kph":30.0,"collisions_this_frame":[],"waypoint":{"x":-87.62364959716797,"y":12.940515518188477,"z":0.0},"lane_deviation_m":0.05148633196949959,"lane_width":3.5,"goal":{"x":-15.407496452331543,"y":133.7284698486328,"z":0.5999999642372131},"fault":{"name":"tire_pressure_imbalance","severity":1.0},"capture_flags":{"save_rgb":true,"save_depth":false,"video_rgb":true,"video_depth":false}}
{"frame":3605,"timestamp":{"delta_seconds":0.05000000074505806,"elapsed_seconds":39.36194707546383},"control":{"throttle":0.0,"steer":0.0,"brake":1.0,"hand_brake":false,"reverse":false,"manual_gear_shift":false,"gear":0},"transform":{"location":{"x":-87.62348175048828,"y":12.964058876037598,"z":-0.058820076286792755},"rotation":{"pitch":0.26825565099716187,"yaw":-179.71920776367188,"roll":-0.5242918729782104}},"velocity":{"x":0.0006645662942901254,"y":-0.01268939021974802,"z":-0.053729347884655},"angular_velocity":{"x":1.847066879272461,"y":-1.0167386531829834,"z":0.0978432297706604},"acceleration":{"x":-0.16275030374526978,"y":-0.44595807790756226,"z":12.131514549255371},"speed_mps":0.055211458019317185,"speed_kph":0.19876124886954186,"speed_limit_kph":30.0,"collisions_this_frame":[],"waypoint":{"x":-87.62342071533203,"y":12.940515518188477,"z":0.0},"lane_deviation_m":0.06335688382387161,"lane_width":3.5,"goal":{"x":-15.407496452331543,"y":133.7284698486328,"z":0.5999999642372131},"fault":{"name":"tire_pressure_imbalance","severity":1.0},"capture_flags":{"save_rgb":true,"save_depth":false,"video_rgb":true,"video_depth":false}}
{"frame":3606,"timestamp":{"delta_seconds":0.05000000074505806,"elapsed_seconds":39.41194707620889},"control":{"throttle":0.0,"steer":0.0,"brake":1.0,"hand_brake":false,"reverse":false,"manual_gear_shift":false,"gear":0},"transform":{"location":{"x":-87.6231918334961,"y":12.964444160461426,"z":-0.05442088842391968},"rotation":{"pitch":0.21887339651584625,"yaw":-179.7208251953125,"roll":-0.43167105317115784}},"velocity":{"x":-0.001999730011448264,"y":-0.0028643771074712276,"z":0.14493133127689362},"angular_velocity":{"x":1.9544248580932617,"y":-1.0102105140686035,"z":-0.10114498436450958},"acceleration":{"x":-0.05328592658042908,"y":0.1965002715587616,"z":3.9732134342193604},"speed_mps":0.14497342639954805,"speed_kph":0.521904335038373,"speed_limit_kph":30.0,"collisions_this_frame":[],"waypoint":{"x":-87.62313079833984,"y":12.940515518188477,"z":0.0},"lane_deviation_m":0.05944927781820297,"lane_width":3.5,"goal":{"x":-15.407496452331543,"y":133.7284698486328,"z":0.5999999642372131},"fault":{"name":"tire_pressure_imbalance","severity":1.0},"capture_flags":{"save_rgb":true,"save_depth":false,"video_rgb":true,"video_depth":false}}
{"frame":3607,"timestamp":{"delta_seconds":0.05000000074505806,"elapsed_seconds":39.46194707695395},"control":{"throttle":0.0,"steer":0.0,"brake":1.0,"hand_brake":false,"reverse":false,"manual_gear_shift":false,"gear":0},"transform":{"location":{"x":-87.62294006347656,"y":12.965046882629395,"z":-0.04489299654960632},"rotation":{"pitch":0.1668137013912201,"yaw":-179.7273406982422,"roll":-0.3327941596508026}},"velocity":{"x":-0.0026892453897744417,"y":-0.000720391923096031,"z":0.19865672290325165},"angular_velocity":{"x":1.968743920326233,"y":-1.0299131870269775,"z":-0.15573857724666595},"acceleration":{"x":-0.013790307566523552,"y":0.042879700660705566,"z":1.0745078325271606},"speed_mps":0.19867623048555302,"speed_kph":0.7152344297479909,"speed_limit_kph":30.0,"collisions_this_frame":[],"waypoint":{"x":-87.62287139892578,"y":12.94051742553711,"z":0.0},"lane_deviation_m":0.05115740746259689,"lane_width":3.5,"goal":{"x":-15.407496452331543,"y":133.7284698486328,"z":0.5999999642372131},"fault":{"name":"tire_pressure_imbalance","severity":1.0},"capture_flags":{"save_rgb":true,"save_depth":false,"video_rgb":true,"video_depth":false}}
{"frame":3608,"timestamp":{"delta_seconds":0.05000000074505806,"elapsed_seconds":39.511947077699006},"control":{"throttle":0.0,"steer":0.0,"brake":1.0,"hand_brake":false,"reverse":false,"manual_gear_shift":false,"gear":0},"transform":{"location":{"x":-87.62273406982422,"y":12.965655326843262,"z":-0.03474674001336098},"rotation":{"pitch":0.11898872256278992,"yaw":-179.7350311279297,"roll":-0.2437438815832138}},"velocity":{"x":-0.0025845172349363565,"y":0.0008760271011851728,"z":0.19161874055862427},"angular_velocity":{"x":1.6601660251617432,"y":-0.8853875994682312,"z":-0.15850718319416046},"acceleration":{"x":0.0020945630967617035,"y":0.03192837908864021,"z":-0.1407596468925476},"speed_mps":0.19163817178759834,"speed_kph":0.689897418435354,"speed_limit_kph":30.0,"collisions_this_frame":[],"waypoint":{"x":-87.62266540527344,"y":12.94051742553711,"z":0.0},"lane_deviation_m":0.042886532843112946,"lane_width":3.5,"goal":{"x":-15.407496452331543,"y":133.7284698486328,"z":0.5999999642372131},"fault":{"name":"tire_pressure_imbalance","severity":1.0},"capture_flags":{"save_rgb":true,"save_depth":false,"video_rgb":true,"video_depth":false}}
{"frame":3609,"timestamp":{"delta_seconds":0.05000000074505806,"elapsed_seconds":39.561947078444064},"control":{"throttle":0.0,"steer":0.0,"brake":1.0,"hand_brake":false,"reverse":false,"manual_gear_shift":false,"gear":0},"transform":{"location":{"x":-87.62256622314453,"y":12.966208457946777,"z":-0.025760535150766373},"rotation":{"pitch":0.08114264160394669,"yaw":-179.7422332763672,"roll":-0.1741638034582138}},"velocity":{"x":-0.0021961291786283255,"y":0.002539262641221285,"z":0.16293922066688538},"angular_velocity":{"x":1.2391836643218994,"y":-0.6647558212280273,"z":-0.14248798787593842},"acceleration":{"x":0.007767761126160622,"y":0.03326471149921417,"z":-0.5735903978347778},"speed_mps":0.16297380301650413,"speed_kph":0.5867056908594149,"speed_limit_kph":30.0,"collisions_this_frame":[],"waypoint":{"x":-87.62249755859375,"y":12.94051742553711,"z":0.0},"lane_deviation_m":0.03638184815645218,"lane_width":3.5,"goal":{"x":-15.407496452331543,"y":133.7284698486328,"z":0.5999999642372131},"fault":{"name":"tire_pressure_imbalance","severity":1.0},"capture_flags":{"save_rgb":true,"save_depth":false,"video_rgb":true,"video_depth":false}}
{"frame":3610,"timestamp":{"delta_seconds":0.05000000074505806,"elapsed_seconds":39.61194707918912},"control":{"throttle":0.0,"steer":0.0,"brake":1.0,"hand_brake":false,"reverse":false,"manual_gear_shift":false,"gear":0},"transform":{"location":{"x":-87.62246704101562,"y":12.966697692871094,"z":-0.018442992120981216},"rotation":{"pitch":0.05450490489602089,"yaw":-179.74859619140625,"roll":-0.1250305324792862}},"velocity":{"x":-0.0017559307161718607,"y":0.004012775607407093,"z":0.13007588684558868},"angular_velocity":{"x":0.8438125848770142,"y":-0.4474639296531677,"z":-0.12112925946712494},"acceleration":{"x":0.008803969249129295,"y":0.029470259323716164,"z":-0.6572666764259338},"speed_mps":0.13014961390423632,"speed_kph":0.46853861005525077,"speed_limit_kph":30.0,"collisions_this_frame":[],"waypoint":{"x":-87.62239837646484,"y":12.94051742553711,"z":0.0},"lane_deviation_m":0.03202429041266441,"lane_width":3.5,"goal":{"x":-15.407496452331543,"y":133.7284698486328,"z":0.5999999642372131},"fault":{"name":"tire_pressure_imbalance","severity":1.0},"capture_flags":{"save_rgb":true,"save_depth":false,"video_rgb":true,"video_depth":false}}
{"frame":3611,"timestamp":{"delta_seconds":0.05000000074505806,"elapsed_seconds":39.66194707993418},"control":{"throttle":0.0,"steer":0.0,"brake":1.0,"hand_brake":false,"reverse":false,"manual_gear_shift":false,"gear":0},"transform":{"location":{"x":-87.62242126464844,"y":12.967130661010742,"z":-0.012753943912684917},"rotation":{"pitch":0.037702642381191254,"yaw":-179.75390625,"roll":-0.0933532565832138}},"velocity":{"x":-0.0013581897364929318,"y":0.005151613615453243,"z":0.10014905780553818},"angular_velocity":{"x":0.5235954523086548,"y":-0.2686513066291809,"z":-0.10025640577077866},"acceleration":{"x":0.00795481912791729,"y":0.022776760160923004,"z":-0.5985366106033325},"speed_mps":0.10029066547560778,"speed_kph":0.361046395712188,"speed_limit_kph":30.0,"collisions_this_frame":[],"waypoint":{"x":-87.62235260009766,"y":12.94051742553711,"z":0.0},"lane_deviation_m":0.02951155975461006,"lane_width":3.5,"goal":{"x":-15.407496452331543,"y":133.7284698486328,"z":0.5999999642372131},"fault":{"name":"tire_pressure_imbalance","severity":1.0},"capture_flags":{"save_rgb":true,"save_depth":false,"video_rgb":true,"video_depth":false}}
{"frame":3612,"timestamp":{"delta_seconds":0.05000000074505806,"elapsed_seconds":39.71194708067924},"control":{"throttle":0.0,"steer":0.0,"brake":1.0,"hand_brake":false,"reverse":false,"manual_gear_shift":false,"gear":0},"transform":{"location":{"x":-87.62239837646484,"y":12.967520713806152,"z":-0.00845340732485056},"rotation":{"pitch":0.02850237861275673,"yaw":-179.75827026367188,"roll":-0.0751342624425888}},"velocity":{"x":-0.001031902153044939,"y":0.005937986075878143,"z":0.07542520016431808},"angular_velocity":{"x":0.28408291935920715,"y":-0.13559968769550323,"z":-0.08213251084089279},"acceleration":{"x":0.006525751668959856,"y":0.015727449208498,"z":-0.49447715282440186},"speed_mps":0.07566561517967213,"speed_kph":0.2723962146468197,"speed_limit_kph":30.0,"collisions_this_frame":[],"waypoint":{"x":-87.62232971191406,"y":12.94051742553711,"z":0.0},"lane_deviation_m":0.028295625001192093,"lane_width":3.5,"goal":{"x":-15.407496452331543,"y":133.7284698486328,"z":0.5999999642372131},"fault":{"name":"tire_pressure_imbalance","severity":1.0},"capture_flags":{"save_rgb":true,"save_depth":false,"video_rgb":true,"video_depth":false}}
{"frame":3613,"timestamp":{"delta_seconds":0.05000000074505806,"elapsed_seconds":39.761947081424296},"control":{"throttle":0.0,"steer":0.0,"brake":1.0,"hand_brake":false,"reverse":false,"manual_gear_shift":false,"gear":0},"transform":{"location":{"x":-87.62242126464844,"y":12.967873573303223,"z":-0.005260162055492401},"rotation":{"pitch":0.024663811549544334,"yaw":-179.76190185546875,"roll":-0.066497802734375}},"velocity":{"x":-0.0007770645315758884,"y":0.006389473099261522,"z":0.05600255727767944},"angular_velocity":{"x":0.1187283992767334,"y":-0.04503943771123886,"z":-0.0671682134270668},"acceleration":{"x":0.005096752196550369,"y":0.00902974046766758,"z":-0.3884528577327728},"speed_mps":0.05637123040534229,"speed_kph":0.20293642945923224,"speed_limit_kph":30.0,"collisions_this_frame":[],"waypoint":{"x":-87.62234497070312,"y":12.94051742553711,"z":0.0},"lane_deviation_m":0.027857385575771332,"lane_width":3.5,"goal":{"x":-15.407496452331543,"y":133.7284698486328,"z":0.5999999642372131},"fault":{"name":"tire_pressure_imbalance","severity":1.0},"capture_flags":{"save_rgb":true,"save_depth":false,"video_rgb":true,"video_depth":false}}
{"frame":3614,"timestamp":{"delta_seconds":0.05000000074505806,"elapsed_seconds":39.811947082169354},"control":{"throttle":0.0,"steer":0.0,"brake":1.0,"hand_brake":false,"reverse":false,"manual_gear_shift":false,"gear":0},"transform":{"location":{"x":-87.62246704101562,"y":12.968198776245117,"z":-0.0029164121951907873},"rotation":{"pitch":0.024322303012013435,"yaw":-179.76483154296875,"roll":-0.0643005296587944}},"velocity":{"x":-0.0005841834936290979,"y":0.006597381085157394,"z":0.041218351572752},"angular_velocity":{"x":0.010306565091013908,"y":0.0125717893242836,"z":-0.05523857846856117},"acceleration":{"x":0.003857620758935809,"y":0.004158159717917442,"z":-0.2956840991973877},"speed_mps":0.04174708629248284,"speed_kph":0.15028951065293822,"speed_limit_kph":30.0,"collisions_this_frame":[],"waypoint":{"x":-87.62239074707031,"y":12.94051742553711,"z":0.0},"lane_deviation_m":0.027834663167595863,"lane_width":3.5,"goal":{"x":-15.407496452331543,"y":133.7284698486328,"z":0.5999999642372131},"fault":{"name":"tire_pressure_imbalance","severity":1.0},"capture_flags":{"save_rgb":true,"save_depth":false,"video_rgb":true,"video_depth":false}}
{"frame":3615,"timestamp":{"delta_seconds":0.05000000074505806,"elapsed_seconds":39.86194708291441},"control":{"throttle":0.0,"steer":0.0,"brake":1.0,"hand_brake":false,"reverse":false,"manual_gear_shift":false,"gear":0},"transform":{"location":{"x":-87.62248992919922,"y":12.968501091003418,"z":-0.0012093352852389216},"rotation":{"pitch":0.02610498107969761,"yaw":-179.76724243164062,"roll":-0.0661010816693306}},"velocity":{"x":-0.0004407772212289274,"y":0.00662406487390399,"z":0.03016728162765503},"angular_velocity":{"x":-0.05603358894586563,"y":0.04599746689200401,"z":-0.045881178230047226},"acceleration":{"x":0.0028681254480034113,"y":0.0005336757749319077,"z":-0.2210213989019394},"speed_mps":0.030889114600692193,"speed_kph":0.1112008125624919,"speed_limit_kph":30.0,"collisions_this_frame":[],"waypoint":{"x":-87.6224136352539,"y":12.94051742553711,"z":0.0},"lane_deviation_m":0.028009887784719467,"lane_width":3.5,"goal":{"x":-15.407496452331543,"y":133.7284698486328,"z":0.5999999642372131},"fault":{"name":"tire_pressure_imbalance","severity":1.0},"capture_flags":{"save_rgb":true,"save_depth":false,"video_rgb":true,"video_depth":false}}
{"frame":3616,"timestamp":{"delta_seconds":0.05000000074505806,"elapsed_seconds":39.91194708365947},"control":{"throttle":0.0,"steer":0.0,"brake":1.0,"hand_brake":false,"reverse":false,"manual_gear_shift":false,"gear":0},"transform":{"location":{"x":-87.62250518798828,"y":12.968789100646973,"z":2.8190612283651717e-05},"rotation":{"pitch":0.029028302058577538,"yaw":-179.7693328857422,"roll":-0.0702209398150444}},"velocity":{"x":-0.00033532141242176294,"y":0.0065360525622963905,"z":0.022007256746292114},"angular_velocity":{"x":-0.09178242832422256,"y":0.06266327947378159,"z":-0.03859182074666023},"acceleration":{"x":0.0021091161761432886,"y":-0.0017602462321519852,"z":-0.1632004976272583},"speed_mps":0.022959785997346525,"speed_kph":0.0826552295904475,"speed_limit_kph":30.0,"collisions_this_frame":[],"waypoint":{"x":-87.62242889404297,"y":12.94051742553711,"z":0.0},"lane_deviation_m":0.028271792456507683,"lane_width":3.5,"goal":{"x":-15.407496452331543,"y":133.7284698486328,"z":0.5999999642372131},"fault":{"name":"tire_pressure_imbalance","severity":1.0},"capture_flags":{"save_rgb":true,"save_depth":false,"video_rgb":true,"video_depth":false}}
{"frame":3617,"timestamp":{"delta_seconds":0.05000000074505806,"elapsed_seconds":39.96194708440453},"control":{"throttle":0.0,"steer":0.0,"brake":1.0,"hand_brake":false,"reverse":false,"manual_gear_shift":false,"gear":0},"transform":{"location":{"x":-87.6225357055664,"y":12.969063758850098,"z":0.0009226989350281656},"rotation":{"pitch":0.032416075468063354,"yaw":-179.77102661132812,"roll":-0.07543942332267761}},"velocity":{"x":-0.00025840013404376805,"y":0.006380850449204445,"z":0.01602376624941826},"angular_velocity":{"x":-0.10743287950754166,"y":0.06828252226114273,"z":-0.032939426600933075},"acceleration":{"x":0.001538425567559898,"y":-0.003104042261838913,"z":-0.11966980993747711},"speed_mps":0.01724943790099788,"speed_kph":0.06209797644359237,"speed_limit_kph":30.0,"collisions_this_frame":[],"waypoint":{"x":-87.6224594116211,"y":12.94051742553711,"z":0.0},"lane_deviation_m":0.028561342507600784,"lane_width":3.5,"goal":{"x":-15.407496452331543,"y":133.7284698486328,"z":0.5999999642372131},"fault":{"name":"tire_pressure_imbalance","severity":1.0},"capture_flags":{"save_rgb":true,"save_depth":false,"video_rgb":true,"video_depth":false}}
{"frame":3618,"timestamp":{"delta_seconds":0.05000000074505806,"elapsed_seconds":40.011947085149586},"control":{"throttle":0.0,"steer":0.0,"brake":1.0,"hand_brake":false,"reverse":false,"manual_gear_shift":false,"gear":0},"transform":{"location":{"x":-87.62255859375,"y":12.969327926635742,"z":0.0015680694486945868},"rotation":{"pitch":0.0358789823949337,"yaw":-179.7725372314453,"roll":-0.0810241550207138}},"velocity":{"x":-0.0002024856221396476,"y":0.00618786970153451,"z":0.011660680174827576},"angular_velocity":{"x":-0.1098676323890686,"y":0.0671532154083252,"z":-0.028565116226673126},"acceleration":{"x":0.001118290238082409,"y":-0.0038596149533987045,"z":-0.08726172149181366},"speed_mps":0.013202355623522604,"speed_kph":0.04752848024468138,"speed_limit_kph":30.0,"collisions_this_frame":[],"waypoint":{"x":-87.62248229980469,"y":12.94051742553711,"z":0.0},"lane_deviation_m":0.028853243216872215,"lane_width":3.5,"goal":{"x":-15.407496452331543,"y":133.7284698486328,"z":0.5999999642372131},"fault":{"name":"tire_pressure_imbalance","severity":1.0},"capture_flags":{"save_rgb":true,"save_depth":false,"video_rgb":true,"video_depth":false}}
{"frame":3619,"timestamp":{"delta_seconds":0.05000000074505806,"elapsed_seconds":40.061947085894644},"control":{"throttle":0.0,"steer":0.0,"brake":1.0,"hand_brake":false,"reverse":false,"manual_gear_shift":false,"gear":0},"transform":{"location":{"x":-87.62258911132812,"y":12.969583511352539,"z":0.0020333861466497183},"rotation":{"pitch":0.03914381191134453,"yaw":-179.7738800048828,"roll":-0.08645627647638321}},"velocity":{"x":-0.00016189961752388626,"y":0.00598595617339015,"z":0.008481387048959732},"angular_velocity":{"x":-0.10424886643886566,"y":0.062047503888607025,"z":-0.02516731061041355},"acceleration":{"x":0.0008117200923152268,"y":-0.004038270562887192,"z":-0.06358586251735687},"speed_mps":0.01038228342274299,"speed_kph":0.037376220321874765,"speed_limit_kph":30.0,"collisions_this_frame":[],"waypoint":{"x":-87.62251281738281,"y":12.94051742553711,"z":0.0},"lane_deviation_m":0.029137223958969116,"lane_width":3.5,"goal":{"x":-15.407496452331543,"y":133.7284698486328,"z":0.5999999642372131},"fault":{"name":"tire_pressure_imbalance","severity":1.0},"capture_flags":{"save_rgb":true,"save_depth":false,"video_rgb":true,"video_depth":false}}
{"frame":3620,"timestamp":{"delta_seconds":0.05000000074505806,"elapsed_seconds":40.1119470866397},"control":{"throttle":0.0,"steer":0.0,"brake":1.0,"hand_brake":false,"reverse":false,"manual_gear_shift":false,"gear":0},"transform":{"location":{"x":-87.62260437011719,"y":12.969833374023438,"z":0.0023685453925281763},"rotation":{"pitch":0.042094454169273376,"yaw":-179.77505493164062,"roll":-0.09149166941642761}},"velocity":{"x":-0.0001325835328316316,"y":0.005787453148514032,"z":0.006173986010253429},"angular_velocity":{"x":-0.09532569348812103,"y":0.05534748733043671,"z":-0.022561820223927498},"acceleration":{"x":0.0005863216938450933,"y":-0.003970060497522354,"z":-0.04614802077412605},"speed_mps":0.008463468295812784,"speed_kph":0.030468485864926023,"speed_limit_kph":30.0,"collisions_this_frame":[],"waypoint":{"x":-87.62252807617188,"y":12.94051742553711,"z":0.0},"lane_deviation_m":0.029411572962999344,"lane_width":3.5,"goal":{"x":-15.407496452331543,"y":133.7284698486328,"z":0.5999999642372131},"fault":{"name":"tire_pressure_imbalance","severity":1.0},"capture_flags":{"save_rgb":true,"save_depth":false,"video_rgb":true,"video_depth":false}}
{"frame":3621,"timestamp":{"delta_seconds":0.05000000074505806,"elapsed_seconds":40.16194708738476},"control":{"throttle":0.0,"steer":0.0,"brake":1.0,"hand_brake":false,"reverse":false,"manual_gear_shift":false,"gear":0},"transform":{"location":{"x":-87.62262725830078,"y":12.970077514648438,"z":0.0026098249945789576},"rotation":{"pitch":0.044676266610622406,"yaw":-179.77610778808594,"roll":-0.0959777683019638}},"velocity":{"x":-0.00011117473331978545,"y":0.005598902702331543,"z":0.004487170372158289},"angular_velocity":{"x":-0.08338543027639389,"y":0.04760745167732239,"z":-0.02050781436264515},"acceleration":{"x":0.0004281759902369231,"y":-0.003771008923649788,"z":-0.03373631089925766},"speed_mps":0.0071759855936504875,"speed_kph":0.025833548137141754,"speed_limit_kph":30.0,"collisions_this_frame":[],"waypoint":{"x":-87.62255096435547,"y":12.94051742553711,"z":0.0},"lane_deviation_m":0.02967517264187336,"lane_width":3.5,"goal":{"x":-15.407496452331543,"y":133.7284698486328,"z":0.5999999642372131},"fault":{"name":"tire_pressure_imbalance","severity":1.0},"capture_flags":{"save_rgb":true,"save_depth":false,"video_rgb":true,"video_depth":false}}
{"frame":3622,"timestamp":{"delta_seconds":0.05000000074505806,"elapsed_seconds":40.21194708812982},"control":{"throttle":0.0,"steer":0.0,"brake":1.0,"hand_brake":false,"reverse":false,"manual_gear_shift":false,"gear":0},"transform":{"location":{"x":-87.62263488769531,"y":12.970319747924805,"z":0.0027835846412926912},"rotation":{"pitch":0.04686875641345978,"yaw":-179.7770538330078,"roll":-0.0998535081744194}},"velocity":{"x":-9.558320016367361e-05,"y":0.005425881128758192,"z":0.0032597507815808058},"angular_velocity":{"x":-0.07120345532894135,"y":0.040047790855169296,"z":-0.01891588792204857},"acceleration":{"x":0.00031183066312223673,"y":-0.003460431471467018,"z":-0.024548392742872238},"speed_mps":0.006330505298124667,"speed_kph":0.0227898190732488,"speed_limit_kph":30.0,"collisions_this_frame":[],"waypoint":{"x":-87.62255859375,"y":12.94051742553711,"z":0.0},"lane_deviation_m":0.029932133853435516,"lane_width":3.5,"goal":{"x":-15.407496452331543,"y":133.7284698486328,"z":0.5999999642372131},"fault":{"name":"tire_pressure_imbalance","severity":1.0},"capture_flags":{"save_rgb":true,"save_depth":false,"video_rgb":true,"video_depth":false}}
{"frame":3623,"timestamp":{"delta_seconds":0.05000000074505806,"elapsed_seconds":40.26194708887488},"control":{"throttle":0.0,"steer":0.0,"brake":1.0,"hand_brake":false,"reverse":false,"manual_gear_shift":false,"gear":0},"transform":{"location":{"x":-87.6226577758789,"y":12.97048282623291,"z":0.0029108428861945868},"rotation":{"pitch":0.04884267970919609,"yaw":-179.7778778076172,"roll":-0.10403440147638321}},"velocity":{"x":-9.244009561371058e-05,"y":0.0005553114460781217,"z":0.0024763282854110003},"angular_velocity":{"x":-0.09664435684680939,"y":0.03749341145157814,"z":-0.009472058154642582},"acceleration":{"x":6.286209099926054e-05,"y":-0.0974113941192627,"z":-0.01566844992339611},"speed_mps":0.002539511321209069,"speed_kph":0.009142240756352648,"speed_limit_kph":30.0,"collisions_this_frame":[],"waypoint":{"x":-87.6225814819336,"y":12.94051742553711,"z":0.0},"lane_deviation_m":0.030106544494628906,"lane_width":3.5,"goal":{"x":-15.407496452331543,"y":133.7284698486328,"z":0.5999999642372131},"fault":{"name":"tire_pressure_imbalance","severity":1.0},"capture_flags":{"save_rgb":true,"save_depth":false,"video_rgb":true,"video_depth":false}}
{"frame":3624,"timestamp":{"delta_seconds":0.05000000074505806,"elapsed_seconds":40.311947089619935},"control":{"throttle":0.0,"steer":0.0,"brake":1.0,"hand_brake":false,"reverse":false,"manual_gear_shift":false,"gear":0},"transform":{"location":{"x":-87.62266540527344,"y":12.970476150512695,"z":0.0030029297340661287},"rotation":{"pitch":0.050434112548828125,"yaw":-179.77825927734375,"roll":-0.107330322265625}},"velocity":{"x":-7.928997365524992e-05,"y":0.0003507065703161061,"z":0.0017756391316652298},"angular_velocity":{"x":-0.05442652851343155,"y":0.028775081038475037,"z":-0.007145017851144075},"acceleration":{"x":0.0002630024391692132,"y":-0.004092097282409668,"z":-0.014013783074915409},"speed_mps":0.0018116777650250024,"speed_kph":0.006522039954090009,"speed_limit_kph":30.0,"collisions_this_frame":[],"waypoint":{"x":-87.6225814819336,"y":12.94051742553711,"z":0.0},"lane_deviation_m":0.030108965933322906,"lane_width":3.5,"goal":{"x":-15.407496452331543,"y":133.7284698486328,"z":0.5999999642372131},"fault":{"name":"tire_pressure_imbalance","severity":1.0},"capture_flags":{"save_rgb":true,"save_depth":false,"video_rgb":true,"video_depth":false}}
{"frame":3625,"timestamp":{"delta_seconds":0.05000000074505806,"elapsed_seconds":40.36194709036499},"control":{"throttle":0.0,"steer":0.0,"brake":1.0,"hand_brake":false,"reverse":false,"manual_gear_shift":false,"gear":0},"transform":{"location":{"x":-87.62267303466797,"y":12.970473289489746,"z":0.0030709074344486},"rotation":{"pitch":0.05180015042424202,"yaw":-179.77859497070312,"roll":-0.1098327562212944}},"velocity":{"x":-7.359578739851713e-05,"y":0.00032484738039784133,"z":0.0013586007989943027},"angular_velocity":{"x":-0.04713417962193489,"y":0.02593584731221199,"z":-0.006357037927955389},"acceleration":{"x":0.00011388372513465583,"y":-0.0005171837983652949,"z":-0.008340766653418541},"speed_mps":0.0013988346190676386,"speed_kph":0.005035804628643499,"speed_limit_kph":30.0,"collisions_this_frame":[],"waypoint":{"x":-87.62259674072266,"y":12.94051742553711,"z":0.0},"lane_deviation_m":0.03011295571923256,"lane_width":3.5,"goal":{"x":-15.407496452331543,"y":133.7284698486328,"z":0.5999999642372131},"fault":{"name":"tire_pressure_imbalance","severity":1.0},"capture_flags":{"save_rgb":true,"save_depth":false,"video_rgb":true,"video_depth":false}}
{"frame":3626,"timestamp":{"delta_seconds":0.05000000074505806,"elapsed_seconds":40.41194709111005},"control":{"throttle":0.0,"steer":0.0,"brake":1.0,"hand_brake":false,"reverse":false,"manual_gear_shift":false,"gear":0},"transform":{"location":{"x":-87.62267303466797,"y":12.970473289489746,"z":0.0030709074344486},"rotation":{"pitch":0.05180015042424202,"yaw":-179.77859497070312,"roll":-0.1098327562212944}},"velocity":{"x":0.0,"y":0.0,"z":0.0},"angular_velocity":{"x":0.0,"y":0.0,"z":0.0},"acceleration":{"x":0.0014719157479703426,"y":-0.0064969477243721485,"z":-0.027172015979886055},"speed_mps":0.0,"speed_kph":0.0,"speed_limit_kph":30.0,"collisions_this_frame":[],"waypoint":{"x":-87.62259674072266,"y":12.94051742553711,"z":0.0},"lane_deviation_m":0.03011295571923256,"lane_width":3.5,"goal":{"x":-15.407496452331543,"y":133.7284698486328,"z":0.5999999642372131},"fault":{"name":"tire_pressure_imbalance","severity":1.0},"capture_flags":{"save_rgb":true,"save_depth":false,"video_rgb":true,"video_depth":false}}
{"frame":3627,"timestamp":{"delta_seconds":0.05000000074505806,"elapsed_seconds":40.46194709185511},"control":{"throttle":0.0,"steer":0.0,"brake":1.0,"hand_brake":false,"reverse":false,"manual_gear_shift":false,"gear":0},"transform":{"location":{"x":-87.62267303466797,"y":12.970473289489746,"z":0.0030709074344486},"rotation":{"pitch":0.05180015042424202,"yaw":-179.77859497070312,"roll":-0.1098327562212944}},"velocity":{"x":0.0,"y":0.0,"z":0.0},"angular_velocity":{"x":0.0,"y":0.0,"z":0.0},"acceleration":{"x":0.0,"y":0.0,"z":0.0},"speed_mps":0.0,"speed_kph":0.0,"speed_limit_kph":30.0,"collisions_this_frame":[],"waypoint":{"x":-87.62259674072266,"y":12.94051742553711,"z":0.0},"lane_deviation_m":0.03011295571923256,"lane_width":3.5,"goal":{"x":-15.407496452331543,"y":133.7284698486328,"z":0.5999999642372131},"fault":{"name":"tire_pressure_imbalance","severity":1.0},"capture_flags":{"save_rgb":true,"save_depth":false,"video_rgb":true,"video_depth":false}}
{"frame":3628,"timestamp":{"delta_seconds":0.05000000074505806,"elapsed_seconds":40.51194709260017},"control":{"throttle":0.0,"steer":0.0,"brake":1.0,"hand_brake":false,"reverse":false,"manual_gear_shift":false,"gear":0},"transform":{"location":{"x":-87.62267303466797,"y":12.970473289489746,"z":0.0030709074344486},"rotation":{"pitch":0.05180015042424202,"yaw":-179.77859497070312,"roll":-0.1098327562212944}},"velocity":{"x":0.0,"y":0.0,"z":0.0},"angular_velocity":{"x":0.0,"y":0.0,"z":0.0},"acceleration":{"x":0.0,"y":0.0,"z":0.0},"speed_mps":0.0,"speed_kph":0.0,"speed_limit_kph":30.0,"collisions_this_frame":[],"waypoint":{"x":-87.62259674072266,"y":12.94051742553711,"z":0.0},"lane_deviation_m":0.03011295571923256,"lane_width":3.5,"goal":{"x":-15.407496452331543,"y":133.7284698486328,"z":0.5999999642372131},"fault":{"name":"tire_pressure_imbalance","severity":1.0},"capture_flags":{"save_rgb":true,"save_depth":false,"video_rgb":true,"video_depth":false}}
{"frame":3629,"timestamp":{"delta_seconds":0.05000000074505806,"elapsed_seconds":40.561947093345225},"control":{"throttle":0.0,"steer":0.0,"brake":1.0,"hand_brake":false,"reverse":false,"manual_gear_shift":false,"gear":0},"transform":{"location":{"x":-87.62267303466797,"y":12.970473289489746,"z":0.0030709074344486},"rotation":{"pitch":0.05180015042424202,"yaw":-179.77859497070312,"roll":-0.1098327562212944}},"velocity":{"x":0.0,"y":0.0,"z":0.0},"angular_velocity":{"x":0.0,"y":0.0,"z":0.0},"acceleration":{"x":0.0,"y":0.0,"z":0.0},"speed_mps":0.0,"speed_kph":0.0,"speed_limit_kph":30.0,"collisions_this_frame":[],"waypoint":{"x":-87.62259674072266,"y":12.94051742553711,"z":0.0},"lane_deviation_m":0.03011295571923256,"lane_width":3.5,"goal":{"x":-15.407496452331543,"y":133.7284698486328,"z":0.5999999642372131},"fault":{"name":"tire_pressure_imbalance","severity":1.0},"capture_flags":{"save_rgb":true,"save_depth":false,"video_rgb":true,"video_depth":false}}
{"frame":3630,"timestamp":{"delta_seconds":0.05000000074505806,"elapsed_seconds":40.61194709409028},"control":{"throttle":0.0,"steer":0.0,"brake":1.0,"hand_brake":false,"reverse":false,"manual_gear_shift":false,"gear":0},"transform":{"location":{"x":-87.62267303466797,"y":12.970473289489746,"z":0.0030709074344486},"rotation":{"pitch":0.05180015042424202,"yaw":-179.77859497070312,"roll":-0.1098327562212944}},"velocity":{"x":0.0,"y":0.0,"z":0.0},"angular_velocity":{"x":0.0,"y":0.0,"z":0.0},"acceleration":{"x":0.0,"y":0.0,"z":0.0},"speed_mps":0.0,"speed_kph":0.0,"speed_limit_kph":30.0,"collisions_this_frame":[],"waypoint":{"x":-87.62259674072266,"y":12.94051742553711,"z":0.0},"lane_deviation_m":0.03011295571923256,"lane_width":3.5,"goal":{"x":-15.407496452331543,"y":133.7284698486328,"z":0.5999999642372131},"fault":{"name":"tire_pressure_imbalance","severity":1.0},"capture_flags":{"save_rgb":true,"save_depth":false,"video_rgb":true,"video_depth":false}}
{"frame":3631,"timestamp":{"delta_seconds":0.05000000074505806,"elapsed_seconds":40.66194709483534},"control":{"throttle":0.0,"steer":0.0,"brake":1.0,"hand_brake":false,"reverse":false,"manual_gear_shift":false,"gear":0},"transform":{"location":{"x":-87.62267303466797,"y":12.970473289489746,"z":0.0030709074344486},"rotation":{"pitch":0.05180015042424202,"yaw":-179.77859497070312,"roll":-0.1098327562212944}},"velocity":{"x":0.0,"y":0.0,"z":0.0},"angular_velocity":{"x":0.0,"y":0.0,"z":0.0},"acceleration":{"x":0.0,"y":0.0,"z":0.0},"speed_mps":0.0,"speed_kph":0.0,"speed_limit_kph":30.0,"collisions_this_frame":[],"waypoint":{"x":-87.62259674072266,"y":12.94051742553711,"z":0.0},"lane_deviation_m":0.03011295571923256,"lane_width":3.5,"goal":{"x":-15.407496452331543,"y":133.7284698486328,"z":0.5999999642372131},"fault":{"name":"tire_pressure_imbalance","severity":1.0},"capture_flags":{"save_rgb":true,"save_depth":false,"video_rgb":true,"video_depth":false}}
{"frame":3632,"timestamp":{"delta_seconds":0.05000000074505806,"elapsed_seconds":40.7119470955804},"control":{"throttle":0.0,"steer":0.0,"brake":1.0,"hand_brake":false,"reverse":false,"manual_gear_shift":false,"gear":0},"transform":{"location":{"x":-87.62267303466797,"y":12.970473289489746,"z":0.0030709074344486},"rotation":{"pitch":0.05180015042424202,"yaw":-179.77859497070312,"roll":-0.1098327562212944}},"velocity":{"x":0.0,"y":0.0,"z":0.0},"angular_velocity":{"x":0.0,"y":0.0,"z":0.0},"acceleration":{"x":0.0,"y":0.0,"z":0.0},"speed_mps":0.0,"speed_kph":0.0,"speed_limit_kph":30.0,"collisions_this_frame":[],"waypoint":{"x":-87.62259674072266,"y":12.94051742553711,"z":0.0},"lane_deviation_m":0.03011295571923256,"lane_width":3.5,"goal":{"x":-15.407496452331543,"y":133.7284698486328,"z":0.5999999642372131},"fault":{"name":"tire_pressure_imbalance","severity":1.0},"capture_flags":{"save_rgb":true,"save_depth":false,"video_rgb":true,"video_depth":false}}
{"frame":3633,"timestamp":{"delta_seconds":0.05000000074505806,"elapsed_seconds":40.76194709632546},"control":{"throttle":0.0,"steer":0.0,"brake":1.0,"hand_brake":false,"reverse":false,"manual_gear_shift":false,"gear":0},"transform":{"location":{"x":-87.62267303466797,"y":12.970473289489746,"z":0.0030709074344486},"rotation":{"pitch":0.05180015042424202,"yaw":-179.77859497070312,"roll":-0.1098327562212944}},"velocity":{"x":0.0,"y":0.0,"z":0.0},"angular_velocity":{"x":0.0,"y":0.0,"z":0.0},"acceleration":{"x":0.0,"y":0.0,"z":0.0},"speed_mps":0.0,"speed_kph":0.0,"speed_limit_kph":30.0,"collisions_this_frame":[],"waypoint":{"x":-87.62259674072266,"y":12.94051742553711,"z":0.0},"lane_deviation_m":0.03011295571923256,"lane_width":3.5,"goal":{"x":-15.407496452331543,"y":133.7284698486328,"z":0.5999999642372131},"fault":{"name":"tire_pressure_imbalance","severity":1.0},"capture_flags":{"save_rgb":true,"save_depth":false,"video_rgb":true,"video_depth":false}}
{"frame":3634,"timestamp":{"delta_seconds":0.05000000074505806,"elapsed_seconds":40.811947097070515},"control":{"throttle":0.0,"steer":0.0,"brake":1.0,"hand_brake":false,"reverse":false,"manual_gear_shift":false,"gear":0},"transform":{"location":{"x":-87.62267303466797,"y":12.970473289489746,"z":0.0030709074344486},"rotation":{"pitch":0.05180015042424202,"yaw":-179.77859497070312,"roll":-0.1098327562212944}},"velocity":{"x":0.0,"y":0.0,"z":0.0},"angular_velocity":{"x":0.0,"y":0.0,"z":0.0},"acceleration":{"x":0.0,"y":0.0,"z":0.0},"speed_mps":0.0,"speed_kph":0.0,"speed_limit_kph":30.0,"collisions_this_frame":[],"waypoint":{"x":-87.62259674072266,"y":12.94051742553711,"z":0.0},"lane_deviation_m":0.03011295571923256,"lane_width":3.5,"goal":{"x":-15.407496452331543,"y":133.7284698486328,"z":0.5999999642372131},"fault":{"name":"tire_pressure_imbalance","severity":1.0},"capture_flags":{"save_rgb":true,"save_depth":false,"video_rgb":true,"video_depth":false}}
{"frame":3635,"timestamp":{"delta_seconds":0.05000000074505806,"elapsed_seconds":40.86194709781557},"control":{"throttle":0.0,"steer":0.0,"brake":1.0,"hand_brake":false,"reverse":false,"manual_gear_shift":false,"gear":0},"transform":{"location":{"x":-87.62267303466797,"y":12.970473289489746,"z":0.0030709074344486},"rotation":{"pitch":0.05180015042424202,"yaw":-179.77859497070312,"roll":-0.1098327562212944}},"velocity":{"x":0.0,"y":0.0,"z":0.0},"angular_velocity":{"x":0.0,"y":0.0,"z":0.0},"acceleration":{"x":0.0,"y":0.0,"z":0.0},"speed_mps":0.0,"speed_kph":0.0,"speed_limit_kph":30.0,"collisions_this_frame":[],"waypoint":{"x":-87.62259674072266,"y":12.94051742553711,"z":0.0},"lane_deviation_m":0.03011295571923256,"lane_width":3.5,"goal":{"x":-15.407496452331543,"y":133.7284698486328,"z":0.5999999642372131},"fault":{"name":"tire_pressure_imbalance","severity":1.0},"capture_flags":{"save_rgb":true,"save_depth":false,"video_rgb":true,"video_depth":false}}
{"frame":3636,"timestamp":{"delta_seconds":0.05000000074505806,"elapsed_seconds":40.91194709856063},"control":{"throttle":0.0,"steer":0.0,"brake":1.0,"hand_brake":false,"reverse":false,"manual_gear_shift":false,"gear":0},"transform":{"location":{"x":-87.62267303466797,"y":12.970473289489746,"z":0.0030709074344486},"rotation":{"pitch":0.05180015042424202,"yaw":-179.77859497070312,"roll":-0.1098327562212944}},"velocity":{"x":0.0,"y":0.0,"z":0.0},"angular_velocity":{"x":0.0,"y":0.0,"z":0.0},"acceleration":{"x":0.0,"y":0.0,"z":0.0},"speed_mps":0.0,"speed_kph":0.0,"speed_limit_kph":30.0,"collisions_this_frame":[],"waypoint":{"x":-87.62259674072266,"y":12.94051742553711,"z":0.0},"lane_deviation_m":0.03011295571923256,"lane_width":3.5,"goal":{"x":-15.407496452331543,"y":133.7284698486328,"z":0.5999999642372131},"fault":{"name":"tire_pressure_imbalance","severity":1.0},"capture_flags":{"save_rgb":true,"save_depth":false,"video_rgb":true,"video_depth":false}}
{"frame":3637,"timestamp":{"delta_seconds":0.05000000074505806,"elapsed_seconds":40.96194709930569},"control":{"throttle":0.0,"steer":0.0,"brake":1.0,"hand_brake":false,"reverse":false,"manual_gear_shift":false,"gear":0},"transform":{"location":{"x":-87.62267303466797,"y":12.970473289489746,"z":0.0030709074344486},"rotation":{"pitch":0.05180015042424202,"yaw":-179.77859497070312,"roll":-0.1098327562212944}},"velocity":{"x":0.0,"y":0.0,"z":0.0},"angular_velocity":{"x":0.0,"y":0.0,"z":0.0},"acceleration":{"x":0.0,"y":0.0,"z":0.0},"speed_mps":0.0,"speed_kph":0.0,"speed_limit_kph":30.0,"collisions_this_frame":[],"waypoint":{"x":-87.62259674072266,"y":12.94051742553711,"z":0.0},"lane_deviation_m":0.03011295571923256,"lane_width":3.5,"goal":{"x":-15.407496452331543,"y":133.7284698486328,"z":0.5999999642372131},"fault":{"name":"tire_pressure_imbalance","severity":1.0},"capture_flags":{"save_rgb":true,"save_depth":false,"video_rgb":true,"video_depth":false}}
{"frame":3638,"timestamp":{"delta_seconds":0.05000000074505806,"elapsed_seconds":41.01194710005075},"control":{"throttle":0.0,"steer":0.0,"brake":1.0,"hand_brake":false,"reverse":false,"manual_gear_shift":false,"gear":0},"transform":{"location":{"x":-87.62267303466797,"y":12.970473289489746,"z":0.0030709074344486},"rotation":{"pitch":0.05180015042424202,"yaw":-179.77859497070312,"roll":-0.1098327562212944}},"velocity":{"x":0.0,"y":0.0,"z":0.0},"angular_velocity":{"x":0.0,"y":0.0,"z":0.0},"acceleration":{"x":0.0,"y":0.0,"z":0.0},"speed_mps":0.0,"speed_kph":0.0,"speed_limit_kph":30.0,"collisions_this_frame":[],"waypoint":{"x":-87.62259674072266,"y":12.94051742553711,"z":0.0},"lane_deviation_m":0.03011295571923256,"lane_width":3.5,"goal":{"x":-15.407496452331543,"y":133.7284698486328,"z":0.5999999642372131},"fault":{"name":"tire_pressure_imbalance","severity":1.0},"capture_flags":{"save_rgb":true,"save_depth":false,"video_rgb":true,"video_depth":false}}
{"frame":3639,"timestamp":{"delta_seconds":0.05000000074505806,"elapsed_seconds":41.061947100795805},"control":{"throttle":0.0,"steer":0.0,"brake":1.0,"hand_brake":false,"reverse":false,"manual_gear_shift":false,"gear":0},"transform":{"location":{"x":-87.62267303466797,"y":12.970473289489746,"z":0.0030709074344486},"rotation":{"pitch":0.05180015042424202,"yaw":-179.77859497070312,"roll":-0.1098327562212944}},"velocity":{"x":0.0,"y":0.0,"z":0.0},"angular_velocity":{"x":0.0,"y":0.0,"z":0.0},"acceleration":{"x":0.0,"y":0.0,"z":0.0},"speed_mps":0.0,"speed_kph":0.0,"speed_limit_kph":30.0,"collisions_this_frame":[],"waypoint":{"x":-87.62259674072266,"y":12.94051742553711,"z":0.0},"lane_deviation_m":0.03011295571923256,"lane_width":3.5,"goal":{"x":-15.407496452331543,"y":133.7284698486328,"z":0.5999999642372131},"fault":{"name":"tire_pressure_imbalance","severity":1.0},"capture_flags":{"save_rgb":true,"save_depth":false,"video_rgb":true,"video_depth":false}}
{"frame":3640,"timestamp":{"delta_seconds":0.05000000074505806,"elapsed_seconds":41.11194710154086},"control":{"throttle":0.0,"steer":0.0,"brake":1.0,"hand_brake":false,"reverse":false,"manual_gear_shift":false,"gear":0},"transform":{"location":{"x":-87.62267303466797,"y":12.970473289489746,"z":0.0030709074344486},"rotation":{"pitch":0.05180015042424202,"yaw":-179.77859497070312,"roll":-0.1098327562212944}},"velocity":{"x":0.0,"y":0.0,"z":0.0},"angular_velocity":{"x":0.0,"y":0.0,"z":0.0},"acceleration":{"x":0.0,"y":0.0,"z":0.0},"speed_mps":0.0,"speed_kph":0.0,"speed_limit_kph":30.0,"collisions_this_frame":[],"waypoint":{"x":-87.62259674072266,"y":12.94051742553711,"z":0.0},"lane_deviation_m":0.03011295571923256,"lane_width":3.5,"goal":{"x":-15.407496452331543,"y":133.7284698486328,"z":0.5999999642372131},"fault":{"name":"tire_pressure_imbalance","severity":1.0},"capture_flags":{"save_rgb":true,"save_depth":false,"video_rgb":true,"video_depth":false}}
{"frame":3641,"timestamp":{"delta_seconds":0.05000000074505806,"elapsed_seconds":41.16194710228592},"control":{"throttle":0.0,"steer":0.0,"brake":1.0,"hand_brake":false,"reverse":false,"manual_gear_shift":false,"gear":0},"transform":{"location":{"x":-87.62267303466797,"y":12.970473289489746,"z":0.0030709074344486},"rotation":{"pitch":0.05180015042424202,"yaw":-179.77859497070312,"roll":-0.1098327562212944}},"velocity":{"x":0.0,"y":0.0,"z":0.0},"angular_velocity":{"x":0.0,"y":0.0,"z":0.0},"acceleration":{"x":0.0,"y":0.0,"z":0.0},"speed_mps":0.0,"speed_kph":0.0,"speed_limit_kph":30.0,"collisions_this_frame":[],"waypoint":{"x":-87.62259674072266,"y":12.94051742553711,"z":0.0},"lane_deviation_m":0.03011295571923256,"lane_width":3.5,"goal":{"x":-15.407496452331543,"y":133.7284698486328,"z":0.5999999642372131},"fault":{"name":"tire_pressure_imbalance","severity":1.0},"capture_flags":{"save_rgb":true,"save_depth":false,"video_rgb":true,"video_depth":false}}
{"frame":3642,"timestamp":{"delta_seconds":0.05000000074505806,"elapsed_seconds":41.21194710303098},"control":{"throttle":0.0,"steer":0.0,"brake":1.0,"hand_brake":false,"reverse":false,"manual_gear_shift":false,"gear":0},"transform":{"location":{"x":-87.62267303466797,"y":12.970473289489746,"z":0.0030709074344486},"rotation":{"pitch":0.05180015042424202,"yaw":-179.77859497070312,"roll":-0.1098327562212944}},"velocity":{"x":0.0,"y":0.0,"z":0.0},"angular_velocity":{"x":0.0,"y":0.0,"z":0.0},"acceleration":{"x":0.0,"y":0.0,"z":0.0},"speed_mps":0.0,"speed_kph":0.0,"speed_limit_kph":30.0,"collisions_this_frame":[],"waypoint":{"x":-87.62259674072266,"y":12.94051742553711,"z":0.0},"lane_deviation_m":0.03011295571923256,"lane_width":3.5,"goal":{"x":-15.407496452331543,"y":133.7284698486328,"z":0.5999999642372131},"fault":{"name":"tire_pressure_imbalance","severity":1.0},"capture_flags":{"save_rgb":true,"save_depth":false,"video_rgb":true,"video_depth":false}}
{"frame":3643,"timestamp":{"delta_seconds":0.05000000074505806,"elapsed_seconds":41.26194710377604},"control":{"throttle":0.0,"steer":0.0,"brake":1.0,"hand_brake":false,"reverse":false,"manual_gear_shift":false,"gear":0},"transform":{"location":{"x":-87.62267303466797,"y":12.970473289489746,"z":0.0030709074344486},"rotation":{"pitch":0.05180015042424202,"yaw":-179.77859497070312,"roll":-0.1098327562212944}},"velocity":{"x":0.0,"y":0.0,"z":0.0},"angular_velocity":{"x":0.0,"y":0.0,"z":0.0},"acceleration":{"x":0.0,"y":0.0,"z":0.0},"speed_mps":0.0,"speed_kph":0.0,"speed_limit_kph":30.0,"collisions_this_frame":[],"waypoint":{"x":-87.62259674072266,"y":12.94051742553711,"z":0.0},"lane_deviation_m":0.03011295571923256,"lane_width":3.5,"goal":{"x":-15.407496452331543,"y":133.7284698486328,"z":0.5999999642372131},"fault":{"name":"tire_pressure_imbalance","severity":1.0},"capture_flags":{"save_rgb":true,"save_depth":false,"video_rgb":true,"video_depth":false}}
{"frame":3644,"timestamp":{"delta_seconds":0.05000000074505806,"elapsed_seconds":41.311947104521096},"control":{"throttle":0.0,"steer":0.0,"brake":1.0,"hand_brake":false,"reverse":false,"manual_gear_shift":false,"gear":0},"transform":{"location":{"x":-87.62267303466797,"y":12.970473289489746,"z":0.0030709074344486},"rotation":{"pitch":0.05180015042424202,"yaw":-179.77859497070312,"roll":-0.1098327562212944}},"velocity":{"x":0.0,"y":0.0,"z":0.0},"angular_velocity":{"x":0.0,"y":0.0,"z":0.0},"acceleration":{"x":0.0,"y":0.0,"z":0.0},"speed_mps":0.0,"speed_kph":0.0,"speed_limit_kph":30.0,"collisions_this_frame":[],"waypoint":{"x":-87.62259674072266,"y":12.94051742553711,"z":0.0},"lane_deviation_m":0.03011295571923256,"lane_width":3.5,"goal":{"x":-15.407496452331543,"y":133.7284698486328,"z":0.5999999642372131},"fault":{"name":"tire_pressure_imbalance","severity":1.0},"capture_flags":{"save_rgb":true,"save_depth":false,"video_rgb":true,"video_depth":false}}
{"frame":3645,"timestamp":{"delta_seconds":0.05000000074505806,"elapsed_seconds":41.361947105266154},"control":{"throttle":0.0,"steer":0.0,"brake":1.0,"hand_brake":false,"reverse":false,"manual_gear_shift":false,"gear":0},"transform":{"location":{"x":-87.62267303466797,"y":12.970473289489746,"z":0.0030709074344486},"rotation":{"pitch":0.05180015042424202,"yaw":-179.77859497070312,"roll":-0.1098327562212944}},"velocity":{"x":0.0,"y":0.0,"z":0.0},"angular_velocity":{"x":0.0,"y":0.0,"z":0.0},"acceleration":{"x":0.0,"y":0.0,"z":0.0},"speed_mps":0.0,"speed_kph":0.0,"speed_limit_kph":30.0,"collisions_this_frame":[],"waypoint":{"x":-87.62259674072266,"y":12.94051742553711,"z":0.0},"lane_deviation_m":0.03011295571923256,"lane_width":3.5,"goal":{"x":-15.407496452331543,"y":133.7284698486328,"z":0.5999999642372131},"fault":{"name":"tire_pressure_imbalance","severity":1.0},"capture_flags":{"save_rgb":true,"save_depth":false,"video_rgb":true,"video_depth":false}}
{"frame":3646,"timestamp":{"delta_seconds":0.05000000074505806,"elapsed_seconds":41.41194710601121},"control":{"throttle":0.0,"steer":0.0,"brake":1.0,"hand_brake":false,"reverse":false,"manual_gear_shift":false,"gear":0},"transform":{"location":{"x":-87.62267303466797,"y":12.970473289489746,"z":0.0030709074344486},"rotation":{"pitch":0.05180015042424202,"yaw":-179.77859497070312,"roll":-0.1098327562212944}},"velocity":{"x":0.0,"y":0.0,"z":0.0},"angular_velocity":{"x":0.0,"y":0.0,"z":0.0},"acceleration":{"x":0.0,"y":0.0,"z":0.0},"speed_mps":0.0,"speed_kph":0.0,"speed_limit_kph":30.0,"collisions_this_frame":[],"waypoint":{"x":-87.62259674072266,"y":12.94051742553711,"z":0.0},"lane_deviation_m":0.03011295571923256,"lane_width":3.5,"goal":{"x":-15.407496452331543,"y":133.7284698486328,"z":0.5999999642372131},"fault":{"name":"tire_pressure_imbalance","severity":1.0},"capture_flags":{"save_rgb":true,"save_depth":false,"video_rgb":true,"video_depth":false}}
{"frame":3647,"timestamp":{"delta_seconds":0.05000000074505806,"elapsed_seconds":41.46194710675627},"control":{"throttle":0.0,"steer":0.0,"brake":1.0,"hand_brake":false,"reverse":false,"manual_gear_shift":false,"gear":0},"transform":{"location":{"x":-87.62267303466797,"y":12.970473289489746,"z":0.0030709074344486},"rotation":{"pitch":0.05180015042424202,"yaw":-179.77859497070312,"roll":-0.1098327562212944}},"velocity":{"x":0.0,"y":0.0,"z":0.0},"angular_velocity":{"x":0.0,"y":0.0,"z":0.0},"acceleration":{"x":0.0,"y":0.0,"z":0.0},"speed_mps":0.0,"speed_kph":0.0,"speed_limit_kph":30.0,"collisions_this_frame":[],"waypoint":{"x":-87.62259674072266,"y":12.94051742553711,"z":0.0},"lane_deviation_m":0.03011295571923256,"lane_width":3.5,"goal":{"x":-15.407496452331543,"y":133.7284698486328,"z":0.5999999642372131},"fault":{"name":"tire_pressure_imbalance","severity":1.0},"capture_flags":{"save_rgb":true,"save_depth":false,"video_rgb":true,"video_depth":false}}
{"frame":3648,"timestamp":{"delta_seconds":0.05000000074505806,"elapsed_seconds":41.51194710750133},"control":{"throttle":0.0,"steer":0.0,"brake":1.0,"hand_brake":false,"reverse":false,"manual_gear_shift":false,"gear":0},"transform":{"location":{"x":-87.62267303466797,"y":12.970473289489746,"z":0.0030709074344486},"rotation":{"pitch":0.05180015042424202,"yaw":-179.77859497070312,"roll":-0.1098327562212944}},"velocity":{"x":0.0,"y":0.0,"z":0.0},"angular_velocity":{"x":0.0,"y":0.0,"z":0.0},"acceleration":{"x":0.0,"y":0.0,"z":0.0},"speed_mps":0.0,"speed_kph":0.0,"speed_limit_kph":30.0,"collisions_this_frame":[],"waypoint":{"x":-87.62259674072266,"y":12.94051742553711,"z":0.0},"lane_deviation_m":0.03011295571923256,"lane_width":3.5,"goal":{"x":-15.407496452331543,"y":133.7284698486328,"z":0.5999999642372131},"fault":{"name":"tire_pressure_imbalance","severity":1.0},"capture_flags":{"save_rgb":true,"save_depth":false,"video_rgb":true,"video_depth":false}}
{"frame":3649,"timestamp":{"delta_seconds":0.05000000074505806,"elapsed_seconds":41.561947108246386},"control":{"throttle":0.0,"steer":0.0,"brake":1.0,"hand_brake":false,"reverse":false,"manual_gear_shift":false,"gear":0},"transform":{"location":{"x":-87.62267303466797,"y":12.970473289489746,"z":0.0030709074344486},"rotation":{"pitch":0.05180015042424202,"yaw":-179.77859497070312,"roll":-0.1098327562212944}},"velocity":{"x":0.0,"y":0.0,"z":0.0},"angular_velocity":{"x":0.0,"y":0.0,"z":0.0},"acceleration":{"x":0.0,"y":0.0,"z":0.0},"speed_mps":0.0,"speed_kph":0.0,"speed_limit_kph":30.0,"collisions_this_frame":[],"waypoint":{"x":-87.62259674072266,"y":12.94051742553711,"z":0.0},"lane_deviation_m":0.03011295571923256,"lane_width":3.5,"goal":{"x":-15.407496452331543,"y":133.7284698486328,"z":0.5999999642372131},"fault":{"name":"tire_pressure_imbalance","severity":1.0},"capture_flags":{"save_rgb":true,"save_depth":false,"video_rgb":true,"video_depth":false}}
{"frame":3650,"timestamp":{"delta_seconds":0.05000000074505806,"elapsed_seconds":41.611947108991444},"control":{"throttle":0.0,"steer":0.0,"brake":1.0,"hand_brake":false,"reverse":false,"manual_gear_shift":false,"gear":0},"transform":{"location":{"x":-87.62267303466797,"y":12.970473289489746,"z":0.0030709074344486},"rotation":{"pitch":0.05180015042424202,"yaw":-179.77859497070312,"roll":-0.1098327562212944}},"velocity":{"x":0.0,"y":0.0,"z":0.0},"angular_velocity":{"x":0.0,"y":0.0,"z":0.0},"acceleration":{"x":0.0,"y":0.0,"z":0.0},"speed_mps":0.0,"speed_kph":0.0,"speed_limit_kph":30.0,"collisions_this_frame":[],"waypoint":{"x":-87.62259674072266,"y":12.94051742553711,"z":0.0},"lane_deviation_m":0.03011295571923256,"lane_width":3.5,"goal":{"x":-15.407496452331543,"y":133.7284698486328,"z":0.5999999642372131},"fault":{"name":"tire_pressure_imbalance","severity":1.0},"capture_flags":{"save_rgb":true,"save_depth":false,"video_rgb":true,"video_depth":false}}
{"frame":3651,"timestamp":{"delta_seconds":0.05000000074505806,"elapsed_seconds":41.6619471097365},"control":{"throttle":0.0,"steer":0.0,"brake":1.0,"hand_brake":false,"reverse":false,"manual_gear_shift":false,"gear":0},"transform":{"location":{"x":-87.62267303466797,"y":12.970473289489746,"z":0.0030709074344486},"rotation":{"pitch":0.05180015042424202,"yaw":-179.77859497070312,"roll":-0.1098327562212944}},"velocity":{"x":0.0,"y":0.0,"z":0.0},"angular_velocity":{"x":0.0,"y":0.0,"z":0.0},"acceleration":{"x":0.0,"y":0.0,"z":0.0},"speed_mps":0.0,"speed_kph":0.0,"speed_limit_kph":30.0,"collisions_this_frame":[],"waypoint":{"x":-87.62259674072266,"y":12.94051742553711,"z":0.0},"lane_deviation_m":0.03011295571923256,"lane_width":3.5,"goal":{"x":-15.407496452331543,"y":133.7284698486328,"z":0.5999999642372131},"fault":{"name":"tire_pressure_imbalance","severity":1.0},"capture_flags":{"save_rgb":true,"save_depth":false,"video_rgb":true,"video_depth":false}}
{"frame":3652,"timestamp":{"delta_seconds":0.05000000074505806,"elapsed_seconds":41.71194711048156},"control":{"throttle":0.0,"steer":0.0,"brake":1.0,"hand_brake":false,"reverse":false,"manual_gear_shift":false,"gear":0},"transform":{"location":{"x":-87.62267303466797,"y":12.970473289489746,"z":0.0030709074344486},"rotation":{"pitch":0.05180015042424202,"yaw":-179.77859497070312,"roll":-0.1098327562212944}},"velocity":{"x":0.0,"y":0.0,"z":0.0},"angular_velocity":{"x":0.0,"y":0.0,"z":0.0},"acceleration":{"x":0.0,"y":0.0,"z":0.0},"speed_mps":0.0,"speed_kph":0.0,"speed_limit_kph":30.0,"collisions_this_frame":[],"waypoint":{"x":-87.62259674072266,"y":12.94051742553711,"z":0.0},"lane_deviation_m":0.03011295571923256,"lane_width":3.5,"goal":{"x":-15.407496452331543,"y":133.7284698486328,"z":0.5999999642372131},"fault":{"name":"tire_pressure_imbalance","severity":1.0},"capture_flags":{"save_rgb":true,"save_depth":false,"video_rgb":true,"video_depth":false}}
{"frame":3653,"timestamp":{"delta_seconds":0.05000000074505806,"elapsed_seconds":41.76194711122662},"control":{"throttle":0.0,"steer":0.0,"brake":1.0,"hand_brake":false,"reverse":false,"manual_gear_shift":false,"gear":0},"transform":{"location":{"x":-87.62267303466797,"y":12.970473289489746,"z":0.0030709074344486},"rotation":{"pitch":0.05180015042424202,"yaw":-179.77859497070312,"roll":-0.1098327562212944}},"velocity":{"x":0.0,"y":0.0,"z":0.0},"angular_velocity":{"x":0.0,"y":0.0,"z":0.0},"acceleration":{"x":0.0,"y":0.0,"z":0.0},"speed_mps":0.0,"speed_kph":0.0,"speed_limit_kph":30.0,"collisions_this_frame":[],"waypoint":{"x":-87.62259674072266,"y":12.94051742553711,"z":0.0},"lane_deviation_m":0.03011295571923256,"lane_width":3.5,"goal":{"x":-15.407496452331543,"y":133.7284698486328,"z":0.5999999642372131},"fault":{"name":"tire_pressure_imbalance","severity":1.0},"capture_flags":{"save_rgb":true,"save_depth":false,"video_rgb":true,"video_depth":false}}
{"frame":3654,"timestamp":{"delta_seconds":0.05000000074505806,"elapsed_seconds":41.811947111971676},"control":{"throttle":0.0,"steer":0.0,"brake":1.0,"hand_brake":false,"reverse":false,"manual_gear_shift":false,"gear":0},"transform":{"location":{"x":-87.62267303466797,"y":12.970473289489746,"z":0.0030709074344486},"rotation":{"pitch":0.05180015042424202,"yaw":-179.77859497070312,"roll":-0.1098327562212944}},"velocity":{"x":0.0,"y":0.0,"z":0.0},"angular_velocity":{"x":0.0,"y":0.0,"z":0.0},"acceleration":{"x":0.0,"y":0.0,"z":0.0},"speed_mps":0.0,"speed_kph":0.0,"speed_limit_kph":30.0,"collisions_this_frame":[],"waypoint":{"x":-87.62259674072266,"y":12.94051742553711,"z":0.0},"lane_deviation_m":0.03011295571923256,"lane_width":3.5,"goal":{"x":-15.407496452331543,"y":133.7284698486328,"z":0.5999999642372131},"fault":{"name":"tire_pressure_imbalance","severity":1.0},"capture_flags":{"save_rgb":true,"save_depth":false,"video_rgb":true,"video_depth":false}}
{"frame":3655,"timestamp":{"delta_seconds":0.05000000074505806,"elapsed_seconds":41.861947112716734},"control":{"throttle":0.0,"steer":0.0,"brake":1.0,"hand_brake":false,"reverse":false,"manual_gear_shift":false,"gear":0},"transform":{"location":{"x":-87.62267303466797,"y":12.970473289489746,"z":0.0030709074344486},"rotation":{"pitch":0.05180015042424202,"yaw":-179.77859497070312,"roll":-0.1098327562212944}},"velocity":{"x":0.0,"y":0.0,"z":0.0},"angular_velocity":{"x":0.0,"y":0.0,"z":0.0},"acceleration":{"x":0.0,"y":0.0,"z":0.0},"speed_mps":0.0,"speed_kph":0.0,"speed_limit_kph":30.0,"collisions_this_frame":[],"waypoint":{"x":-87.62259674072266,"y":12.94051742553711,"z":0.0},"lane_deviation_m":0.03011295571923256,"lane_width":3.5,"goal":{"x":-15.407496452331543,"y":133.7284698486328,"z":0.5999999642372131},"fault":{"name":"tire_pressure_imbalance","severity":1.0},"capture_flags":{"save_rgb":true,"save_depth":false,"video_rgb":true,"video_depth":false}}
