{"frame":24,"timestamp":{"delta_seconds":0.05000000074505806,"elapsed_seconds":3.043688132427633},"control":{"throttle":0.0,"steer":0.0,"brake":1.0,"hand_brake":false,"reverse":false,"manual_gear_shift":false,"gear":0},"transform":{"location":{"x":-41.66887664794922,"y":48.905540466308594,"z":0.48239994049072266},"rotation":{"pitch":0.0,"yaw":-90.16118621826172,"roll":0.0}},"velocity":{"x":0.0,"y":0.0,"z":-1.470000147819519},"angular_velocity":{"x":0.0,"y":0.0,"z":0.0},"acceleration":{"x":0.0,"y":0.0,"z":-9.80000114440918},"speed_mps":1.470000147819519,"speed_kph":5.2920005321502686,"speed_limit_kph":30.0,"collisions_this_frame":[],"waypoint":{"x":-41.66884994506836,"y":48.905540466308594,"z":0.0},"lane_deviation_m":0.48239994049072266,"lane_width":3.5,"goal":{"x":48.546077728271484,"y":140.9755401611328,"z":0.6000009179115295},"fault":{"name":"tire_pressure_imbalance","severity":1.0},"capture_flags":{"save_rgb":true,"save_depth":false,"video_rgb":true,"video_depth":false}}
{"frame":25,"timestamp":{"delta_seconds":0.05000000074505806,"elapsed_seconds":3.093688133172691},"control":{"throttle":0.0,"steer":-0.02500000037252903,"brake":1.0,"hand_brake":false,"reverse":false,"manual_gear_shift":false,"gear":0},"transform":{"location":{"x":-41.66887664794922,"y":48.905540466308594,"z":0.394199937582016},"rotation":{"pitch":0.0,"yaw":-90.16118621826172,"roll":0.0}},"velocity":{"x":0.0,"y":0.0,"z":-1.9600002765655518},"angular_velocity":{"x":0.0,"y":0.0,"z":0.0},"acceleration":{"x":0.0,"y":0.0,"z":-9.800003051757812},"speed_mps":1.9600002765655518,"speed_kph":7.056000995635986,"speed_limit_kph":30.0,"collisions_this_frame":[],"waypoint":{"x":-41.66884994506836,"y":48.905540466308594,"z":0.0},"lane_deviation_m":0.394199937582016,"lane_width":3.5,"goal":{"x":48.546077728271484,"y":140.9755401611328,"z":0.6000009179115295},"fault":{"name":"tire_pressure_imbalance","severity":1.0},"capture_flags":{"save_rgb":true,"save_depth":false,"video_rgb":true,"video_depth":false}}
{"frame":26,"timestamp":{"delta_seconds":0.05000000074505806,"elapsed_seconds":3.143688133917749},"control":{"throttle":0.0,"steer":-0.017000000923871994,"brake":1.0,"hand_brake":false,"reverse":false,"manual_gear_shift":false,"gear":0},"transform":{"location":{"x":-41.66887664794922,"y":48.905540466308594,"z":0.281499981880188},"rotation":{"pitch":0.0,"yaw":-90.16118621826172,"roll":0.0}},"velocity":{"x":0.0,"y":0.0,"z":-2.450000286102295},"angular_velocity":{"x":0.0,"y":0.0,"z":0.0},"acceleration":{"x":0.0,"y":0.0,"z":-9.800000190734863},"speed_mps":2.450000286102295,"speed_kph":8.820001029968262,"speed_limit_kph":30.0,"collisions_this_frame":[],"waypoint":{"x":-41.66884994506836,"y":48.905540466308594,"z":0.0},"lane_deviation_m":0.281499981880188,"lane_width":3.5,"goal":{"x":48.546077728271484,"y":140.9755401611328,"z":0.6000009179115295},"fault":{"name":"tire_pressure_imbalance","severity":1.0},"capture_flags":{"save_rgb":true,"save_depth":false,"video_rgb":true,"video_depth":false}}
{"frame":27,"timestamp":{"delta_seconds":0.05000000074505806,"elapsed_seconds":3.193688134662807},"control":{"throttle":1.0,"steer":0.019999999552965164,"brake":0.0,"hand_brake":false,"reverse":false,"manual_gear_shift":false,"gear":0},"transform":{"location":{"x":-41.66887664794922,"y":48.905540466308594,"z":0.14429987967014313},"rotation":{"pitch":0.0,"yaw":-90.16118621826172,"roll":0.0}},"velocity":{"x":0.0,"y":0.0,"z":-2.93999981880188},"angular_velocity":{"x":0.0,"y":0.0,"z":0.0},"acceleration":{"x":0.0,"y":0.0,"z":-9.7999906539917},"speed_mps":2.93999981880188,"speed_kph":10.583999347686769,"speed_limit_kph":30.0,"collisions_this_frame":[],"waypoint":{"x":-41.66884994506836,"y":48.905540466308594,"z":0.0},"lane_deviation_m":0.14429987967014313,"lane_width":3.5,"goal":{"x":48.546077728271484,"y":140.9755401611328,"z":0.6000009179115295},"fault":{"name":"tire_pressure_imbalance","severity":1.0},"capture_flags":{"save_rgb":true,"save_depth":false,"video_rgb":true,"video_depth":false}}
{"frame":28,"timestamp":{"delta_seconds":0.05000000074505806,"elapsed_seconds":3.243688135407865},"control":{"throttle":0.0,"steer":0.032999999821186066,"brake":1.0,"hand_brake":false,"reverse":false,"manual_gear_shift":false,"gear":0},"transform":{"location":{"x":-41.66887664794922,"y":48.905540466308594,"z":0.008085631765425205},"rotation":{"pitch":0.0,"yaw":-90.16118621826172,"roll":0.0}},"velocity":{"x":-8.079768122115638e-06,"y":4.826893587051018e-07,"z":-2.0645973682403564},"angular_velocity":{"x":-0.0008286208612844348,"y":-0.0008727701497264206,"z":5.840861945216602e-07},"acceleration":{"x":-0.00016159536608029157,"y":9.65378694672836e-06,"z":17.50804901123047},"speed_mps":2.064597368256223,"speed_kph":7.4325505257224025,"speed_limit_kph":30.0,"collisions_this_frame":[],"waypoint":{"x":-41.66884994506836,"y":48.905540466308594,"z":0.0},"lane_deviation_m":0.008085675537586212,"lane_width":3.5,"goal":{"x":48.546077728271484,"y":140.9755401611328,"z":0.6000009179115295},"fault":{"name":"tire_pressure_imbalance","severity":1.0},"capture_flags":{"save_rgb":true,"save_depth":false,"video_rgb":true,"video_depth":false}}
{"frame":29,"timestamp":{"delta_seconds":0.05000000074505806,"elapsed_seconds":3.293688136152923},"control":{"throttle":0.0,"steer":0.027000000700354576,"brake":1.0,"hand_brake":false,"reverse":false,"manual_gear_shift":false,"gear":0},"transform":{"location":{"x":-41.66887664794922,"y":48.905540466308594,"z":-0.05158813297748566},"rotation":{"pitch":0.0,"yaw":-90.16118621826172,"roll":0.0}},"velocity":{"x":-1.2892405720776878e-06,"y":1.7071840829885332e-07,"z":-0.7380892038345337},"angular_velocity":{"x":-0.00025836192071437836,"y":-0.00015892391093075275,"z":1.1118750364857988e-07},"acceleration":{"x":0.000135810551000759,"y":-6.239419235498644e-06,"z":26.530162811279297},"speed_mps":0.7380892038356794,"speed_kph":2.657121133808446,"speed_limit_kph":30.0,"collisions_this_frame":[],"waypoint":{"x":-41.66884994506836,"y":48.905540466308594,"z":0.0},"lane_deviation_m":0.051588140428066254,"lane_width":3.5,"goal":{"x":48.546077728271484,"y":140.9755401611328,"z":0.6000009179115295},"fault":{"name":"tire_pressure_imbalance","severity":1.0},"capture_flags":{"save_rgb":true,"save_depth":false,"video_rgb":true,"video_depth":false}}
{"frame":30,"timestamp":{"delta_seconds":0.05000000074505806,"elapsed_seconds":3.343688136897981},"control":{"throttle":0.0,"steer":0.008999999612569809,"brake":1.0,"hand_brake":false,"reverse":false,"manual_gear_shift":false,"gear":0},"transform":{"location":{"x":-41.66887664794922,"y":48.905540466308594,"z":-0.0677318200469017},"rotation":{"pitch":0.0,"yaw":-90.16118621826172,"roll":0.0}},"velocity":{"x":-6.211653413856766e-08,"y":2.947386157359233e-08,"z":-0.11209748685359955},"angular_velocity":{"x":-4.2751020373543724e-05,"y":-3.887838829541579e-05,"z":5.101953082231603e-09},"acceleration":{"x":2.454247987770941e-05,"y":-2.8248907710803906e-06,"z":12.519834518432617},"speed_mps":0.11209748685362063,"speed_kph":0.40355095267303426,"speed_limit_kph":30.0,"collisions_this_frame":[],"waypoint":{"x":-41.66884994506836,"y":48.905540466308594,"z":0.0},"lane_deviation_m":0.0677318274974823,"lane_width":3.5,"goal":{"x":48.546077728271484,"y":140.9755401611328,"z":0.6000009179115295},"fault":{"name":"tire_pressure_imbalance","severity":1.0},"capture_flags":{"save_rgb":true,"save_depth":false,"video_rgb":true,"video_depth":false}}
{"frame":31,"timestamp":{"delta_seconds":0.05000000074505806,"elapsed_seconds":3.3936881376430392},"control":{"throttle":0.0,"steer":0.032999999821186066,"brake":1.0,"hand_brake":false,"reverse":false,"manual_gear_shift":false,"gear":0},"transform":{"location":{"x":-41.66887664794922,"y":48.905540466308594,"z":-0.06445323675870895},"rotation":{"pitch":0.0,"yaw":-90.16118621826172,"roll":0.0}},"velocity":{"x":4.565484346130688e-07,"y":1.0883760559465827e-08,"z":0.1505621373653412},"angular_velocity":{"x":-8.444188097200822e-06,"y":6.333352757792454e-06,"z":-1.6834475147220473e-08},"acceleration":{"x":1.0373300028732046e-05,"y":-3.7180200251896167e-07,"z":5.253191947937012},"speed_mps":0.15056213736603377,"speed_kph":0.5420236945177216,"speed_limit_kph":30.0,"collisions_this_frame":[],"waypoint":{"x":-41.66884994506836,"y":48.905540466308594,"z":0.0},"lane_deviation_m":0.06445324420928955,"lane_width":3.5,"goal":{"x":48.546077728271484,"y":140.9755401611328,"z":0.6000009179115295},"fault":{"name":"tire_pressure_imbalance","severity":1.0},"capture_flags":{"save_rgb":true,"save_depth":false,"video_rgb":true,"video_depth":false}}
{"frame":32,"timestamp":{"delta_seconds":0.05000000074505806,"elapsed_seconds":3.4436881383880973},"control":{"throttle":0.0,"steer":0.017999999225139618,"brake":1.0,"hand_brake":false,"reverse":false,"manual_gear_shift":false,"gear":0},"transform":{"location":{"x":-41.66887664794922,"y":48.905540466308594,"z":-0.053962018340826035},"rotation":{"pitch":0.0,"yaw":-90.16118621826172,"roll":0.0}},"velocity":{"x":2.7168269411959045e-07,"y":-1.0105714043362468e-09,"z":0.23337411880493164},"angular_velocity":{"x":6.174443115014583e-06,"y":-9.425863936485257e-06,"z":-1.3192631875824645e-08},"acceleration":{"x":-3.6973146961827297e-06,"y":-2.3788663838786306e-07,"z":1.656239628791809},"speed_mps":0.2333741188050898,"speed_kph":0.8401468276983233,"speed_limit_kph":30.0,"collisions_this_frame":[],"waypoint":{"x":-41.66884994506836,"y":48.905540466308594,"z":0.0},"lane_deviation_m":0.05396202579140663,"lane_width":3.5,"goal":{"x":48.546077728271484,"y":140.9755401611328,"z":0.6000009179115295},"fault":{"name":"tire_pressure_imbalance","severity":1.0},"capture_flags":{"save_rgb":true,"save_depth":false,"video_rgb":true,"video_depth":false}}
{"frame":33,"timestamp":{"delta_seconds":0.05000000074505806,"elapsed_seconds":3.4936881391331553},"control":{"throttle":0.0,"steer":0.010999999940395355,"brake":1.0,"hand_brake":false,"reverse":false,"manual_gear_shift":false,"gear":0},"transform":{"location":{"x":-41.66887664794922,"y":48.905540466308594,"z":-0.0420781709253788},"rotation":{"pitch":0.0,"yaw":-90.16118621826172,"roll":0.0}},"velocity":{"x":1.0367234182240281e-07,"y":-2.413332822470693e-08,"z":0.23370572924613953},"angular_velocity":{"x":3.53298855770845e-05,"y":2.1221610950306058e-05,"z":-8.002663420825229e-09},"acceleration":{"x":-3.3602073017391376e-06,"y":-4.624551479537331e-07,"z":0.006632208824157715},"speed_mps":0.23370572924616376,"speed_kph":0.8413406252861896,"speed_limit_kph":30.0,"collisions_this_frame":[],"waypoint":{"x":-41.66884994506836,"y":48.905540466308594,"z":0.0},"lane_deviation_m":0.042078178375959396,"lane_width":3.5,"goal":{"x":48.546077728271484,"y":140.9755401611328,"z":0.6000009179115295},"fault":{"name":"tire_pressure_imbalance","severity":1.0},"capture_flags":{"save_rgb":true,"save_depth":false,"video_rgb":true,"video_depth":false}}
{"frame":34,"timestamp":{"delta_seconds":0.05000000074505806,"elapsed_seconds":3.5436881398782134},"control":{"throttle":0.0,"steer":0.01899999938905239,"brake":1.0,"hand_brake":false,"reverse":false,"manual_gear_shift":false,"gear":0},"transform":{"location":{"x":-41.66887664794922,"y":48.905540466308594,"z":-0.0312923789024353},"rotation":{"pitch":0.0,"yaw":-90.16118621826172,"roll":0.0}},"velocity":{"x":-1.7796621065713225e-08,"y":-2.6404647357480826e-08,"z":0.20143431425094604},"angular_velocity":{"x":3.460852531134151e-05,"y":1.0127365612788708e-06,"z":5.1548170176829444e-09},"acceleration":{"x":-2.4293790374940727e-06,"y":-4.542638265547794e-08,"z":-0.6454282999038696},"speed_mps":0.20143431425094857,"speed_kph":0.7251635313034148,"speed_limit_kph":30.0,"collisions_this_frame":[],"waypoint":{"x":-41.66884994506836,"y":48.905540466308594,"z":0.0},"lane_deviation_m":0.0312923900783062,"lane_width":3.5,"goal":{"x":48.546077728271484,"y":140.9755401611328,"z":0.6000009179115295},"fault":{"name":"tire_pressure_imbalance","severity":1.0},"capture_flags":{"save_rgb":true,"save_depth":false,"video_rgb":true,"video_depth":false}}
{"frame":35,"timestamp":{"delta_seconds":0.05000000074505806,"elapsed_seconds":3.5936881406232715},"control":{"throttle":0.0,"steer":0.007000000216066837,"brake":1.0,"hand_brake":false,"reverse":false,"manual_gear_shift":false,"gear":0},"transform":{"location":{"x":-41.66887664794922,"y":48.905540466308594,"z":-0.022435378283262253},"rotation":{"pitch":0.0,"yaw":-90.16118621826172,"roll":0.0}},"velocity":{"x":2.229412530141417e-07,"y":-6.762639781499047e-09,"z":0.16076505184173584},"angular_velocity":{"x":9.465884431847371e-06,"y":1.560286182211712e-05,"z":-2.752459815624775e-09},"acceleration":{"x":4.814757630811073e-06,"y":3.9284014974327874e-07,"z":-0.8133852481842041},"speed_mps":0.16076505184189058,"speed_kph":0.5787541866308061,"speed_limit_kph":30.0,"collisions_this_frame":[],"waypoint":{"x":-41.66884994506836,"y":48.905540466308594,"z":0.0},"lane_deviation_m":0.022435393184423447,"lane_width":3.5,"goal":{"x":48.546077728271484,"y":140.9755401611328,"z":0.6000009179115295},"fault":{"name":"tire_pressure_imbalance","severity":1.0},"capture_flags":{"save_rgb":true,"save_depth":false,"video_rgb":true,"video_depth":false}}
{"frame":36,"timestamp":{"delta_seconds":0.05000000074505806,"elapsed_seconds":3.6436881413683295},"control":{"throttle":0.0,"steer":0.017000000923871994,"brake":1.0,"hand_brake":false,"reverse":false,"manual_gear_shift":false,"gear":0},"transform":{"location":{"x":-41.66887664794922,"y":48.905540466308594,"z":-0.015567931346595287},"rotation":{"pitch":0.0,"yaw":-90.16118621826172,"roll":0.0}},"velocity":{"x":2.2056954662730277e-07,"y":6.945662933688368e-10,"z":0.12242032587528229},"angular_velocity":{"x":1.680961986494367e-06,"y":-2.884841524064541e-05,"z":-8.0455784257083e-09},"acceleration":{"x":-4.7434127736778464e-08,"y":1.4914412815869582e-07,"z":-0.766894519329071},"speed_mps":0.12242032587548099,"speed_kph":0.4407131731517316,"speed_limit_kph":30.0,"collisions_this_frame":[],"waypoint":{"x":-41.66884994506836,"y":48.905540466308594,"z":0.0},"lane_deviation_m":0.015567954629659653,"lane_width":3.5,"goal":{"x":48.546077728271484,"y":140.9755401611328,"z":0.6000009179115295},"fault":{"name":"tire_pressure_imbalance","severity":1.0},"capture_flags":{"save_rgb":true,"save_depth":false,"video_rgb":true,"video_depth":false}}
{"frame":37,"timestamp":{"delta_seconds":0.05000000074505806,"elapsed_seconds":3.6936881421133876},"control":{"throttle":0.0,"steer":0.009999999776482582,"brake":1.0,"hand_brake":false,"reverse":false,"manual_gear_shift":false,"gear":0},"transform":{"location":{"x":-41.66887664794922,"y":48.905540466308594,"z":-0.010438041761517525},"rotation":{"pitch":0.0,"yaw":-90.16118621826172,"roll":0.0}},"velocity":{"x":5.591663239101763e-07,"y":-7.972327686900371e-09,"z":0.0903095006942749},"angular_velocity":{"x":1.2242861885169987e-05,"y":8.889457967597991e-05,"z":-7.1073209539918025e-09},"acceleration":{"x":6.771935659344308e-06,"y":-1.733378809376518e-07,"z":-0.6422165036201477},"speed_mps":0.09030950069600634,"speed_kph":0.32511420250562284,"speed_limit_kph":30.0,"collisions_this_frame":[],"waypoint":{"x":-41.66884994506836,"y":48.905540466308594,"z":0.0},"lane_deviation_m":0.010438076220452785,"lane_width":3.5,"goal":{"x":48.546077728271484,"y":140.9755401611328,"z":0.6000009179115295},"fault":{"name":"tire_pressure_imbalance","severity":1.0},"capture_flags":{"save_rgb":true,"save_depth":false,"video_rgb":true,"video_depth":false}}
{"frame":38,"timestamp":{"delta_seconds":0.05000000074505806,"elapsed_seconds":3.7436881428584456},"control":{"throttle":0.0,"steer":0.01899999938905239,"brake":1.0,"hand_brake":false,"reverse":false,"manual_gear_shift":false,"gear":0},"transform":{"location":{"x":-41.66887664794922,"y":48.905540466308594,"z":-0.006705284118652344},"rotation":{"pitch":0.0,"yaw":-90.16118621826172,"roll":0.0}},"velocity":{"x":-7.674249502542807e-08,"y":7.532195978043887e-10,"z":0.06511224806308746},"angular_velocity":{"x":6.139184449693857e-08,"y":-6.92135508870706e-05,"z":-3.5739635695364314e-09},"acceleration":{"x":-1.2718175639747642e-05,"y":1.7451094436182757e-07,"z":-0.5039450526237488},"speed_mps":0.06511224806313269,"speed_kph":0.2344040930272777,"speed_limit_kph":30.0,"collisions_this_frame":[],"waypoint":{"x":-41.66884994506836,"y":48.905540466308594,"z":0.0},"lane_deviation_m":0.006705337204039097,"lane_width":3.5,"goal":{"x":48.546077728271484,"y":140.9755401611328,"z":0.6000009179115295},"fault":{"name":"tire_pressure_imbalance","severity":1.0},"capture_flags":{"save_rgb":true,"save_depth":false,"video_rgb":true,"video_depth":false}}
{"frame":39,"timestamp":{"delta_seconds":0.05000000074505806,"elapsed_seconds":3.7936881436035037},"control":{"throttle":0.0,"steer":0.017000000923871994,"brake":1.0,"hand_brake":false,"reverse":false,"manual_gear_shift":false,"gear":0},"transform":{"location":{"x":-41.66887664794922,"y":48.905540466308594,"z":-0.0040416717529296875},"rotation":{"pitch":0.0,"yaw":-90.16118621826172,"roll":0.0}},"velocity":{"x":-3.073712946388696e-07,"y":-2.0556832680540538e-08,"z":0.04613744467496872},"angular_velocity":{"x":2.6481973691261373e-05,"y":-0.00011694103159243241,"z":4.919828988647623e-09},"acceleration":{"x":-4.612576049112249e-06,"y":-4.262010406819172e-07,"z":-0.3794960677623749},"speed_mps":0.04613744467599717,"speed_kph":0.1660948008335898,"speed_limit_kph":30.0,"collisions_this_frame":[],"waypoint":{"x":-41.66884994506836,"y":48.905540466308594,"z":0.0},"lane_deviation_m":0.004041759762912989,"lane_width":3.5,"goal":{"x":48.546077728271484,"y":140.9755401611328,"z":0.6000009179115295},"fault":{"name":"tire_pressure_imbalance","severity":1.0},"capture_flags":{"save_rgb":true,"save_depth":false,"video_rgb":true,"video_depth":false}}
{"frame":40,"timestamp":{"delta_seconds":0.05000000074505806,"elapsed_seconds":3.8436881443485618},"control":{"throttle":0.0,"steer":0.013000000268220901,"brake":1.0,"hand_brake":false,"reverse":false,"manual_gear_shift":false,"gear":0},"transform":{"location":{"x":-41.66887664794922,"y":48.905540466308594,"z":-0.0021694183815270662},"rotation":{"pitch":0.0,"yaw":-90.16118621826172,"roll":0.0}},"velocity":{"x":-5.900413952986128e-07,"y":-2.7103165933795026e-08,"z":0.03224960342049599},"angular_velocity":{"x":3.3506785257486627e-05,"y":-1.4847166312392801e-05,"z":9.175852078158186e-09},"acceleration":{"x":-5.653401785821188e-06,"y":-1.3092666506508976e-07,"z":-0.27775681018829346},"speed_mps":0.0322496034259051,"speed_kph":0.11609857233325835,"speed_limit_kph":30.0,"collisions_this_frame":[],"waypoint":{"x":-41.66884994506836,"y":48.905540466308594,"z":0.0},"lane_deviation_m":0.002169582759961486,"lane_width":3.5,"goal":{"x":48.546077728271484,"y":140.9755401611328,"z":0.6000009179115295},"fault":{"name":"tire_pressure_imbalance","severity":1.0},"capture_flags":{"save_rgb":true,"save_depth":false,"video_rgb":true,"video_depth":false}}
{"frame":41,"timestamp":{"delta_seconds":0.05000000074505806,"elapsed_seconds":3.89368814509362},"control":{"throttle":0.0,"steer":0.024000000208616257,"brake":1.0,"hand_brake":false,"reverse":false,"manual_gear_shift":false,"gear":0},"transform":{"location":{"x":-41.66887664794922,"y":48.905540466308594,"z":-0.0008691024850122631},"rotation":{"pitch":0.0,"yaw":-90.16118621826172,"roll":0.0}},"velocity":{"x":-3.4204333587695146e-08,"y":2.1668742355984705e-09,"z":0.022296113893389702},"angular_velocity":{"x":-3.2846164685906842e-06,"y":-1.6488495020894334e-05,"z":1.0661580507331792e-09},"acceleration":{"x":1.1116741006844677e-05,"y":5.854008122696541e-07,"z":-0.1990697979927063},"speed_mps":0.022296113893416042,"speed_kph":0.08026601001629775,"speed_limit_kph":30.0,"collisions_this_frame":[],"waypoint":{"x":-41.66884994506836,"y":48.905540466308594,"z":0.0},"lane_deviation_m":0.0008695126161910594,"lane_width":3.5,"goal":{"x":48.546077728271484,"y":140.9755401611328,"z":0.6000009179115295},"fault":{"name":"tire_pressure_imbalance","severity":1.0},"capture_flags":{"save_rgb":true,"save_depth":false,"video_rgb":true,"video_depth":false}}
{"frame":42,"timestamp":{"delta_seconds":0.05000000074505806,"elapsed_seconds":3.943688145838678},"control":{"throttle":0.0,"steer":0.017000000923871994,"brake":1.0,"hand_brake":false,"reverse":false,"manual_gear_shift":false,"gear":0},"transform":{"location":{"x":-41.66887664794922,"y":48.905540466308594,"z":2.5100707716774195e-05},"rotation":{"pitch":0.0,"yaw":-90.16118621826172,"roll":0.0}},"velocity":{"x":-1.0622187573972042e-07,"y":1.2500102064549878e-09,"z":0.015276012010872364},"angular_velocity":{"x":-2.411136165392236e-06,"y":-1.2238274393894244e-05,"z":1.910561486795359e-09},"acceleration":{"x":-1.4403508430405054e-06,"y":-1.8337280138780443e-08,"z":-0.14040203392505646},"speed_mps":0.015276012011241723,"speed_kph":0.0549936432404702,"speed_limit_kph":30.0,"collisions_this_frame":[],"waypoint":{"x":-41.66884994506836,"y":48.905540466308594,"z":0.0},"lane_deviation_m":3.664818359538913e-05,"lane_width":3.5,"goal":{"x":48.546077728271484,"y":140.9755401611328,"z":0.6000009179115295},"fault":{"name":"tire_pressure_imbalance","severity":1.0},"capture_flags":{"save_rgb":true,"save_depth":false,"video_rgb":true,"video_depth":false}}
{"frame":43,"timestamp":{"delta_seconds":0.05000000074505806,"elapsed_seconds":3.993688146583736},"control":{"throttle":0.0,"steer":0.014000000432133675,"brake":1.0,"hand_brake":false,"reverse":false,"manual_gear_shift":false,"gear":0},"transform":{"location":{"x":-41.66887664794922,"y":48.905540466308594,"z":0.0006349944742396474},"rotation":{"pitch":0.0,"yaw":-90.16118621826172,"roll":0.0}},"velocity":{"x":-2.6307942491143876e-08,"y":1.5588539348243557e-09,"z":0.010385379195213318},"angular_velocity":{"x":-2.22801372729009e-06,"y":-2.703990503505338e-05,"z":-6.776521010998238e-10},"acceleration":{"x":1.5982786862878129e-06,"y":6.176874567387358e-09,"z":-0.09781265258789062},"speed_mps":0.010385379195246756,"speed_kph":0.03738736510288832,"speed_limit_kph":30.0,"collisions_this_frame":[],"waypoint":{"x":-41.66884994506836,"y":48.905540466308594,"z":0.0},"lane_deviation_m":0.000635555712506175,"lane_width":3.5,"goal":{"x":48.546077728271484,"y":140.9755401611328,"z":0.6000009179115295},"fault":{"name":"tire_pressure_imbalance","severity":1.0},"capture_flags":{"save_rgb":true,"save_depth":false,"video_rgb":true,"video_depth":false}}
{"frame":44,"timestamp":{"delta_seconds":0.05000000074505806,"elapsed_seconds":4.043688147328794},"control":{"throttle":0.0,"steer":0.014000000432133675,"brake":1.0,"hand_brake":false,"reverse":false,"manual_gear_shift":false,"gear":0},"transform":{"location":{"x":-41.66887664794922,"y":48.905540466308594,"z":0.0010480880737304688},"rotation":{"pitch":0.0,"yaw":-90.16118621826172,"roll":0.0}},"velocity":{"x":-1.2233821733431682e-09,"y":7.984159444696104e-10,"z":0.007016735151410103},"angular_velocity":{"x":-1.2036369980705786e-06,"y":9.552543815516401e-06,"z":8.138753004871546e-10},"acceleration":{"x":5.016912041355681e-07,"y":-1.5208760473228722e-08,"z":-0.0673728808760643},"speed_mps":0.007016735151410255,"speed_kph":0.025260246545076918,"speed_limit_kph":30.0,"collisions_this_frame":[],"waypoint":{"x":-41.66884994506836,"y":48.905540466308594,"z":0.0},"lane_deviation_m":0.001048428239300847,"lane_width":3.5,"goal":{"x":48.546077728271484,"y":140.9755401611328,"z":0.6000009179115295},"fault":{"name":"tire_pressure_imbalance","severity":1.0},"capture_flags":{"save_rgb":true,"save_depth":false,"video_rgb":true,"video_depth":false}}
{"frame":45,"timestamp":{"delta_seconds":0.05000000074505806,"elapsed_seconds":4.093688148073852},"control":{"throttle":0.0,"steer":0.017999999225139618,"brake":1.0,"hand_brake":false,"reverse":false,"manual_gear_shift":false,"gear":0},"transform":{"location":{"x":-41.66887664794922,"y":48.905540466308594,"z":0.0013262557331472635},"rotation":{"pitch":0.0,"yaw":-90.16118621826172,"roll":0.0}},"velocity":{"x":1.0158776575508455e-07,"y":1.2835845719649797e-09,"z":0.004713773727416992},"angular_velocity":{"x":1.041853892047584e-07,"y":1.5015920325822663e-05,"z":-3.2251252779502693e-09},"acceleration":{"x":2.056222911051009e-06,"y":9.70337232786278e-09,"z":-0.04605922847986221},"speed_mps":0.0047137737285118395,"speed_kph":0.01696958542264262,"speed_limit_kph":30.0,"collisions_this_frame":[],"waypoint":{"x":-41.66884994506836,"y":48.905540466308594,"z":0.0},"lane_deviation_m":0.001326524536125362,"lane_width":3.5,"goal":{"x":48.546077728271484,"y":140.9755401611328,"z":0.6000009179115295},"fault":{"name":"tire_pressure_imbalance","severity":1.0},"capture_flags":{"save_rgb":true,"save_depth":false,"video_rgb":true,"video_depth":false}}
{"frame":46,"timestamp":{"delta_seconds":0.05000000074505806,"elapsed_seconds":4.14368814881891},"control":{"throttle":0.0,"steer":0.023000000044703484,"brake":1.0,"hand_brake":false,"reverse":false,"manual_gear_shift":false,"gear":0},"transform":{"location":{"x":-41.66887664794922,"y":48.905540466308594,"z":0.00151256553363055},"rotation":{"pitch":0.0,"yaw":-90.16118621826172,"roll":0.0}},"velocity":{"x":1.0668074423847429e-08,"y":-2.9982338833889344e-10,"z":0.0031512449495494366},"angular_velocity":{"x":5.083252290205564e-07,"y":2.464321596562513e-06,"z":-4.1443221077130943e-10},"acceleration":{"x":-1.818393798203033e-06,"y":-3.166815787380983e-08,"z":-0.03125057369470596},"speed_mps":0.0031512449495675085,"speed_kph":0.01134448181844303,"speed_limit_kph":30.0,"collisions_this_frame":[],"waypoint":{"x":-41.66884994506836,"y":48.905540466308594,"z":0.0},"lane_deviation_m":0.0015128011582419276,"lane_width":3.5,"goal":{"x":48.546077728271484,"y":140.9755401611328,"z":0.6000009179115295},"fault":{"name":"tire_pressure_imbalance","severity":1.0},"capture_flags":{"save_rgb":true,"save_depth":false,"video_rgb":true,"video_depth":false}}
{"frame":47,"timestamp":{"delta_seconds":0.05000000074505806,"elapsed_seconds":4.193688149563968},"control":{"throttle":0.0,"steer":0.01899999938905239,"brake":1.0,"hand_brake":false,"reverse":false,"manual_gear_shift":false,"gear":0},"transform":{"location":{"x":-41.66887664794922,"y":48.905540466308594,"z":0.0015981292817741632},"rotation":{"pitch":0.0,"yaw":-90.16118621826172,"roll":0.0}},"velocity":{"x":2.432702572718881e-08,"y":4.4009879074380365e-11,"z":0.0005038547678850591},"angular_velocity":{"x":-4.242514251018292e-08,"y":3.00442425213987e-05,"z":-3.46493195246822e-10},"acceleration":{"x":2.7317901185597293e-07,"y":6.8766654592877785e-09,"z":-0.05294780433177948},"speed_mps":0.0005038547684723376,"speed_kph":0.0018138771665004154,"speed_limit_kph":30.0,"collisions_this_frame":[],"waypoint":{"x":-41.66884994506836,"y":48.905540466308594,"z":0.0},"lane_deviation_m":0.0015983523335307837,"lane_width":3.5,"goal":{"x":48.546077728271484,"y":140.9755401611328,"z":0.6000009179115295},"fault":{"name":"tire_pressure_imbalance","severity":1.0},"capture_flags":{"save_rgb":true,"save_depth":false,"video_rgb":true,"video_depth":false}}
{"frame":48,"timestamp":{"delta_seconds":0.05000000074505806,"elapsed_seconds":4.243688150309026},"control":{"throttle":0.0,"steer":0.017999999225139618,"brake":1.0,"hand_brake":false,"reverse":false,"manual_gear_shift":false,"gear":0},"transform":{"location":{"x":-41.66887664794922,"y":48.905540466308594,"z":0.0016386413481086493},"rotation":{"pitch":0.0,"yaw":-90.16118621826172,"roll":0.0}},"velocity":{"x":-7.789806133473576e-09,"y":3.4235760060230547e-11,"z":0.0009390449267812073},"angular_velocity":{"x":-1.1219851359101085e-07,"y":1.122259254771052e-05,"z":-4.603429193394959e-09},"acceleration":{"x":-6.42336601686111e-07,"y":-1.9548238028299636e-10,"z":0.008703803643584251},"speed_mps":0.000939044926813518,"speed_kph":0.0033805617365286647,"speed_limit_kph":30.0,"collisions_this_frame":[],"waypoint":{"x":-41.66884994506836,"y":48.905540466308594,"z":0.0},"lane_deviation_m":0.0016388589283451438,"lane_width":3.5,"goal":{"x":48.546077728271484,"y":140.9755401611328,"z":0.6000009179115295},"fault":{"name":"tire_pressure_imbalance","severity":1.0},"capture_flags":{"save_rgb":true,"save_depth":false,"video_rgb":true,"video_depth":false}}
{"frame":49,"timestamp":{"delta_seconds":0.05000000074505806,"elapsed_seconds":4.293688151054084},"control":{"throttle":0.0,"steer":0.017999999225139618,"brake":1.0,"hand_brake":false,"reverse":false,"manual_gear_shift":false,"gear":0},"transform":{"location":{"x":-41.66887664794922,"y":48.905540466308594,"z":0.0016878509195521474},"rotation":{"pitch":0.0,"yaw":-90.16118621826172,"roll":0.0}},"velocity":{"x":2.3980595287298456e-09,"y":-5.919213730276596e-11,"z":0.0009797668317332864},"angular_velocity":{"x":4.836021716414507e-08,"y":1.0593054867058527e-05,"z":-1.1791577714248547e-09},"acceleration":{"x":2.0375730969135475e-07,"y":-1.8685579750155057e-09,"z":0.0008144380990415812},"speed_mps":0.0009797668317362228,"speed_kph":0.0035271605942504025,"speed_limit_kph":30.0,"collisions_this_frame":[],"waypoint":{"x":-41.66884994506836,"y":48.905540466308594,"z":0.0},"lane_deviation_m":0.0016880620969459414,"lane_width":3.5,"goal":{"x":48.546077728271484,"y":140.9755401611328,"z":0.6000009179115295},"fault":{"name":"tire_pressure_imbalance","severity":1.0},"capture_flags":{"save_rgb":true,"save_depth":false,"video_rgb":true,"video_depth":false}}
{"frame":50,"timestamp":{"delta_seconds":0.05000000074505806,"elapsed_seconds":4.343688151799142},"control":{"throttle":0.0,"steer":0.020999999716877937,"brake":1.0,"hand_brake":false,"reverse":false,"manual_gear_shift":false,"gear":0},"transform":{"location":{"x":-41.66887664794922,"y":48.905540466308594,"z":0.0017336272867396474},"rotation":{"pitch":0.0,"yaw":-90.16118621826172,"roll":0.0}},"velocity":{"x":2.595512071934536e-08,"y":-9.265556100146455e-10,"z":0.0008600043947808444},"angular_velocity":{"x":1.4017798548593419e-06,"y":2.473223867127672e-05,"z":1.7106318583870461e-09},"acceleration":{"x":4.711412202595966e-07,"y":-1.734726851054802e-08,"z":-0.0023952487390488386},"speed_mps":0.0008600043951730092,"speed_kph":0.003096015822622833,"speed_limit_kph":30.0,"collisions_this_frame":[],"waypoint":{"x":-41.66884994506836,"y":48.905540466308594,"z":0.0},"lane_deviation_m":0.0017338329926133156,"lane_width":3.5,"goal":{"x":48.546077728271484,"y":140.9755401611328,"z":0.6000009179115295},"fault":{"name":"tire_pressure_imbalance","severity":1.0},"capture_flags":{"save_rgb":true,"save_depth":false,"video_rgb":true,"video_depth":false}}
{"frame":51,"timestamp":{"delta_seconds":0.05000000074505806,"elapsed_seconds":4.3936881525442},"control":{"throttle":0.0,"steer":0.017999999225139618,"brake":1.0,"hand_brake":false,"reverse":false,"manual_gear_shift":false,"gear":0},"transform":{"location":{"x":-41.66887664794922,"y":48.905540466308594,"z":0.0017717360751703382},"rotation":{"pitch":0.0,"yaw":-90.16118621826172,"roll":0.0}},"velocity":{"x":1.2683896599696709e-08,"y":-9.118621413506389e-10,"z":0.0006947803194634616},"angular_velocity":{"x":1.2405982943164418e-06,"y":2.5138288037851453e-05,"z":6.922001860587557e-10},"acceleration":{"x":-2.6542448949840036e-07,"y":2.938693732801312e-10,"z":-0.0033044815063476562},"speed_mps":0.0006947803195798386,"speed_kph":0.002501209150487419,"speed_limit_kph":30.0,"collisions_this_frame":[],"waypoint":{"x":-41.66884994506836,"y":48.905540466308594,"z":0.0},"lane_deviation_m":0.001771937240846455,"lane_width":3.5,"goal":{"x":48.546077728271484,"y":140.9755401611328,"z":0.6000009179115295},"fault":{"name":"tire_pressure_imbalance","severity":1.0},"capture_flags":{"save_rgb":true,"save_depth":false,"video_rgb":true,"video_depth":false}}
{"frame":52,"timestamp":{"delta_seconds":0.05000000074505806,"elapsed_seconds":4.4436881532892585},"control":{"throttle":0.0,"steer":0.023000000044703484,"brake":1.0,"hand_brake":false,"reverse":false,"manual_gear_shift":false,"gear":0},"transform":{"location":{"x":-41.66887664794922,"y":48.905540466308594,"z":0.0018015288515016437},"rotation":{"pitch":0.0,"yaw":-90.16118621826172,"roll":0.0}},"velocity":{"x":3.3633704710211987e-09,"y":-2.0637618280971992e-09,"z":0.0005325698875822127},"angular_velocity":{"x":2.872442564694211e-06,"y":6.3605234572605696e-06,"z":-1.2167242768867936e-09},"acceleration":{"x":-1.864105314552944e-07,"y":-2.3037994623109626e-08,"z":-0.003244208637624979},"speed_mps":0.0005325698875968317,"speed_kph":0.0019172515953485942,"speed_limit_kph":30.0,"collisions_this_frame":[],"waypoint":{"x":-41.66884994506836,"y":48.905540466308594,"z":0.0},"lane_deviation_m":0.0018017267575487494,"lane_width":3.5,"goal":{"x":48.546077728271484,"y":140.9755401611328,"z":0.6000009179115295},"fault":{"name":"tire_pressure_imbalance","severity":1.0},"capture_flags":{"save_rgb":true,"save_depth":false,"video_rgb":true,"video_depth":false}}
{"frame":53,"timestamp":{"delta_seconds":0.05000000074505806,"elapsed_seconds":4.4936881540343165},"control":{"throttle":0.0,"steer":0.024000000208616257,"brake":1.0,"hand_brake":false,"reverse":false,"manual_gear_shift":false,"gear":0},"transform":{"location":{"x":-41.66887664794922,"y":48.905540466308594,"z":0.0018238830380141735},"rotation":{"pitch":0.0,"yaw":-90.16118621826172,"roll":0.0}},"velocity":{"x":-8.606215118334148e-08,"y":-2.4956174904389172e-09,"z":0.00039403914706781507},"angular_velocity":{"x":3.6276755963626783e-06,"y":-0.00010454300354467705,"z":-8.852792277025401e-09},"acceleration":{"x":-1.788510417100042e-06,"y":-8.63711324683436e-09,"z":-0.0027706148102879524},"speed_mps":0.00039403915647414175,"speed_kph":0.0014185409633069104,"speed_limit_kph":30.0,"collisions_this_frame":[],"waypoint":{"x":-41.66884994506836,"y":48.905540466308594,"z":0.0},"lane_deviation_m":0.001824078499339521,"lane_width":3.5,"goal":{"x":48.546077728271484,"y":140.9755401611328,"z":0.6000009179115295},"fault":{"name":"tire_pressure_imbalance","severity":1.0},"capture_flags":{"save_rgb":true,"save_depth":false,"video_rgb":true,"video_depth":false}}
{"frame":54,"timestamp":{"delta_seconds":0.05000000074505806,"elapsed_seconds":4.543688154779375},"control":{"throttle":0.0,"steer":0.01600000075995922,"brake":1.0,"hand_brake":false,"reverse":false,"manual_gear_shift":false,"gear":0},"transform":{"location":{"x":-41.66887664794922,"y":48.905540466308594,"z":0.0018402481218799949},"rotation":{"pitch":0.0,"yaw":-90.16118621826172,"roll":0.0}},"velocity":{"x":-1.6595100849059463e-09,"y":-2.679933164273507e-09,"z":0.0002853012119885534},"angular_velocity":{"x":3.825549356406555e-06,"y":-2.0379411580506712e-06,"z":1.3991886538278209e-09},"acceleration":{"x":1.6880528619367396e-06,"y":-3.6863134766917938e-09,"z":-0.002174758818000555},"speed_mps":0.0002853012120059666,"speed_kph":0.0010270843632214797,"speed_limit_kph":30.0,"collisions_this_frame":[],"waypoint":{"x":-41.66884994506836,"y":48.905540466308594,"z":0.0},"lane_deviation_m":0.0018404418369755149,"lane_width":3.5,"goal":{"x":48.546077728271484,"y":140.9755401611328,"z":0.6000009179115295},"fault":{"name":"tire_pressure_imbalance","severity":1.0},"capture_flags":{"save_rgb":true,"save_depth":false,"video_rgb":true,"video_depth":false}}
{"frame":55,"timestamp":{"delta_seconds":0.05000000074505806,"elapsed_seconds":4.593688155524433},"control":{"throttle":0.0,"steer":0.014999999664723873,"brake":1.0,"hand_brake":false,"reverse":false,"manual_gear_shift":false,"gear":0},"transform":{"location":{"x":-41.66887664794922,"y":48.905540466308594,"z":0.0018519210861995816},"rotation":{"pitch":0.0,"yaw":-90.16118621826172,"roll":0.0}},"velocity":{"x":2.074590987888314e-08,"y":-2.154835421208645e-09,"z":0.0002029609604505822},"angular_velocity":{"x":3.10141263071273e-06,"y":1.2273982065380551e-05,"z":3.88476761870038e-09},"acceleration":{"x":4.481083806240349e-07,"y":1.0501954861297236e-08,"z":-0.0016468050889670849},"speed_mps":0.00020296096152230578,"speed_kph":0.0007306594614803008,"speed_limit_kph":30.0,"collisions_this_frame":[],"waypoint":{"x":-41.66884994506836,"y":48.905540466308594,"z":0.0},"lane_deviation_m":0.0018521136371418834,"lane_width":3.5,"goal":{"x":48.546077728271484,"y":140.9755401611328,"z":0.6000009179115295},"fault":{"name":"tire_pressure_imbalance","severity":1.0},"capture_flags":{"save_rgb":true,"save_depth":false,"video_rgb":true,"video_depth":false}}
{"frame":56,"timestamp":{"delta_seconds":0.05000000074505806,"elapsed_seconds":4.643688156269491},"control":{"throttle":0.0,"steer":0.02199999988079071,"brake":1.0,"hand_brake":false,"reverse":false,"manual_gear_shift":false,"gear":0},"transform":{"location":{"x":-41.66887664794922,"y":48.905540466308594,"z":0.0018543624319136143},"rotation":{"pitch":0.0,"yaw":-90.16118621826172,"roll":0.0}},"velocity":{"x":1.682983530315596e-09,"y":-1.334690047372078e-08,"z":7.45773286325857e-05},"angular_velocity":{"x":1.8715165424509905e-05,"y":5.6027180107776076e-05,"z":4.768683226075154e-09},"acceleration":{"x":-3.8125853052406455e-07,"y":-2.23841297497529e-07,"z":-0.00256767263635993},"speed_mps":7.457732984590474e-05,"speed_kph":0.0002684783874452571,"speed_limit_kph":30.0,"collisions_this_frame":[],"waypoint":{"x":-41.66884994506836,"y":48.905540466308594,"z":0.0},"lane_deviation_m":0.0018545547500252724,"lane_width":3.5,"goal":{"x":48.546077728271484,"y":140.9755401611328,"z":0.6000009179115295},"fault":{"name":"tire_pressure_imbalance","severity":1.0},"capture_flags":{"save_rgb":true,"save_depth":false,"video_rgb":true,"video_depth":false}}
{"frame":57,"timestamp":{"delta_seconds":0.05000000074505806,"elapsed_seconds":4.693688157014549},"control":{"throttle":0.0,"steer":0.009999999776482582,"brake":1.0,"hand_brake":false,"reverse":false,"manual_gear_shift":false,"gear":0},"transform":{"location":{"x":-41.66887664794922,"y":48.905540466308594,"z":0.0018587112426757812},"rotation":{"pitch":0.0,"yaw":-90.16118621826172,"roll":0.0}},"velocity":{"x":-1.8217122255137497e-10,"y":4.69790961687977e-09,"z":9.122848132392392e-05},"angular_velocity":{"x":-6.636865236941958e-06,"y":6.129300800239434e-07,"z":-1.3938281639980232e-09},"acceleration":{"x":-3.7303095723473234e-08,"y":3.6089619470658363e-07,"z":0.0003330230538267642},"speed_mps":9.122848144506777e-05,"speed_kph":0.000328422533202244,"speed_limit_kph":30.0,"collisions_this_frame":[],"waypoint":{"x":-41.66884994506836,"y":48.905540466308594,"z":0.0},"lane_deviation_m":0.001858903095126152,"lane_width":3.5,"goal":{"x":48.546077728271484,"y":140.9755401611328,"z":0.6000009179115295},"fault":{"name":"tire_pressure_imbalance","severity":1.0},"capture_flags":{"save_rgb":true,"save_depth":false,"video_rgb":true,"video_depth":false}}
{"frame":58,"timestamp":{"delta_seconds":0.05000000074505806,"elapsed_seconds":4.743688157759607},"control":{"throttle":0.0,"steer":0.026000000536441803,"brake":1.0,"hand_brake":false,"reverse":false,"manual_gear_shift":false,"gear":0},"transform":{"location":{"x":-41.66887664794922,"y":48.905540466308594,"z":0.0018631363054737449},"rotation":{"pitch":0.0,"yaw":-90.16118621826172,"roll":0.0}},"velocity":{"x":-3.2128535387698776e-09,"y":7.62848983981712e-09,"z":8.358001650776714e-05},"angular_velocity":{"x":-1.0758428288681898e-05,"y":-8.467787665722426e-06,"z":-2.852971636713164e-09},"acceleration":{"x":-6.06136438818794e-08,"y":5.8611604458747024e-08,"z":-0.0001529692963231355},"speed_mps":8.358001691765151e-05,"speed_kph":0.0003008880609035454,"speed_limit_kph":30.0,"collisions_this_frame":[],"waypoint":{"x":-41.66884994506836,"y":48.905540466308594,"z":0.0},"lane_deviation_m":0.0018633276922628284,"lane_width":3.5,"goal":{"x":48.546077728271484,"y":140.9755401611328,"z":0.6000009179115295},"fault":{"name":"tire_pressure_imbalance","severity":1.0},"capture_flags":{"save_rgb":true,"save_depth":false,"video_rgb":true,"video_depth":false}}
{"frame":59,"timestamp":{"delta_seconds":0.05000000074505806,"elapsed_seconds":4.793688158504665},"control":{"throttle":0.0,"steer":0.020999999716877937,"brake":1.0,"hand_brake":false,"reverse":false,"manual_gear_shift":false,"gear":0},"transform":{"location":{"x":-41.66887664794922,"y":48.905540466308594,"z":0.0018669128185138106},"rotation":{"pitch":0.0,"yaw":-90.16118621826172,"roll":0.0}},"velocity":{"x":-6.94463553330138e-09,"y":1.1351048101460037e-08,"z":7.024764636298642e-05},"angular_velocity":{"x":-1.3343889804673381e-05,"y":-1.9870438336511143e-05,"z":5.7509890183382595e-09},"acceleration":{"x":-7.463563633791637e-08,"y":7.445116523285833e-08,"z":-0.0002666474028956145},"speed_mps":7.024764762334362e-05,"speed_kph":0.00025289153144403704,"speed_limit_kph":30.0,"collisions_this_frame":[],"waypoint":{"x":-41.66884994506836,"y":48.905540466308594,"z":0.0},"lane_deviation_m":0.0018671038560569286,"lane_width":3.5,"goal":{"x":48.546077728271484,"y":140.9755401611328,"z":0.6000009179115295},"fault":{"name":"tire_pressure_imbalance","severity":1.0},"capture_flags":{"save_rgb":true,"save_depth":false,"video_rgb":true,"video_depth":false}}
{"frame":60,"timestamp":{"delta_seconds":0.05000000074505806,"elapsed_seconds":4.843688159249723},"control":{"throttle":0.0,"steer":0.020999999716877937,"brake":1.0,"hand_brake":false,"reverse":false,"manual_gear_shift":false,"gear":0},"transform":{"location":{"x":-41.66887664794922,"y":48.905540466308594,"z":0.001869964529760182},"rotation":{"pitch":0.0,"yaw":-90.16118621826172,"roll":0.0}},"velocity":{"x":3.5049971813805314e-08,"y":-3.1625200236362616e-09,"z":5.4693220590706915e-05},"angular_velocity":{"x":3.296277554909466e-06,"y":1.4812330846325494e-05,"z":-1.9557868657926747e-09},"acceleration":{"x":8.398921522712044e-07,"y":-2.90271373160067e-07,"z":-0.00031108851544559},"speed_mps":5.4693231912968755e-05,"speed_kph":0.0001968956348866875,"speed_limit_kph":30.0,"collisions_this_frame":[],"waypoint":{"x":-41.66884994506836,"y":48.905540466308594,"z":0.0},"lane_deviation_m":0.0018701551016420126,"lane_width":3.5,"goal":{"x":48.546077728271484,"y":140.9755401611328,"z":0.6000009179115295},"fault":{"name":"tire_pressure_imbalance","severity":1.0},"capture_flags":{"save_rgb":true,"save_depth":false,"video_rgb":true,"video_depth":false}}
{"frame":61,"timestamp":{"delta_seconds":0.05000000074505806,"elapsed_seconds":4.893688159994781},"control":{"throttle":0.0,"steer":0.013000000268220901,"brake":1.0,"hand_brake":false,"reverse":false,"manual_gear_shift":false,"gear":0},"transform":{"location":{"x":-41.66887664794922,"y":48.905540466308594,"z":0.0018722915556281805},"rotation":{"pitch":0.0,"yaw":-90.16118621826172,"roll":0.0}},"velocity":{"x":-5.243599687787537e-08,"y":1.3195242232200144e-08,"z":4.157066359766759e-05},"angular_velocity":{"x":-1.7368018234265037e-05,"y":-4.5276774471858516e-05,"z":-7.927867251567022e-09},"acceleration":{"x":-1.7497194448878872e-06,"y":3.271552486694418e-07,"z":-0.00026245112530887127},"speed_mps":4.1570698762453244e-05,"speed_kph":0.0001496545155448317,"speed_limit_kph":30.0,"collisions_this_frame":[],"waypoint":{"x":-41.66884994506836,"y":48.905540466308594,"z":0.0},"lane_deviation_m":0.0018724820110946894,"lane_width":3.5,"goal":{"x":48.546077728271484,"y":140.9755401611328,"z":0.6000009179115295},"fault":{"name":"tire_pressure_imbalance","severity":1.0},"capture_flags":{"save_rgb":true,"save_depth":false,"video_rgb":true,"video_depth":false}}
{"frame":62,"timestamp":{"delta_seconds":0.05000000074505806,"elapsed_seconds":4.943688160739839},"control":{"throttle":0.0,"steer":0.028999999165534973,"brake":1.0,"hand_brake":false,"reverse":false,"manual_gear_shift":false,"gear":0},"transform":{"location":{"x":-41.66887664794922,"y":48.905540466308594,"z":0.0018740080995485187},"rotation":{"pitch":0.0,"yaw":-90.16118621826172,"roll":0.0}},"velocity":{"x":1.15139426881683e-08,"y":-1.7433704480041001e-09,"z":3.0775070626987144e-05},"angular_velocity":{"x":2.35483503274736e-06,"y":2.7925063477596268e-05,"z":2.0565367186975436e-09},"acceleration":{"x":1.2789987522410229e-06,"y":-2.98772249607282e-07,"z":-0.0002159118594136089},"speed_mps":3.077507283023492e-05,"speed_kph":0.00011079026218884572,"speed_limit_kph":30.0,"collisions_this_frame":[],"waypoint":{"x":-41.66884994506836,"y":48.905540466308594,"z":0.0},"lane_deviation_m":0.0018741983221843839,"lane_width":3.5,"goal":{"x":48.546077728271484,"y":140.9755401611328,"z":0.6000009179115295},"fault":{"name":"tire_pressure_imbalance","severity":1.0},"capture_flags":{"save_rgb":true,"save_depth":false,"video_rgb":true,"video_depth":false}}
{"frame":63,"timestamp":{"delta_seconds":0.05000000074505806,"elapsed_seconds":4.993688161484897},"control":{"throttle":0.0,"steer":0.02500000037252903,"brake":1.0,"hand_brake":false,"reverse":false,"manual_gear_shift":false,"gear":0},"transform":{"location":{"x":-41.66887664794922,"y":48.905540466308594,"z":0.0018752670148387551},"rotation":{"pitch":0.0,"yaw":-90.16118621826172,"roll":0.0}},"velocity":{"x":-3.3235519225627286e-08,"y":1.3699438916603413e-08,"z":2.140045035048388e-05},"angular_velocity":{"x":-1.796729520719964e-05,"y":-4.78925030620303e-05,"z":-1.0066616873416478e-08},"acceleration":{"x":-8.949892844611895e-07,"y":3.0885618684806104e-07,"z":-0.0001874924055300653},"speed_mps":2.1400480543153475e-05,"speed_kph":7.704172995535251e-05,"speed_limit_kph":30.0,"collisions_this_frame":[],"waypoint":{"x":-41.66884994506836,"y":48.905540466308594,"z":0.0},"lane_deviation_m":0.0018754571210592985,"lane_width":3.5,"goal":{"x":48.546077728271484,"y":140.9755401611328,"z":0.6000009179115295},"fault":{"name":"tire_pressure_imbalance","severity":1.0},"capture_flags":{"save_rgb":true,"save_depth":false,"video_rgb":true,"video_depth":false}}
{"frame":64,"timestamp":{"delta_seconds":0.05000000074505806,"elapsed_seconds":5.043688162229955},"control":{"throttle":0.0,"steer":0.02199999988079071,"brake":1.0,"hand_brake":false,"reverse":false,"manual_gear_shift":false,"gear":0},"transform":{"location":{"x":-41.66887664794922,"y":48.905540466308594,"z":0.0018752670148387551},"rotation":{"pitch":0.0,"yaw":-90.16118621826172,"roll":0.0}},"velocity":{"x":1.2226751167077055e-08,"y":-7.360938525380334e-10,"z":5.0354001359664835e-06},"angular_velocity":{"x":9.83173322310904e-07,"y":1.7672580725047737e-05,"z":1.3394163556057492e-09},"acceleration":{"x":9.092454433812236e-07,"y":-2.8871065183011524e-07,"z":-0.0003273010370321572},"speed_mps":5.035415033993677e-06,"speed_kph":1.812749412237724e-05,"speed_limit_kph":30.0,"collisions_this_frame":[],"waypoint":{"x":-41.66884994506836,"y":48.905540466308594,"z":0.0},"lane_deviation_m":0.0018754571210592985,"lane_width":3.5,"goal":{"x":48.546077728271484,"y":140.9755401611328,"z":0.6000009179115295},"fault":{"name":"tire_pressure_imbalance","severity":1.0},"capture_flags":{"save_rgb":true,"save_depth":false,"video_rgb":true,"video_depth":false}}
{"frame":65,"timestamp":{"delta_seconds":0.05000000074505806,"elapsed_seconds":5.093688162975013},"control":{"throttle":0.0,"steer":0.01600000075995922,"brake":1.0,"hand_brake":false,"reverse":false,"manual_gear_shift":false,"gear":0},"transform":{"location":{"x":-41.66887664794922,"y":48.905540466308594,"z":0.0018752670148387551},"rotation":{"pitch":0.0,"yaw":-90.16118621826172,"roll":0.0}},"velocity":{"x":7.279349345523656e-10,"y":-5.655702572937571e-10,"z":8.363723281945568e-06},"angular_velocity":{"x":7.908005841272825e-07,"y":3.762947926588822e-06,"z":2.376019103689231e-10},"acceleration":{"x":-2.2997632243004773e-07,"y":3.410471904885526e-09,"z":6.656646291958168e-05},"speed_mps":8.363723332745849e-06,"speed_kph":3.0109403997885055e-05,"speed_limit_kph":30.0,"collisions_this_frame":[],"waypoint":{"x":-41.66884994506836,"y":48.905540466308594,"z":0.0},"lane_deviation_m":0.0018754571210592985,"lane_width":3.5,"goal":{"x":48.546077728271484,"y":140.9755401611328,"z":0.6000009179115295},"fault":{"name":"tire_pressure_imbalance","severity":1.0},"capture_flags":{"save_rgb":true,"save_depth":false,"video_rgb":true,"video_depth":false}}
{"frame":66,"timestamp":{"delta_seconds":0.05000000074505806,"elapsed_seconds":5.143688163720071},"control":{"throttle":0.0,"steer":0.019999999552965164,"brake":1.0,"hand_brake":false,"reverse":false,"manual_gear_shift":false,"gear":0},"transform":{"location":{"x":-41.66887664794922,"y":48.905540466308594,"z":0.0018764877459034324},"rotation":{"pitch":0.0,"yaw":-90.16118621826172,"roll":0.0}},"velocity":{"x":-3.195314846049513e-10,"y":-1.6292703297615674e-10,"z":9.222030712408014e-06},"angular_velocity":{"x":2.2223923679121071e-07,"y":2.9020438887528144e-06,"z":1.6687462175979384e-11},"acceleration":{"x":-2.094932938234706e-08,"y":8.0528641532851e-09,"z":1.716614860924892e-05},"speed_mps":9.222030719382918e-06,"speed_kph":3.3199310589778504e-05,"speed_limit_kph":30.0,"collisions_this_frame":[],"waypoint":{"x":-41.66884994506836,"y":48.905540466308594,"z":0.0},"lane_deviation_m":0.001876677735708654,"lane_width":3.5,"goal":{"x":48.546077728271484,"y":140.9755401611328,"z":0.6000009179115295},"fault":{"name":"tire_pressure_imbalance","severity":1.0},"capture_flags":{"save_rgb":true,"save_depth":false,"video_rgb":true,"video_depth":false}}
{"frame":67,"timestamp":{"delta_seconds":0.05000000074505806,"elapsed_seconds":5.193688164465129},"control":{"throttle":0.0,"steer":0.023000000044703484,"brake":1.0,"hand_brake":false,"reverse":false,"manual_gear_shift":false,"gear":0},"transform":{"location":{"x":-41.66887664794922,"y":48.905540466308594,"z":0.0018764877459034324},"rotation":{"pitch":0.0,"yaw":-90.16118621826172,"roll":0.0}},"velocity":{"x":3.280199722954791e-10,"y":3.504771195483869e-10,"z":8.354187229997478e-06},"angular_velocity":{"x":-5.07054096487991e-07,"y":2.5816445941018173e-06,"z":-7.640409138698345e-11},"acceleration":{"x":1.2951028693919397e-08,"y":1.0268083272535478e-08,"z":-1.7356869648210704e-05},"speed_mps":8.354187243788845e-06,"speed_kph":3.0075074077639845e-05,"speed_limit_kph":30.0,"collisions_this_frame":[],"waypoint":{"x":-41.66884994506836,"y":48.905540466308594,"z":0.0},"lane_deviation_m":0.001876677735708654,"lane_width":3.5,"goal":{"x":48.546077728271484,"y":140.9755401611328,"z":0.6000009179115295},"fault":{"name":"tire_pressure_imbalance","severity":1.0},"capture_flags":{"save_rgb":true,"save_depth":false,"video_rgb":true,"video_depth":false}}
{"frame":68,"timestamp":{"delta_seconds":0.05000000074505806,"elapsed_seconds":5.243688165210187},"control":{"throttle":0.0,"steer":0.019999999552965164,"brake":1.0,"hand_brake":false,"reverse":false,"manual_gear_shift":false,"gear":0},"transform":{"location":{"x":-41.66887664794922,"y":48.905540466308594,"z":0.0018764877459034324},"rotation":{"pitch":0.0,"yaw":-90.16118621826172,"roll":0.0}},"velocity":{"x":-8.228229764206674e-10,"y":2.01313465897357e-10,"z":5.788802809547633e-06},"angular_velocity":{"x":-2.9913903176748136e-07,"y":-1.0448140983498888e-06,"z":-1.4565794403953447e-10},"acceleration":{"x":-2.301685952943444e-08,"y":-2.9832731840429005e-09,"z":-5.130768840899691e-05},"speed_mps":5.788802871526317e-06,"speed_kph":2.083969033749474e-05,"speed_limit_kph":30.0,"collisions_this_frame":[],"waypoint":{"x":-41.66884994506836,"y":48.905540466308594,"z":0.0},"lane_deviation_m":0.001876677735708654,"lane_width":3.5,"goal":{"x":48.546077728271484,"y":140.9755401611328,"z":0.6000009179115295},"fault":{"name":"tire_pressure_imbalance","severity":1.0},"capture_flags":{"save_rgb":true,"save_depth":false,"video_rgb":true,"video_depth":false}}
{"frame":69,"timestamp":{"delta_seconds":0.05000000074505806,"elapsed_seconds":5.2936881659552455},"control":{"throttle":0.0,"steer":0.01899999938905239,"brake":1.0,"hand_brake":false,"reverse":false,"manual_gear_shift":false,"gear":0},"transform":{"location":{"x":-41.66887664794922,"y":48.905540466308594,"z":0.0018764877459034324},"rotation":{"pitch":0.0,"yaw":-90.16118621826172,"roll":0.0}},"velocity":{"x":-6.805878083326888e-09,"y":-4.5533718462387185e-10,"z":4.730224645754788e-06},"angular_velocity":{"x":6.229098516996601e-07,"y":1.0435927606522455e-06,"z":-3.031288553501099e-09},"acceleration":{"x":-1.1966109525474167e-07,"y":-1.3133012899402274e-08,"z":-2.1171563275856897e-05},"speed_mps":4.7302295638387835e-06,"speed_kph":1.702882642981962e-05,"speed_limit_kph":30.0,"collisions_this_frame":[],"waypoint":{"x":-41.66884994506836,"y":48.905540466308594,"z":0.0},"lane_deviation_m":0.001876677735708654,"lane_width":3.5,"goal":{"x":48.546077728271484,"y":140.9755401611328,"z":0.6000009179115295},"fault":{"name":"tire_pressure_imbalance","severity":1.0},"capture_flags":{"save_rgb":true,"save_depth":false,"video_rgb":true,"video_depth":false}}
{"frame":70,"timestamp":{"delta_seconds":0.05000000074505806,"elapsed_seconds":5.3436881667003036},"control":{"throttle":0.0,"steer":0.029999999329447746,"brake":1.0,"hand_brake":false,"reverse":false,"manual_gear_shift":false,"gear":0},"transform":{"location":{"x":-41.66887664794922,"y":48.905540466308594,"z":0.0018776321085169911},"rotation":{"pitch":0.0,"yaw":-90.16118621826172,"roll":0.0}},"velocity":{"x":-1.1554040391104081e-08,"y":-1.3671163090478444e-09,"z":3.5381315228733e-06},"angular_velocity":{"x":1.892954855975404e-06,"y":-1.0436084266984835e-05,"z":3.291605529809338e-11},"acceleration":{"x":-9.49632479319007e-08,"y":-1.823558193336794e-08,"z":-2.3841861548135057e-05},"speed_mps":3.5381506522484453e-06,"speed_kph":1.2737342348094404e-05,"speed_limit_kph":30.0,"collisions_this_frame":[],"waypoint":{"x":-41.66884994506836,"y":48.905540466308594,"z":0.0},"lane_deviation_m":0.0018778219819068909,"lane_width":3.5,"goal":{"x":48.546077728271484,"y":140.9755401611328,"z":0.6000009179115295},"fault":{"name":"tire_pressure_imbalance","severity":1.0},"capture_flags":{"save_rgb":true,"save_depth":false,"video_rgb":true,"video_depth":false}}
{"frame":71,"timestamp":{"delta_seconds":0.05000000074505806,"elapsed_seconds":5.393688167445362},"control":{"throttle":0.0,"steer":0.02500000037252903,"brake":1.0,"hand_brake":false,"reverse":false,"manual_gear_shift":false,"gear":0},"transform":{"location":{"x":-41.66887664794922,"y":48.905540466308594,"z":0.0018776321085169911},"rotation":{"pitch":0.0,"yaw":-90.16118621826172,"roll":0.0}},"velocity":{"x":6.755885095799385e-08,"y":-1.743419453248407e-08,"z":1.821517912503623e-06},"angular_velocity":{"x":2.2235841242945753e-05,"y":5.069887629360892e-05,"z":9.770150022347934e-09},"acceleration":{"x":1.5822579371160828e-06,"y":-3.213415595837432e-07,"z":-3.433227175264619e-05},"speed_mps":1.8228537119180235e-06,"speed_kph":6.562273362904885e-06,"speed_limit_kph":30.0,"collisions_this_frame":[],"waypoint":{"x":-41.66884994506836,"y":48.905540466308594,"z":0.0},"lane_deviation_m":0.0018778219819068909,"lane_width":3.5,"goal":{"x":48.546077728271484,"y":140.9755401611328,"z":0.6000009179115295},"fault":{"name":"tire_pressure_imbalance","severity":1.0},"capture_flags":{"save_rgb":true,"save_depth":false,"video_rgb":true,"video_depth":false}}
{"frame":72,"timestamp":{"delta_seconds":0.05000000074505806,"elapsed_seconds":5.44368816819042},"control":{"throttle":0.0,"steer":0.026000000536441803,"brake":1.0,"hand_brake":false,"reverse":false,"manual_gear_shift":false,"gear":0},"transform":{"location":{"x":-41.66887664794922,"y":48.905540466308594,"z":0.0018776321085169911},"rotation":{"pitch":0.0,"yaw":-90.16118621826172,"roll":0.0}},"velocity":{"x":0.0,"y":0.0,"z":0.0},"angular_velocity":{"x":0.0,"y":0.0,"z":0.0},"acceleration":{"x":-1.3511770475815865e-06,"y":3.486838977551088e-07,"z":-3.643035961431451e-05},"speed_mps":0.0,"speed_kph":0.0,"speed_limit_kph":30.0,"collisions_this_frame":[],"waypoint":{"x":-41.66884994506836,"y":48.905540466308594,"z":0.0},"lane_deviation_m":0.0018778219819068909,"lane_width":3.5,"goal":{"x":48.546077728271484,"y":140.9755401611328,"z":0.6000009179115295},"fault":{"name":"tire_pressure_imbalance","severity":1.0},"capture_flags":{"save_rgb":true,"save_depth":false,"video_rgb":true,"video_depth":false}}
{"frame":73,"timestamp":{"delta_seconds":0.05000000074505806,"elapsed_seconds":5.493688168935478},"control":{"throttle":0.0,"steer":0.014999999664723873,"brake":1.0,"hand_brake":false,"reverse":false,"manual_gear_shift":false,"gear":0},"transform":{"location":{"x":-41.66887664794922,"y":48.905540466308594,"z":0.0018776321085169911},"rotation":{"pitch":0.0,"yaw":-90.16118621826172,"roll":0.0}},"velocity":{"x":4.557363098012246e-10,"y":-8.307652898942308e-10,"z":1.09672544112982e-06},"angular_velocity":{"x":1.1650804481178056e-06,"y":2.1659232061210787e-06,"z":1.965013013416339e-10},"acceleration":{"x":9.114725862957584e-09,"y":-1.661530646401843e-08,"z":2.193450927734375e-05},"speed_mps":1.0967258504694549e-06,"speed_kph":3.9482130616900375e-06,"speed_limit_kph":30.0,"collisions_this_frame":[],"waypoint":{"x":-41.66884994506836,"y":48.905540466308594,"z":0.0},"lane_deviation_m":0.0018778219819068909,"lane_width":3.5,"goal":{"x":48.546077728271484,"y":140.9755401611328,"z":0.6000009179115295},"fault":{"name":"tire_pressure_imbalance","severity":1.0},"capture_flags":{"save_rgb":true,"save_depth":false,"video_rgb":true,"video_depth":false}}
{"frame":74,"timestamp":{"delta_seconds":0.05000000074505806,"elapsed_seconds":5.543688169680536},"control":{"throttle":0.0,"steer":0.017999999225139618,"brake":1.0,"hand_brake":false,"reverse":false,"manual_gear_shift":false,"gear":0},"transform":{"location":{"x":-41.66887664794922,"y":48.905540466308594,"z":0.0018776321085169911},"rotation":{"pitch":0.0,"yaw":-90.16118621826172,"roll":0.0}},"velocity":{"x":-1.0513413251089787e-08,"y":-5.016440041138992e-10,"z":1.3923644246460753e-06},"angular_velocity":{"x":7.256074923134292e-07,"y":-1.3661224329553079e-05,"z":-8.980171606332021e-10},"acceleration":{"x":-2.1938298289114755e-07,"y":6.582425715606632e-09,"z":5.912779670325108e-06},"speed_mps":1.3924042065883353e-06,"speed_kph":5.012655143718008e-06,"speed_limit_kph":30.0,"collisions_this_frame":[],"waypoint":{"x":-41.66884994506836,"y":48.905540466308594,"z":0.0},"lane_deviation_m":0.0018778219819068909,"lane_width":3.5,"goal":{"x":48.546077728271484,"y":140.9755401611328,"z":0.6000009179115295},"fault":{"name":"tire_pressure_imbalance","severity":1.0},"capture_flags":{"save_rgb":true,"save_depth":false,"video_rgb":true,"video_depth":false}}
{"frame":75,"timestamp":{"delta_seconds":0.05000000074505806,"elapsed_seconds":5.593688170425594},"control":{"throttle":0.0,"steer":0.023000000044703484,"brake":1.0,"hand_brake":false,"reverse":false,"manual_gear_shift":false,"gear":0},"transform":{"location":{"x":-41.66887664794922,"y":48.905540466308594,"z":0.0018776321085169911},"rotation":{"pitch":0.0,"yaw":-90.16118621826172,"roll":0.0}},"velocity":{"x":8.531137751788265e-08,"y":-9.536516021313446e-10,"z":1.5258788153005298e-06},"angular_velocity":{"x":1.3390746289587696e-06,"y":9.375583613291383e-05,"z":1.042508124271535e-08},"acceleration":{"x":1.9164958757755812e-06,"y":-9.040151738304303e-09,"z":2.6702878130890895e-06},"speed_mps":1.5282621174289199e-06,"speed_kph":5.501743622744112e-06,"speed_limit_kph":30.0,"collisions_this_frame":[],"waypoint":{"x":-41.66884994506836,"y":48.905540466308594,"z":0.0},"lane_deviation_m":0.0018778219819068909,"lane_width":3.5,"goal":{"x":48.546077728271484,"y":140.9755401611328,"z":0.6000009179115295},"fault":{"name":"tire_pressure_imbalance","severity":1.0},"capture_flags":{"save_rgb":true,"save_depth":false,"video_rgb":true,"video_depth":false}}
