{"frame":107,"timestamp":{"delta_seconds":0.05000000074505806,"elapsed_seconds":4.895947896875441},"control":{"throttle":0.0,"steer":0.0,"brake":1.0,"hand_brake":false,"reverse":false,"manual_gear_shift":false,"gear":0},"transform":{"location":{"x":-87.6230239868164,"y":12.967159271240234,"z":0.48239994049072266},"rotation":{"pitch":0.0,"yaw":-179.84078979492188,"roll":0.0}},"velocity":{"x":0.0,"y":0.0,"z":-1.470000147819519},"angular_velocity":{"x":0.0,"y":0.0,"z":0.0},"acceleration":{"x":0.0,"y":0.0,"z":-9.80000114440918},"speed_mps":1.470000147819519,"speed_kph":5.2920005321502686,"speed_limit_kph":30.0,"collisions_this_frame":[],"waypoint":{"x":-87.62295532226562,"y":12.94051742553711,"z":0.0},"lane_deviation_m":0.48313507437705994,"lane_width":3.5,"goal":{"x":57.40364456176758,"y":28.34353256225586,"z":0.5999999642372131},"fault":{"name":"tire_pressure_imbalance","severity":1.0},"capture_flags":{"save_rgb":true,"save_depth":false,"video_rgb":true,"video_depth":false}}
{"frame":108,"timestamp":{"delta_seconds":0.05000000074505806,"elapsed_seconds":4.945947897620499},"control":{"throttle":1.0,"steer":0.3400000035762787,"brake":0.0,"hand_brake":false,"reverse":false,"manual_gear_shift":false,"gear":0},"transform":{"location":{"x":-87.6230239868164,"y":12.967159271240234,"z":0.394199937582016},"rotation":{"pitch":0.0,"yaw":-179.84078979492188,"roll":0.0}},"velocity":{"x":0.0,"y":0.0,"z":-1.9600002765655518},"angular_velocity":{"x":0.0,"y":0.0,"z":0.0},"acceleration":{"x":0.0,"y":0.0,"z":-9.800003051757812},"speed_mps":1.9600002765655518,"speed_kph":7.056000995635986,"speed_limit_kph":30.0,"collisions_this_frame":[],"waypoint":{"x":-87.62295532226562,"y":12.94051742553711,"z":0.0},"lane_deviation_m":0.3950991928577423,"lane_width":3.5,"goal":{"x":57.40364456176758,"y":28.34353256225586,"z":0.5999999642372131},"fault":{"name":"tire_pressure_imbalance","severity":1.0},"capture_flags":{"save_rgb":true,"save_depth":false,"video_rgb":true,"video_depth":false}}
{"frame":109,"timestamp":{"delta_seconds":0.05000000074505806,"elapsed_seconds":4.995947898365557},"control":{"throttle":1.0,"steer":0.3709999918937683,"brake":0.0,"hand_brake":false,"reverse":false,"manual_gear_shift":false,"gear":0},"transform":{"location":{"x":-87.6230239868164,"y":12.967159271240234,"z":0.281499981880188},"rotation":{"pitch":0.0,"yaw":-179.84078979492188,"roll":0.0}},"velocity":{"x":0.0,"y":0.0,"z":-2.450000286102295},"angular_velocity":{"x":0.0,"y":0.0,"z":0.0},"acceleration":{"x":0.0,"y":0.0,"z":-9.800000190734863},"speed_mps":2.450000286102295,"speed_kph":8.820001029968262,"speed_limit_kph":30.0,"collisions_this_frame":[],"waypoint":{"x":-87.62295532226562,"y":12.94051742553711,"z":0.0},"lane_deviation_m":0.2827579081058502,"lane_width":3.5,"goal":{"x":57.40364456176758,"y":28.34353256225586,"z":0.5999999642372131},"fault":{"name":"tire_pressure_imbalance","severity":1.0},"capture_flags":{"save_rgb":true,"save_depth":false,"video_rgb":true,"video_depth":false}}
{"frame":110,"timestamp":{"delta_seconds":0.05000000074505806,"elapsed_seconds":5.045947899110615},"control":{"throttle":1.0,"steer":0.3149999976158142,"brake":0.0,"hand_brake":false,"reverse":false,"manual_gear_shift":false,"gear":0},"transform":{"location":{"x":-87.6230239868164,"y":12.967159271240234,"z":0.14429987967014313},"rotation":{"pitch":0.0,"yaw":-179.84078979492188,"roll":0.0}},"velocity":{"x":0.0,"y":0.0,"z":-2.93999981880188},"angular_velocity":{"x":0.0,"y":0.0,"z":0.0},"acceleration":{"x":0.0,"y":0.0,"z":-9.7999906539917},"speed_mps":2.93999981880188,"speed_kph":10.583999347686769,"speed_limit_kph":30.0,"collisions_this_frame":[],"waypoint":{"x":-87.62295532226562,"y":12.94051742553711,"z":0.0},"lane_deviation_m":0.1467387080192566,"lane_width":3.5,"goal":{"x":57.40364456176758,"y":28.34353256225586,"z":0.5999999642372131},"fault":{"name":"tire_pressure_imbalance","severity":1.0},"capture_flags":{"save_rgb":true,"save_depth":false,"video_rgb":true,"video_depth":false}}
{"frame":111,"timestamp":{"delta_seconds":0.05000000074505806,"elapsed_seconds":5.095947899855673},"control":{"throttle":1.0,"steer":0.27900001406669617,"brake":0.0,"hand_brake":false,"reverse":false,"manual_gear_shift":false,"gear":0},"transform":{"location":{"x":-87.62305450439453,"y":12.965801239013672,"z":0.00950542464852333},"rotation":{"pitch":0.0811699628829956,"yaw":-179.78631591796875,"roll":-0.2052612006664276}},"velocity":{"x":0.010254859924316406,"y":0.014750277623534203,"z":-1.9992612600326538},"angular_velocity":{"x":-5.9935126304626465,"y":2.6394155025482178,"z":0.4981948137283325},"acceleration":{"x":0.20509719848632812,"y":0.29500555992126465,"z":18.81477165222168},"speed_mps":1.9993419714269476,"speed_kph":7.197631097137012,"speed_limit_kph":30.0,"collisions_this_frame":[],"waypoint":{"x":-87.62298583984375,"y":12.94051742553711,"z":0.0},"lane_deviation_m":0.027011645957827568,"lane_width":3.5,"goal":{"x":57.40364456176758,"y":28.34353256225586,"z":0.5999999642372131},"fault":{"name":"tire_pressure_imbalance","severity":1.0},"capture_flags":{"save_rgb":true,"save_depth":false,"video_rgb":true,"video_depth":false}}
{"frame":112,"timestamp":{"delta_seconds":0.05000000074505806,"elapsed_seconds":5.145947900600731},"control":{"throttle":1.0,"steer":0.20600000023841858,"brake":0.0,"hand_brake":false,"reverse":false,"manual_gear_shift":false,"gear":0},"transform":{"location":{"x":-87.62345886230469,"y":12.965288162231445,"z":-0.04777248203754425},"rotation":{"pitch":0.19154581427574158,"yaw":-179.76644897460938,"roll":-0.4170227348804474}},"velocity":{"x":0.005024382844567299,"y":0.013525133021175861,"z":-0.6868888139724731},"angular_velocity":{"x":-2.794156789779663,"y":1.6724108457565308,"z":0.25037285685539246},"acceleration":{"x":-0.10460954159498215,"y":-0.024502892047166824,"z":26.247447967529297},"speed_mps":0.6870403309899064,"speed_kph":2.473345191563663,"speed_limit_kph":30.0,"collisions_this_frame":[],"waypoint":{"x":-87.6233901977539,"y":12.940515518188477,"z":0.0},"lane_deviation_m":0.05381355434656143,"lane_width":3.5,"goal":{"x":57.40364456176758,"y":28.34353256225586,"z":0.5999999642372131},"fault":{"name":"tire_pressure_imbalance","severity":1.0},"capture_flags":{"save_rgb":true,"save_depth":false,"video_rgb":true,"video_depth":false}}
{"frame":113,"timestamp":{"delta_seconds":0.05000000074505806,"elapsed_seconds":5.195947901345789},"control":{"throttle":1.0,"steer":0.23800000548362732,"brake":0.0,"hand_brake":false,"reverse":false,"manual_gear_shift":false,"gear":0},"transform":{"location":{"x":-87.62349700927734,"y":12.965733528137207,"z":-0.06214752048254013},"rotation":{"pitch":0.2046051323413849,"yaw":-179.7619171142578,"roll":-0.40304556488990784}},"velocity":{"x":-0.0004445032973308116,"y":0.006385572254657745,"z":-0.07724350690841675},"angular_velocity":{"x":3.11360764503479,"y":-1.053198218345642,"z":0.04436229541897774},"acceleration":{"x":-0.10937772691249847,"y":-0.14279121160507202,"z":12.192906379699707},"speed_mps":0.07750827359521961,"speed_kph":0.2790297849427906,"speed_limit_kph":30.0,"collisions_this_frame":[],"waypoint":{"x":-87.62342834472656,"y":12.940515518188477,"z":0.0},"lane_deviation_m":0.06706912070512772,"lane_width":3.5,"goal":{"x":57.40364456176758,"y":28.34353256225586,"z":0.5999999642372131},"fault":{"name":"tire_pressure_imbalance","severity":1.0},"capture_flags":{"save_rgb":true,"save_depth":false,"video_rgb":true,"video_depth":false}}
{"frame":114,"timestamp":{"delta_seconds":0.05000000074505806,"elapsed_seconds":5.2459479020908475},"control":{"throttle":1.0,"steer":0.21799999475479126,"brake":0.0,"hand_brake":false,"reverse":false,"manual_gear_shift":false,"gear":0},"transform":{"location":{"x":-87.62326049804688,"y":12.966131210327148,"z":-0.05812797322869301},"rotation":{"pitch":0.16761966049671173,"yaw":-179.76319885253906,"roll":-0.331451416015625}},"velocity":{"x":-0.0013967572012916207,"y":-0.001526429783552885,"z":0.1475592702627182},"angular_velocity":{"x":1.402579426765442,"y":-0.7292653322219849,"z":-0.059891898185014725},"acceleration":{"x":-0.01904507912695408,"y":-0.15824005007743835,"z":4.496055603027344},"speed_mps":0.14757377530926485,"speed_kph":0.5312655911133535,"speed_limit_kph":30.0,"collisions_this_frame":[],"waypoint":{"x":-87.6231918334961,"y":12.940515518188477,"z":0.0},"lane_deviation_m":0.06352188438177109,"lane_width":3.5,"goal":{"x":57.40364456176758,"y":28.34353256225586,"z":0.5999999642372131},"fault":{"name":"tire_pressure_imbalance","severity":1.0},"capture_flags":{"save_rgb":true,"save_depth":false,"video_rgb":true,"video_depth":false}}
{"frame":115,"timestamp":{"delta_seconds":0.05000000074505806,"elapsed_seconds":5.2959479028359056},"control":{"throttle":1.0,"steer":0.19099999964237213,"brake":0.0,"hand_brake":false,"reverse":false,"manual_gear_shift":false,"gear":0},"transform":{"location":{"x":-87.62309265136719,"y":12.966546058654785,"z":-0.048191945999860764},"rotation":{"pitch":0.13029268383979797,"yaw":-179.7673797607422,"roll":-0.2608031928539276}},"velocity":{"x":-0.002074021380394697,"y":-0.0014867085264995694,"z":0.21196511387825012},"angular_velocity":{"x":1.3975319862365723,"y":-0.7354331612586975,"z":-0.09836403280496597},"acceleration":{"x":-0.013545284047722816,"y":0.0007944251410663128,"z":1.2881169319152832},"speed_mps":0.21198047402614384,"speed_kph":0.7631297064941178,"speed_limit_kph":30.0,"collisions_this_frame":[],"waypoint":{"x":-87.6230239868164,"y":12.940515518188477,"z":0.0},"lane_deviation_m":0.05477277934551239,"lane_width":3.5,"goal":{"x":57.40364456176758,"y":28.34353256225586,"z":0.5999999642372131},"fault":{"name":"tire_pressure_imbalance","severity":1.0},"capture_flags":{"save_rgb":true,"save_depth":false,"video_rgb":true,"video_depth":false}}
{"frame":116,"timestamp":{"delta_seconds":0.05000000074505806,"elapsed_seconds":5.345947903580964},"control":{"throttle":1.0,"steer":0.22100000083446503,"brake":0.0,"hand_brake":false,"reverse":false,"manual_gear_shift":false,"gear":0},"transform":{"location":{"x":-87.62936401367188,"y":12.966291427612305,"z":-0.037407759577035904},"rotation":{"pitch":0.10454286634922028,"yaw":-179.75096130371094,"roll":-0.20095820724964142}},"velocity":{"x":-0.36856094002723694,"y":-0.04580049589276314,"z":0.20692501962184906},"angular_velocity":{"x":1.072661280632019,"y":-0.23283985257148743,"z":0.8206659555435181},"acceleration":{"x":-7.329738140106201,"y":-0.8862757682800293,"z":-0.10080188512802124},"speed_mps":0.4251503447996793,"speed_kph":1.5305412412788455,"speed_limit_kph":30.0,"collisions_this_frame":[],"waypoint":{"x":-87.6292953491211,"y":12.940498352050781,"z":0.0},"lane_deviation_m":0.04543817788362503,"lane_width":3.5,"goal":{"x":57.40364456176758,"y":28.34353256225586,"z":0.5999999642372131},"fault":{"name":"tire_pressure_imbalance","severity":1.0},"capture_flags":{"save_rgb":true,"save_depth":false,"video_rgb":true,"video_depth":false}}
{"frame":117,"timestamp":{"delta_seconds":0.05000000074505806,"elapsed_seconds":5.395947904326022},"control":{"throttle":1.0,"steer":0.1979999989271164,"brake":0.0,"hand_brake":false,"reverse":false,"manual_gear_shift":false,"gear":0},"transform":{"location":{"x":-87.67605590820312,"y":12.961528778076172,"z":-0.027516821399331093},"rotation":{"pitch":0.13743023574352264,"yaw":-179.5687713623047,"roll":-0.2245178073644638}},"velocity":{"x":-1.2208828926086426,"y":-0.1515650451183319,"z":0.19597448408603668},"angular_velocity":{"x":-1.2161451578140259,"y":0.9749528765678406,"z":5.1120076179504395},"acceleration":{"x":-17.04644012451172,"y":-2.115291118621826,"z":-0.21901071071624756},"speed_mps":1.2457660289070964,"speed_kph":4.484757704065547,"speed_limit_kph":30.0,"collisions_this_frame":[],"waypoint":{"x":-87.6760025024414,"y":12.94036865234375,"z":0.0},"lane_deviation_m":0.03471209108829498,"lane_width":3.5,"goal":{"x":57.40364456176758,"y":28.34353256225586,"z":0.5999999642372131},"fault":{"name":"tire_pressure_imbalance","severity":1.0},"capture_flags":{"save_rgb":true,"save_depth":false,"video_rgb":true,"video_depth":false}}
{"frame":118,"timestamp":{"delta_seconds":0.05000000074505806,"elapsed_seconds":5.44594790507108},"control":{"throttle":1.0,"steer":0.2290000021457672,"brake":0.0,"hand_brake":false,"reverse":false,"manual_gear_shift":false,"gear":0},"transform":{"location":{"x":-87.75922393798828,"y":12.951522827148438,"z":-0.018587607890367508},"rotation":{"pitch":0.21170170605182648,"yaw":-179.1663360595703,"roll":-0.3414916396141052}},"velocity":{"x":-1.913039207458496,"y":-0.2703913450241089,"z":0.18179501593112946},"angular_velocity":{"x":-3.095372438430786,"y":1.7458661794662476,"z":9.053714752197266},"acceleration":{"x":-13.84312629699707,"y":-2.37652587890625,"z":-0.28358936309814453},"speed_mps":1.9405875183961112,"speed_kph":6.9861150662260005,"speed_limit_kph":30.0,"collisions_this_frame":[],"waypoint":{"x":-87.75919342041016,"y":12.94013786315918,"z":0.0},"lane_deviation_m":0.021797189489006996,"lane_width":3.5,"goal":{"x":57.40364456176758,"y":28.34353256225586,"z":0.5999999642372131},"fault":{"name":"tire_pressure_imbalance","severity":1.0},"capture_flags":{"save_rgb":true,"save_depth":false,"video_rgb":true,"video_depth":false}}
{"frame":119,"timestamp":{"delta_seconds":0.05000000074505806,"elapsed_seconds":5.495947905816138},"control":{"throttle":1.0,"steer":0.17100000381469727,"brake":0.0,"hand_brake":false,"reverse":false,"manual_gear_shift":false,"gear":0},"transform":{"location":{"x":-87.87256622314453,"y":12.93966293334961,"z":-0.011926727369427681},"rotation":{"pitch":0.23769056797027588,"yaw":-178.72108459472656,"roll":-0.3268737494945526}},"velocity":{"x":-2.474790096282959,"y":-0.31186965107917786,"z":0.09773626178503036},"angular_velocity":{"x":3.3309707641601562,"y":-0.626910924911499,"z":9.115086555480957},"acceleration":{"x":-11.235017776489258,"y":-0.8295661211013794,"z":-1.6811751127243042},"speed_mps":2.4962774438736126,"speed_kph":8.986598797945005,"speed_limit_kph":30.0,"collisions_this_frame":[],"waypoint":{"x":-87.87256622314453,"y":12.939823150634766,"z":0.0},"lane_deviation_m":0.011927803047001362,"lane_width":3.5,"goal":{"x":57.40364456176758,"y":28.34353256225586,"z":0.5999999642372131},"fault":{"name":"tire_pressure_imbalance","severity":1.0},"capture_flags":{"save_rgb":true,"save_depth":false,"video_rgb":true,"video_depth":false}}
{"frame":120,"timestamp":{"delta_seconds":0.05000000074505806,"elapsed_seconds":5.545947906561196},"control":{"throttle":1.0,"steer":0.17499999701976776,"brake":0.0,"hand_brake":false,"reverse":false,"manual_gear_shift":false,"gear":0},"transform":{"location":{"x":-88.01054382324219,"y":12.92409896850586,"z":-0.007043876685202122},"rotation":{"pitch":0.25154903531074524,"yaw":-178.20372009277344,"roll":-0.3430786430835724}},"velocity":{"x":-2.935847520828247,"y":-0.3967064917087555,"z":0.09579862654209137},"angular_velocity":{"x":-1.0598251819610596,"y":0.5209015607833862,"z":10.973069190979004},"acceleration":{"x":-9.221148490905762,"y":-1.6967368125915527,"z":-0.03875270485877991},"speed_mps":2.9640772734469296,"speed_kph":10.670678184408947,"speed_limit_kph":30.0,"collisions_this_frame":[],"waypoint":{"x":-88.01058959960938,"y":12.93943977355957,"z":0.0},"lane_deviation_m":0.016880717128515244,"lane_width":3.5,"goal":{"x":57.40364456176758,"y":28.34353256225586,"z":0.5999999642372131},"fault":{"name":"tire_pressure_imbalance","severity":1.0},"capture_flags":{"save_rgb":true,"save_depth":false,"video_rgb":true,"video_depth":false}}
{"frame":121,"timestamp":{"delta_seconds":0.05000000074505806,"elapsed_seconds":5.595947907306254},"control":{"throttle":1.0,"steer":0.14300000667572021,"brake":0.0,"hand_brake":false,"reverse":false,"manual_gear_shift":false,"gear":0},"transform":{"location":{"x":-88.16905975341797,"y":12.90739631652832,"z":-0.005385284312069416},"rotation":{"pitch":0.15256592631340027,"yaw":-177.6773681640625,"roll":-0.0967712253332138}},"velocity":{"x":-3.3467907905578613,"y":-0.4563862979412079,"z":0.020436162129044533},"angular_velocity":{"x":2.862093210220337,"y":-1.331779956817627,"z":10.405386924743652},"acceleration":{"x":-8.218865394592285,"y":-1.1935961246490479,"z":-1.507249355316162},"speed_mps":3.377826917625289,"speed_kph":12.16017690345104,"speed_limit_kph":30.0,"collisions_this_frame":[],"waypoint":{"x":-88.16915130615234,"y":12.93899917602539,"z":0.0},"lane_deviation_m":0.03205854818224907,"lane_width":3.5,"goal":{"x":57.40364456176758,"y":28.34353256225586,"z":0.5999999642372131},"fault":{"name":"tire_pressure_imbalance","severity":1.0},"capture_flags":{"save_rgb":true,"save_depth":false,"video_rgb":true,"video_depth":false}}
{"frame":122,"timestamp":{"delta_seconds":0.05000000074505806,"elapsed_seconds":5.645947908051312},"control":{"throttle":1.0,"steer":0.1720000058412552,"brake":0.0,"hand_brake":false,"reverse":false,"manual_gear_shift":false,"gear":0},"transform":{"location":{"x":-88.34745788574219,"y":12.885103225708008,"z":-0.003970947116613388},"rotation":{"pitch":0.11228147149085999,"yaw":-177.05807495117188,"roll":-0.0438232421875}},"velocity":{"x":-3.717849016189575,"y":-0.5663542747497559,"z":0.02450983040034771},"angular_velocity":{"x":0.44876986742019653,"y":-0.483591228723526,"z":13.269680976867676},"acceleration":{"x":-7.421164512634277,"y":-2.19935941696167,"z":0.08147336542606354},"speed_mps":3.760818953831116,"speed_kph":13.538948233792018,"speed_limit_kph":30.0,"collisions_this_frame":[],"waypoint":{"x":-88.34761047363281,"y":12.93850326538086,"z":0.0},"lane_deviation_m":0.0535476990044117,"lane_width":3.5,"goal":{"x":57.40364456176758,"y":28.34353256225586,"z":0.5999999642372131},"fault":{"name":"tire_pressure_imbalance","severity":1.0},"capture_flags":{"save_rgb":true,"save_depth":false,"video_rgb":true,"video_depth":false}}
{"frame":123,"timestamp":{"delta_seconds":0.05000000074505806,"elapsed_seconds":5.69594790879637},"control":{"throttle":1.0,"steer":0.11400000005960464,"brake":0.0,"hand_brake":false,"reverse":false,"manual_gear_shift":false,"gear":0},"transform":{"location":{"x":-88.544921875,"y":12.86117935180664,"z":-0.0027062224689871073},"rotation":{"pitch":0.09870988875627518,"yaw":-176.501708984375,"roll":-0.0247192345559597}},"velocity":{"x":-4.095198154449463,"y":-0.5501962304115295,"z":0.022713307291269302},"angular_velocity":{"x":0.2608186602592468,"y":-0.15216681361198425,"z":10.515608787536621},"acceleration":{"x":-7.546982765197754,"y":0.32316088676452637,"z":-0.035930462181568146},"speed_mps":4.132055143689814,"speed_kph":14.875398517283331,"speed_limit_kph":30.0,"collisions_this_frame":[],"waypoint":{"x":-88.5451431274414,"y":12.93795394897461,"z":0.0},"lane_deviation_m":0.07682259380817413,"lane_width":3.5,"goal":{"x":57.40364456176758,"y":28.34353256225586,"z":0.5999999642372131},"fault":{"name":"tire_pressure_imbalance","severity":1.0},"capture_flags":{"save_rgb":true,"save_depth":false,"video_rgb":true,"video_depth":false}}
{"frame":124,"timestamp":{"delta_seconds":0.05000000074505806,"elapsed_seconds":5.745947909541428},"control":{"throttle":1.0,"steer":0.20600000023841858,"brake":0.0,"hand_brake":false,"reverse":false,"manual_gear_shift":false,"gear":0},"transform":{"location":{"x":-88.75942993164062,"y":12.831818580627441,"z":-0.001650314312428236},"rotation":{"pitch":0.09319109469652176,"yaw":-175.80152893066406,"roll":-0.0377197302877903}},"velocity":{"x":-4.407039165496826,"y":-0.7609084248542786,"z":0.018852539360523224},"angular_velocity":{"x":-0.47361138463020325,"y":-0.1204877719283104,"z":16.684890747070312},"acceleration":{"x":-6.236820220947266,"y":-4.2142438888549805,"z":-0.07721535861492157},"speed_mps":4.472284791410037,"speed_kph":16.100225249076136,"speed_limit_kph":30.0,"collisions_this_frame":[],"waypoint":{"x":-88.76067352294922,"y":12.93735408782959,"z":0.0},"lane_deviation_m":0.10555573552846909,"lane_width":3.5,"goal":{"x":57.40364456176758,"y":28.34353256225586,"z":0.5999999642372131},"fault":{"name":"tire_pressure_imbalance","severity":1.0},"capture_flags":{"save_rgb":true,"save_depth":false,"video_rgb":true,"video_depth":false}}
{"frame":125,"timestamp":{"delta_seconds":0.05000000074505806,"elapsed_seconds":5.795947910286486},"control":{"throttle":1.0,"steer":0.12999999523162842,"brake":0.0,"hand_brake":false,"reverse":false,"manual_gear_shift":false,"gear":0},"transform":{"location":{"x":-88.9908447265625,"y":12.797442436218262,"z":-0.0008205032208934426},"rotation":{"pitch":0.09107373654842377,"yaw":-175.06124877929688,"roll":-0.0399475060403347}},"velocity":{"x":-4.762075424194336,"y":-0.7883556485176086,"z":0.014712352305650711},"angular_velocity":{"x":0.05891761556267738,"y":-0.020994829013943672,"z":13.966339111328125},"acceleration":{"x":-7.100725173950195,"y":-0.5489444732666016,"z":-0.08280374109745026},"speed_mps":4.826912411425719,"speed_kph":17.37688468113259,"speed_limit_kph":30.0,"collisions_this_frame":[],"waypoint":{"x":-88.99247741699219,"y":12.9367094039917,"z":0.0},"lane_deviation_m":0.13927894830703735,"lane_width":3.5,"goal":{"x":57.40364456176758,"y":28.34353256225586,"z":0.5999999642372131},"fault":{"name":"tire_pressure_imbalance","severity":1.0},"capture_flags":{"save_rgb":true,"save_depth":false,"video_rgb":true,"video_depth":false}}
{"frame":126,"timestamp":{"delta_seconds":0.05000000074505806,"elapsed_seconds":5.845947911031544},"control":{"throttle":1.0,"steer":0.289000004529953,"brake":0.0,"hand_brake":false,"reverse":false,"manual_gear_shift":false,"gear":0},"transform":{"location":{"x":-89.2380142211914,"y":12.755826950073242,"z":-2.8114318411098793e-05},"rotation":{"pitch":0.08892905712127686,"yaw":-174.16690063476562,"roll":-0.0624694786965847}},"velocity":{"x":-5.035504341125488,"y":-1.0632058382034302,"z":0.018063096329569817},"angular_velocity":{"x":-0.8093769550323486,"y":-0.14395378530025482,"z":21.68055534362793},"acceleration":{"x":-5.468578338623047,"y":-5.497003555297852,"z":0.06701488047838211},"speed_mps":5.146555828836651,"speed_kph":18.527600983811944,"speed_limit_kph":30.0,"collisions_this_frame":[],"waypoint":{"x":-89.24011993408203,"y":12.93602180480957,"z":0.0},"lane_deviation_m":0.18020714819431305,"lane_width":3.5,"goal":{"x":57.40364456176758,"y":28.34353256225586,"z":0.5999999642372131},"fault":{"name":"tire_pressure_imbalance","severity":1.0},"capture_flags":{"save_rgb":true,"save_depth":false,"video_rgb":true,"video_depth":false}}
{"frame":127,"timestamp":{"delta_seconds":0.05000000074505806,"elapsed_seconds":5.895947911776602},"control":{"throttle":1.0,"steer":0.24199999868869781,"brake":0.0,"hand_brake":false,"reverse":false,"manual_gear_shift":false,"gear":0},"transform":{"location":{"x":-89.49816131591797,"y":12.70234489440918,"z":0.0006345748552121222},"rotation":{"pitch":0.08547298610210419,"yaw":-172.94760131835938,"roll":-0.08932492882013321}},"velocity":{"x":-5.2572784423828125,"y":-1.2728723287582397,"z":0.010034417733550072},"angular_velocity":{"x":-0.19302505254745483,"y":-0.14853374660015106,"z":25.44495391845703},"acceleration":{"x":-4.435482025146484,"y":-4.193329811096191,"z":-0.1605735719203949},"speed_mps":5.409184899372615,"speed_kph":19.473065637741417,"speed_limit_kph":30.0,"collisions_this_frame":[],"waypoint":{"x":-89.5008773803711,"y":12.935297012329102,"z":0.0},"lane_deviation_m":0.23296880722045898,"lane_width":3.5,"goal":{"x":57.40364456176758,"y":28.34353256225586,"z":0.5999999642372131},"fault":{"name":"tire_pressure_imbalance","severity":1.0},"capture_flags":{"save_rgb":true,"save_depth":false,"video_rgb":true,"video_depth":false}}
{"frame":128,"timestamp":{"delta_seconds":0.05000000074505806,"elapsed_seconds":5.94594791252166},"control":{"throttle":1.0,"steer":0.06300000101327896,"brake":0.0,"hand_brake":false,"reverse":false,"manual_gear_shift":false,"gear":0},"transform":{"location":{"x":-89.76549530029297,"y":12.647134780883789,"z":0.0010565947741270065},"rotation":{"pitch":0.07512524724006653,"yaw":-171.9667205810547,"roll":-0.061553940176963806}},"velocity":{"x":-5.366824150085449,"y":-1.1531410217285156,"z":0.0057178400456905365},"angular_velocity":{"x":0.9201632738113403,"y":-0.1548461616039276,"z":14.096755027770996},"acceleration":{"x":-2.1909141540527344,"y":2.3946261405944824,"z":-0.0863315537571907},"speed_mps":5.4893140161251734,"speed_kph":19.761530458050625,"speed_limit_kph":30.0,"collisions_this_frame":[],"waypoint":{"x":-89.76884460449219,"y":12.934552192687988,"z":0.0},"lane_deviation_m":0.28743886947631836,"lane_width":3.5,"goal":{"x":57.40364456176758,"y":28.34353256225586,"z":0.5999999642372131},"fault":{"name":"tire_pressure_imbalance","severity":1.0},"capture_flags":{"save_rgb":true,"save_depth":false,"video_rgb":true,"video_depth":false}}
{"frame":129,"timestamp":{"delta_seconds":0.05000000074505806,"elapsed_seconds":5.995947913266718},"control":{"throttle":1.0,"steer":0.1809999942779541,"brake":0.0,"hand_brake":false,"reverse":false,"manual_gear_shift":false,"gear":0},"transform":{"location":{"x":-90.04692840576172,"y":12.590154647827148,"z":0.0012829590123146772},"rotation":{"pitch":0.07219509780406952,"yaw":-171.2198486328125,"roll":-0.0512695237994194}},"velocity":{"x":-5.654299259185791,"y":-1.302112340927124,"z":0.003345813602209091},"angular_velocity":{"x":-0.2606619596481323,"y":-0.19036026298999786,"z":16.943559646606445},"acceleration":{"x":-5.749502182006836,"y":-2.979426383972168,"z":-0.047440528869628906},"speed_mps":5.802293327236427,"speed_kph":20.888255978051138,"speed_limit_kph":30.0,"collisions_this_frame":[],"waypoint":{"x":-90.0509262084961,"y":12.933768272399902,"z":0.0},"lane_deviation_m":0.3436392545700073,"lane_width":3.5,"goal":{"x":57.40364456176758,"y":28.34353256225586,"z":0.5999999642372131},"fault":{"name":"tire_pressure_imbalance","severity":1.0},"capture_flags":{"save_rgb":true,"save_depth":false,"video_rgb":true,"video_depth":false}}
{"frame":130,"timestamp":{"delta_seconds":0.05000000074505806,"elapsed_seconds":6.0459479140117764},"control":{"throttle":1.0,"steer":0.16899999976158142,"brake":0.0,"hand_brake":false,"reverse":false,"manual_gear_shift":false,"gear":0},"transform":{"location":{"x":-90.33612060546875,"y":12.525491714477539,"z":0.0014374160673469305},"rotation":{"pitch":0.067051962018013,"yaw":-170.2999725341797,"roll":-0.0635070651769638}},"velocity":{"x":-5.83555793762207,"y":-1.4569828510284424,"z":0.002009820891544223},"angular_velocity":{"x":-0.14360542595386505,"y":-0.11826176941394806,"z":18.68140983581543},"acceleration":{"x":-3.625173568725586,"y":-3.097410202026367,"z":-0.026719853281974792},"speed_mps":6.014693634002894,"speed_kph":21.65289708241042,"speed_limit_kph":30.0,"collisions_this_frame":[],"waypoint":{"x":-90.34085845947266,"y":12.932963371276855,"z":0.0},"lane_deviation_m":0.4075017273426056,"lane_width":3.5,"goal":{"x":57.40364456176758,"y":28.34353256225586,"z":0.5999999642372131},"fault":{"name":"tire_pressure_imbalance","severity":1.0},"capture_flags":{"save_rgb":true,"save_depth":false,"video_rgb":true,"video_depth":false}}
{"frame":131,"timestamp":{"delta_seconds":0.05000000074505806,"elapsed_seconds":6.0959479147568345},"control":{"throttle":1.0,"steer":0.17000000178813934,"brake":0.0,"hand_brake":false,"reverse":false,"manual_gear_shift":false,"gear":0},"transform":{"location":{"x":-90.63670349121094,"y":12.45236873626709,"z":0.001518897945061326},"rotation":{"pitch":0.06606841832399368,"yaw":-169.2801055908203,"roll":-0.0751037523150444}},"velocity":{"x":-6.103786468505859,"y":-1.6617779731750488,"z":0.001239776611328125},"angular_velocity":{"x":-0.2756187617778778,"y":-0.019261060282588005,"z":22.115238189697266},"acceleration":{"x":-5.364570617675781,"y":-4.095902442932129,"z":-0.015400885604321957},"speed_mps":6.325955803061783,"speed_kph":22.773440891022418,"speed_limit_kph":30.0,"collisions_this_frame":[],"waypoint":{"x":-90.64228057861328,"y":12.93212604522705,"z":0.0},"lane_deviation_m":0.47979211807250977,"lane_width":3.5,"goal":{"x":57.40364456176758,"y":28.34353256225586,"z":0.5999999642372131},"fault":{"name":"tire_pressure_imbalance","severity":1.0},"capture_flags":{"save_rgb":true,"save_depth":false,"video_rgb":true,"video_depth":false}}
{"frame":132,"timestamp":{"delta_seconds":0.05000000074505806,"elapsed_seconds":6.145947915501893},"control":{"throttle":1.0,"steer":0.13300000131130219,"brake":0.0,"hand_brake":false,"reverse":false,"manual_gear_shift":false,"gear":0},"transform":{"location":{"x":-90.95433044433594,"y":12.371173858642578,"z":0.0015311050228774548},"rotation":{"pitch":0.0720653235912323,"yaw":-168.3097381591797,"roll":-0.0740966796875}},"velocity":{"x":-6.517502784729004,"y":-1.8094639778137207,"z":0.000778789515607059},"angular_velocity":{"x":-0.030368350446224213,"y":0.19806914031505585,"z":19.06382942199707},"acceleration":{"x":-8.27432632446289,"y":-2.9537200927734375,"z":-0.009219741448760033},"speed_mps":6.764022696773636,"speed_kph":24.35048170838509,"speed_limit_kph":30.0,"collisions_this_frame":[],"waypoint":{"x":-90.94718933105469,"y":12.90085220336914,"z":0.0},"lane_deviation_m":0.5297287106513977,"lane_width":3.5,"goal":{"x":57.40364456176758,"y":28.34353256225586,"z":0.5999999642372131},"fault":{"name":"tire_pressure_imbalance","severity":1.0},"capture_flags":{"save_rgb":true,"save_depth":false,"video_rgb":true,"video_depth":false}}
{"frame":133,"timestamp":{"delta_seconds":0.05000000074505806,"elapsed_seconds":6.195947916246951},"control":{"throttle":1.0,"steer":0.20000000298023224,"brake":0.0,"hand_brake":false,"reverse":false,"manual_gear_shift":false,"gear":0},"transform":{"location":{"x":-91.29168701171875,"y":12.277153968811035,"z":0.0015153884887695312},"rotation":{"pitch":0.07990638166666031,"yaw":-167.1866455078125,"roll":-0.09500119835138321}},"velocity":{"x":-6.830234050750732,"y":-2.1352880001068115,"z":0.0004977798089385033},"angular_velocity":{"x":-0.521589994430542,"y":-0.014241350814700127,"z":25.37479019165039},"acceleration":{"x":-6.25462532043457,"y":-6.516480445861816,"z":-0.005620194133371115},"speed_mps":7.156224722520922,"speed_kph":25.76240900107532,"speed_limit_kph":30.0,"collisions_this_frame":[],"waypoint":{"x":-91.25193786621094,"y":12.876736640930176,"z":0.0},"lane_deviation_m":0.6009007096290588,"lane_width":3.5,"goal":{"x":57.40364456176758,"y":28.34353256225586,"z":0.5999999642372131},"fault":{"name":"tire_pressure_imbalance","severity":1.0},"capture_flags":{"save_rgb":true,"save_depth":false,"video_rgb":true,"video_depth":false}}
{"frame":134,"timestamp":{"delta_seconds":0.05000000074505806,"elapsed_seconds":6.245947916992009},"control":{"throttle":1.0,"steer":0.19300000369548798,"brake":0.0,"hand_brake":false,"reverse":false,"manual_gear_shift":false,"gear":0},"transform":{"location":{"x":-91.64088439941406,"y":12.170202255249023,"z":0.0015345764113590121},"rotation":{"pitch":0.07997468113899231,"yaw":-165.89541625976562,"roll":-0.111480712890625}},"velocity":{"x":-7.031954288482666,"y":-2.382612943649292,"z":0.00032600402482785285},"angular_velocity":{"x":-0.22938983142375946,"y":-0.088548444211483,"z":26.11097526550293},"acceleration":{"x":-4.034404754638672,"y":-4.946498870849609,"z":-0.0034355157986283302},"speed_mps":7.42463639923421,"speed_kph":26.728691037243156,"speed_limit_kph":30.0,"collisions_this_frame":[],"waypoint":{"x":-91.7011947631836,"y":12.829113006591797,"z":0.0},"lane_deviation_m":0.6616669297218323,"lane_width":3.5,"goal":{"x":57.40364456176758,"y":28.34353256225586,"z":0.5999999642372131},"fault":{"name":"tire_pressure_imbalance","severity":1.0},"capture_flags":{"save_rgb":true,"save_depth":false,"video_rgb":true,"video_depth":false}}
{"frame":135,"timestamp":{"delta_seconds":0.05000000074505806,"elapsed_seconds":6.295947917737067},"control":{"throttle":1.0,"steer":0.09799999743700027,"brake":0.0,"hand_brake":false,"reverse":false,"manual_gear_shift":false,"gear":0},"transform":{"location":{"x":-92.00376892089844,"y":12.055631637573242,"z":0.001548232976347208},"rotation":{"pitch":0.07981758564710617,"yaw":-164.7638702392578,"roll":-0.0947265625}},"velocity":{"x":-7.350494861602783,"y":-2.4503870010375977,"z":0.00022050857660360634},"angular_velocity":{"x":0.4317522644996643,"y":0.12203207612037659,"z":20.61656951904297},"acceleration":{"x":-6.370811462402344,"y":-1.3554811477661133,"z":-0.00210990896448493},"speed_mps":7.74817212082482,"speed_kph":27.89341963496935,"speed_limit_kph":30.0,"collisions_this_frame":[],"waypoint":{"x":-92.03218078613281,"y":12.784749031066895,"z":0.0},"lane_deviation_m":0.729672372341156,"lane_width":3.5,"goal":{"x":57.40364456176758,"y":28.34353256225586,"z":0.5999999642372131},"fault":{"name":"tire_pressure_imbalance","severity":1.0},"capture_flags":{"save_rgb":true,"save_depth":false,"video_rgb":true,"video_depth":false}}
{"frame":136,"timestamp":{"delta_seconds":0.05000000074505806,"elapsed_seconds":6.345947918482125},"control":{"throttle":1.0,"steer":0.09000000357627869,"brake":0.0,"hand_brake":false,"reverse":false,"manual_gear_shift":false,"gear":0},"transform":{"location":{"x":-92.38240814208984,"y":11.934417724609375,"z":0.0015507125062868},"rotation":{"pitch":0.08087626844644547,"yaw":-163.89349365234375,"roll":-0.0783691331744194}},"velocity":{"x":-7.6700873374938965,"y":-2.582282066345215,"z":0.00015171051200013608},"angular_velocity":{"x":0.20765617489814758,"y":0.08577385544776917,"z":15.87814712524414},"acceleration":{"x":-6.391849517822266,"y":-2.6379013061523438,"z":-0.0013759613502770662},"speed_mps":8.093109443098395,"speed_kph":29.135193995154225,"speed_limit_kph":30.0,"collisions_this_frame":[],"waypoint":{"x":-92.51579284667969,"y":12.705598831176758,"z":0.0},"lane_deviation_m":0.7826328277587891,"lane_width":3.5,"goal":{"x":57.40364456176758,"y":28.34353256225586,"z":0.5999999642372131},"fault":{"name":"tire_pressure_imbalance","severity":1.0},"capture_flags":{"save_rgb":true,"save_depth":false,"video_rgb":true,"video_depth":false}}
{"frame":137,"timestamp":{"delta_seconds":0.05000000074505806,"elapsed_seconds":6.395947919227183},"control":{"throttle":1.0,"steer":0.1550000011920929,"brake":0.0,"hand_brake":false,"reverse":false,"manual_gear_shift":false,"gear":0},"transform":{"location":{"x":-92.77545928955078,"y":11.801258087158203,"z":0.0015479278517886996},"rotation":{"pitch":0.08241305500268936,"yaw":-162.9210205078125,"roll":-0.09317014366388321}},"velocity":{"x":-7.932499408721924,"y":-2.9053735733032227,"z":0.00010015487350756302},"angular_velocity":{"x":-0.45715728402137756,"y":-0.10249185562133789,"z":22.016803741455078},"acceleration":{"x":-5.248241424560547,"y":-6.461830139160156,"z":-0.0010311127407476306},"speed_mps":8.447824718816875,"speed_kph":30.412168987740753,"speed_limit_kph":30.0,"collisions_this_frame":[],"waypoint":{"x":-92.8755111694336,"y":12.635540962219238,"z":0.0},"lane_deviation_m":0.8402622938156128,"lane_width":3.5,"goal":{"x":57.40364456176758,"y":28.34353256225586,"z":0.5999999642372131},"fault":{"name":"tire_pressure_imbalance","severity":1.0},"capture_flags":{"save_rgb":true,"save_depth":false,"video_rgb":true,"video_depth":false}}
{"frame":138,"timestamp":{"delta_seconds":0.05000000074505806,"elapsed_seconds":6.445947919972241},"control":{"throttle":1.0,"steer":0.16899999976158142,"brake":0.0,"hand_brake":false,"reverse":false,"manual_gear_shift":false,"gear":0},"transform":{"location":{"x":-93.18209838867188,"y":11.651692390441895,"z":0.001538772601634264},"rotation":{"pitch":0.08468750864267349,"yaw":-161.7052459716797,"roll":-0.11859128624200821}},"velocity":{"x":-8.19726848602295,"y":-3.2658870220184326,"z":6.178855983307585e-05},"angular_velocity":{"x":-0.4542805552482605,"y":-0.0994117334485054,"z":25.311735153198242},"acceleration":{"x":-5.295381546020508,"y":-7.210268974304199,"z":-0.0007673262734897435},"speed_mps":8.823900989718279,"speed_kph":31.766043562985804,"speed_limit_kph":30.0,"collisions_this_frame":[],"waypoint":{"x":-93.39099884033203,"y":12.518190383911133,"z":0.0},"lane_deviation_m":0.8913251757621765,"lane_width":3.5,"goal":{"x":57.40364456176758,"y":28.34353256225586,"z":0.5999999642372131},"fault":{"name":"tire_pressure_imbalance","severity":1.0},"capture_flags":{"save_rgb":true,"save_depth":false,"video_rgb":true,"video_depth":false}}
{"frame":139,"timestamp":{"delta_seconds":0.05000000074505806,"elapsed_seconds":6.495947920717299},"control":{"throttle":1.0,"steer":0.14300000667572021,"brake":0.0,"hand_brake":false,"reverse":false,"manual_gear_shift":false,"gear":0},"transform":{"location":{"x":-93.60323333740234,"y":11.487058639526367,"z":0.0015271758893504739},"rotation":{"pitch":0.0871054008603096,"yaw":-160.4011993408203,"roll":-0.128631591796875}},"velocity":{"x":-8.486336708068848,"y":-3.553074836730957,"z":4.319190702517517e-05},"angular_velocity":{"x":-0.15177126228809357,"y":-0.00784456729888916,"z":26.770322799682617},"acceleration":{"x":-5.781364440917969,"y":-5.743756294250488,"z":-0.0003719330416060984},"speed_mps":9.200122364403262,"speed_kph":33.12044051185174,"speed_limit_kph":30.0,"collisions_this_frame":[],"waypoint":{"x":-93.77800750732422,"y":12.4166841506958,"z":0.0},"lane_deviation_m":0.9459132552146912,"lane_width":3.5,"goal":{"x":57.40364456176758,"y":28.34353256225586,"z":0.5999999642372131},"fault":{"name":"tire_pressure_imbalance","severity":1.0},"capture_flags":{"save_rgb":true,"save_depth":false,"video_rgb":true,"video_depth":false}}
{"frame":140,"timestamp":{"delta_seconds":0.05000000074505806,"elapsed_seconds":6.545947921462357},"control":{"throttle":1.0,"steer":0.14800000190734863,"brake":0.0,"hand_brake":false,"reverse":false,"manual_gear_shift":false,"gear":0},"transform":{"location":{"x":-94.0379638671875,"y":11.30688190460205,"z":0.0015206908574327826},"rotation":{"pitch":0.08851924538612366,"yaw":-159.0808563232422,"roll":-0.1378173679113388}},"velocity":{"x":-8.743529319763184,"y":-3.879185199737549,"z":2.573966958152596e-05},"angular_velocity":{"x":-0.18834088742733002,"y":-0.05034731701016426,"z":26.234363555908203},"acceleration":{"x":-5.143852233886719,"y":-6.522207260131836,"z":-0.0003490447415970266},"speed_mps":9.565426429599666,"speed_kph":34.4355351465588,"speed_limit_kph":30.0,"collisions_this_frame":[],"waypoint":{"x":-94.322509765625,"y":12.253864288330078,"z":0.0},"lane_deviation_m":0.9888095855712891,"lane_width":3.5,"goal":{"x":57.40364456176758,"y":28.34353256225586,"z":0.5999999642372131},"fault":{"name":"tire_pressure_imbalance","severity":1.0},"capture_flags":{"save_rgb":true,"save_depth":false,"video_rgb":true,"video_depth":false}}
{"frame":141,"timestamp":{"delta_seconds":0.05000000074505806,"elapsed_seconds":6.595947922207415},"control":{"throttle":0.1299685537815094,"steer":0.19099999964237213,"brake":0.0,"hand_brake":false,"reverse":false,"manual_gear_shift":false,"gear":0},"transform":{"location":{"x":-94.4834976196289,"y":11.108217239379883,"z":0.0015243911184370518},"rotation":{"pitch":0.08815724402666092,"yaw":-157.56491088867188,"roll":-0.1619262397289276}},"velocity":{"x":-8.906675338745117,"y":-4.304718971252441,"z":1.5907287888694555e-05},"angular_velocity":{"x":-0.4869958758354187,"y":-0.2299756109714508,"z":32.65745162963867},"acceleration":{"x":-3.262920379638672,"y":-8.510675430297852,"z":-0.00019664762658067048},"speed_mps":9.892394604519382,"speed_kph":35.61262057626978,"speed_limit_kph":30.0,"collisions_this_frame":[],"waypoint":{"x":-94.73212432861328,"y":12.115497589111328,"z":0.0},"lane_deviation_m":1.0375120639801025,"lane_width":3.5,"goal":{"x":57.40364456176758,"y":28.34353256225586,"z":0.5999999642372131},"fault":{"name":"tire_pressure_imbalance","severity":1.0},"capture_flags":{"save_rgb":true,"save_depth":false,"video_rgb":true,"video_depth":false}}
{"frame":142,"timestamp":{"delta_seconds":0.05000000074505806,"elapsed_seconds":6.645947922952473},"control":{"throttle":0.6055015325546265,"steer":0.13600000739097595,"brake":0.0,"hand_brake":false,"reverse":false,"manual_gear_shift":false,"gear":0},"transform":{"location":{"x":-94.93768310546875,"y":10.8933687210083,"z":0.0015441131545230746},"rotation":{"pitch":0.08490607887506485,"yaw":-156.07020568847656,"roll":-0.16485595703125}},"velocity":{"x":-9.072820663452148,"y":-4.563841819763184,"z":1.4057159205549397e-05},"angular_velocity":{"x":0.06389689445495605,"y":-0.07957107573747635,"z":28.194658279418945},"acceleration":{"x":-3.322906494140625,"y":-5.182456970214844,"z":-3.700257366290316e-05},"speed_mps":10.156019247085997,"speed_kph":36.56166928950959,"speed_limit_kph":30.0,"collisions_this_frame":[],"waypoint":{"x":-95.29500579833984,"y":11.902252197265625,"z":0.0},"lane_deviation_m":1.0702933073043823,"lane_width":3.5,"goal":{"x":57.40364456176758,"y":28.34353256225586,"z":0.5999999642372131},"fault":{"name":"tire_pressure_imbalance","severity":1.0},"capture_flags":{"save_rgb":true,"save_depth":false,"video_rgb":true,"video_depth":false}}
{"frame":143,"timestamp":{"delta_seconds":0.05000000074505806,"elapsed_seconds":6.695947923697531},"control":{"throttle":0.8407741189002991,"steer":0.29600000381469727,"brake":0.0,"hand_brake":false,"reverse":false,"manual_gear_shift":false,"gear":0},"transform":{"location":{"x":-95.3946533203125,"y":10.66116714477539,"z":0.0015895842807367444},"rotation":{"pitch":0.0772835835814476,"yaw":-154.4284210205078,"roll":-0.191619873046875}},"velocity":{"x":-9.028833389282227,"y":-5.013981819152832,"z":4.463195637072204e-06},"angular_velocity":{"x":-0.7342627048492432,"y":-0.5441759824752808,"z":37.1760139465332},"acceleration":{"x":0.8797454833984375,"y":-9.002799987792969,"z":-0.00019187925499863923},"speed_mps":10.327625383128138,"speed_kph":37.1794513792613,"speed_limit_kph":30.0,"collisions_this_frame":[],"waypoint":{"x":-95.85929870605469,"y":11.660402297973633,"z":0.0},"lane_deviation_m":1.1019840240478516,"lane_width":3.5,"goal":{"x":57.40364456176758,"y":28.34353256225586,"z":0.5999999642372131},"fault":{"name":"tire_pressure_imbalance","severity":1.0},"capture_flags":{"save_rgb":true,"save_depth":false,"video_rgb":true,"video_depth":false}}
{"frame":144,"timestamp":{"delta_seconds":0.05000000074505806,"elapsed_seconds":6.745947924442589},"control":{"throttle":0.7907741069793701,"steer":0.2529999911785126,"brake":0.0,"hand_brake":false,"reverse":false,"manual_gear_shift":false,"gear":0},"transform":{"location":{"x":-95.8488540649414,"y":10.406301498413086,"z":0.001638450543396175},"rotation":{"pitch":0.06910102069377899,"yaw":-152.38031005859375,"roll":-0.23358149826526642}},"velocity":{"x":-8.951580047607422,"y":-5.499692916870117,"z":-1.2388229151838459e-05},"angular_velocity":{"x":-0.5961670279502869,"y":-0.47778958082199097,"z":43.01625061035156},"acceleration":{"x":1.5450668334960938,"y":-9.714221954345703,"z":-0.00033702849759720266},"speed_mps":10.5060652733908,"speed_kph":37.82183498420688,"speed_limit_kph":30.0,"collisions_this_frame":[],"waypoint":{"x":-96.2774887084961,"y":11.46210765838623,"z":0.0},"lane_deviation_m":1.1394985914230347,"lane_width":3.5,"goal":{"x":57.40364456176758,"y":28.34353256225586,"z":0.5999999642372131},"fault":{"name":"tire_pressure_imbalance","severity":1.0},"capture_flags":{"save_rgb":true,"save_depth":false,"video_rgb":true,"video_depth":false}}
{"frame":145,"timestamp":{"delta_seconds":0.05000000074505806,"elapsed_seconds":6.795947925187647},"control":{"throttle":0.7407740950584412,"steer":0.14399999380111694,"brake":0.0,"hand_brake":false,"reverse":false,"manual_gear_shift":false,"gear":0},"transform":{"location":{"x":-96.30459594726562,"y":10.133612632751465,"z":0.0016670989571139216},"rotation":{"pitch":0.06412864476442337,"yaw":-150.4011688232422,"roll":-0.23001092672348022}},"velocity":{"x":-9.040792465209961,"y":-5.757898807525635,"z":-4.281997462385334e-06},"angular_velocity":{"x":0.30998289585113525,"y":0.0776965320110321,"z":37.281951904296875},"acceleration":{"x":-1.7842483520507812,"y":-5.164117813110352,"z":0.0001621246337890625},"speed_mps":10.718643901012882,"speed_kph":38.58711804364638,"speed_limit_kph":30.0,"collisions_this_frame":[],"waypoint":{"x":-96.83927917480469,"y":11.168670654296875,"z":0.0},"lane_deviation_m":1.1650038957595825,"lane_width":3.5,"goal":{"x":57.40364456176758,"y":28.34353256225586,"z":0.5999999642372131},"fault":{"name":"tire_pressure_imbalance","severity":1.0},"capture_flags":{"save_rgb":true,"save_depth":false,"video_rgb":true,"video_depth":false}}
{"frame":146,"timestamp":{"delta_seconds":0.05000000074505806,"elapsed_seconds":6.845947925932705},"control":{"throttle":0.0,"steer":0.15299999713897705,"brake":1.0,"hand_brake":false,"reverse":false,"manual_gear_shift":false,"gear":0},"transform":{"location":{"x":-96.76183319091797,"y":9.845467567443848,"z":0.0016982269007712603},"rotation":{"pitch":0.05881475657224655,"yaw":-148.67633056640625,"roll":-0.2229003608226776}},"velocity":{"x":-9.027831077575684,"y":-6.055021286010742,"z":3.318786639283644e-06},"angular_velocity":{"x":0.12350810319185257,"y":-0.08376165479421616,"z":32.747154235839844},"acceleration":{"x":0.2592277526855469,"y":-5.942449569702148,"z":0.00015201568021439016},"speed_mps":10.870373348661744,"speed_kph":39.13334405518228,"speed_limit_kph":30.0,"collisions_this_frame":[],"waypoint":{"x":-97.39636993408203,"y":10.845024108886719,"z":0.0},"lane_deviation_m":1.183956503868103,"lane_width":3.5,"goal":{"x":57.40364456176758,"y":28.34353256225586,"z":0.5999999642372131},"fault":{"name":"tire_pressure_imbalance","severity":1.0},"capture_flags":{"save_rgb":true,"save_depth":false,"video_rgb":true,"video_depth":false}}
{"frame":147,"timestamp":{"delta_seconds":0.05000000074505806,"elapsed_seconds":6.8959479266777635},"control":{"throttle":0.0,"steer":0.15199999511241913,"brake":1.0,"hand_brake":false,"reverse":false,"manual_gear_shift":false,"gear":0},"transform":{"location":{"x":-97.21416473388672,"y":9.543932914733887,"z":0.0017589187482371926},"rotation":{"pitch":0.04850117117166519,"yaw":-147.03317260742188,"roll":-0.2216186225414276}},"velocity":{"x":-8.872023582458496,"y":-6.274926662445068,"z":7.266998181876261e-06},"angular_velocity":{"x":0.1542530506849289,"y":-0.20850718021392822,"z":33.57176208496094},"acceleration":{"x":3.11614990234375,"y":-4.398107528686523,"z":7.896422903286293e-05},"speed_mps":10.866807583960274,"speed_kph":39.12050730225699,"speed_limit_kph":30.0,"collisions_this_frame":[],"waypoint":{"x":-97.80487060546875,"y":10.585494041442871,"z":0.0},"lane_deviation_m":1.1974080801010132,"lane_width":3.5,"goal":{"x":57.40364456176758,"y":28.34353256225586,"z":0.5999999642372131},"fault":{"name":"tire_pressure_imbalance","severity":1.0},"capture_flags":{"save_rgb":true,"save_depth":false,"video_rgb":true,"video_depth":false}}
{"frame":148,"timestamp":{"delta_seconds":0.05000000074505806,"elapsed_seconds":6.9459479274228215},"control":{"throttle":0.0,"steer":0.07999999821186066,"brake":1.0,"hand_brake":false,"reverse":false,"manual_gear_shift":false,"gear":0},"transform":{"location":{"x":-97.65814208984375,"y":9.236750602722168,"z":0.0018508529756218195},"rotation":{"pitch":0.03281905874609947,"yaw":-145.70449829101562,"roll":-0.19595330953598022}},"velocity":{"x":-8.725262641906738,"y":-6.2761077880859375,"z":1.373290979245212e-05},"angular_velocity":{"x":0.6780259013175964,"y":0.03966245800256729,"z":22.146621704101562},"acceleration":{"x":2.9352188110351562,"y":-0.023622512817382812,"z":0.00012931822857353836},"speed_mps":10.748010845645576,"speed_kph":38.692839044324074,"speed_limit_kph":30.0,"collisions_this_frame":[],"waypoint":{"x":-98.33499145507812,"y":10.21837043762207,"z":0.0},"lane_deviation_m":1.1923531293869019,"lane_width":3.5,"goal":{"x":57.40364456176758,"y":28.34353256225586,"z":0.5999999642372131},"fault":{"name":"tire_pressure_imbalance","severity":1.0},"capture_flags":{"save_rgb":true,"save_depth":false,"video_rgb":true,"video_depth":false}}
{"frame":149,"timestamp":{"delta_seconds":0.05000000074505806,"elapsed_seconds":6.99594792816788},"control":{"throttle":0.0,"steer":0.03799999877810478,"brake":1.0,"hand_brake":false,"reverse":false,"manual_gear_shift":false,"gear":0},"transform":{"location":{"x":-98.09222412109375,"y":8.931206703186035,"z":0.0019589613657444715},"rotation":{"pitch":0.014363886788487434,"yaw":-144.75314331054688,"roll":-0.1590575873851776}},"velocity":{"x":-8.532430648803711,"y":-6.167686462402344,"z":1.891136162157636e-05},"angular_velocity":{"x":0.7613071799278259,"y":0.07835721969604492,"z":17.735576629638672},"acceleration":{"x":3.856639862060547,"y":2.168426513671875,"z":0.00010356903658248484},"speed_mps":10.528187359441496,"speed_kph":37.90147449398939,"speed_limit_kph":30.0,"collisions_this_frame":[],"waypoint":{"x":-98.84066009521484,"y":9.833383560180664,"z":0.0},"lane_deviation_m":1.1722129583358765,"lane_width":3.5,"goal":{"x":57.40364456176758,"y":28.34353256225586,"z":0.5999999642372131},"fault":{"name":"tire_pressure_imbalance","severity":1.0},"capture_flags":{"save_rgb":true,"save_depth":false,"video_rgb":true,"video_depth":false}}
{"frame":150,"timestamp":{"delta_seconds":0.05000000074505806,"elapsed_seconds":7.045947928912938},"control":{"throttle":0.0,"steer":0.20100000500679016,"brake":1.0,"hand_brake":false,"reverse":false,"manual_gear_shift":false,"gear":0},"transform":{"location":{"x":-98.51050567626953,"y":8.625710487365723,"z":0.002071494935080409},"rotation":{"pitch":-0.004699169658124447,"yaw":-143.89959716796875,"roll":-0.1600341498851776}},"velocity":{"x":-8.129185676574707,"y":-6.232412815093994,"z":9.16480985324597e-06},"angular_velocity":{"x":-0.13495787978172302,"y":-0.5754919648170471,"z":18.47378158569336},"acceleration":{"x":8.064899444580078,"y":-1.2945270538330078,"z":-0.00019493103900458664},"speed_mps":10.24337001489545,"speed_kph":36.87613205362362,"speed_limit_kph":30.0,"collisions_this_frame":[],"waypoint":{"x":-99.19570922851562,"y":9.540786743164062,"z":0.0},"lane_deviation_m":1.1431853771209717,"lane_width":3.5,"goal":{"x":57.40364456176758,"y":28.34353256225586,"z":0.5999999642372131},"fault":{"name":"tire_pressure_imbalance","severity":1.0},"capture_flags":{"save_rgb":true,"save_depth":false,"video_rgb":true,"video_depth":false}}
{"frame":151,"timestamp":{"delta_seconds":0.05000000074505806,"elapsed_seconds":7.095947929657996},"control":{"throttle":0.4407741129398346,"steer":0.28299999237060547,"brake":0.0,"hand_brake":false,"reverse":false,"manual_gear_shift":false,"gear":0},"transform":{"location":{"x":-98.90460968017578,"y":8.315445899963379,"z":0.0021811292972415686},"rotation":{"pitch":-0.02316117100417614,"yaw":-142.51956176757812,"roll":-0.2029418796300888}},"velocity":{"x":-7.553221702575684,"y":-6.412076473236084,"z":-5.197524842515122e-06},"angular_velocity":{"x":-0.6189696192741394,"y":-0.905117392539978,"z":34.08142852783203},"acceleration":{"x":11.519279479980469,"y":-3.593273162841797,"z":-0.0002872466866392642},"speed_mps":9.907869740106348,"speed_kph":35.668331064382855,"speed_limit_kph":30.0,"collisions_this_frame":[],"waypoint":{"x":-99.648681640625,"y":9.13667106628418,"z":0.0},"lane_deviation_m":1.1081780195236206,"lane_width":3.5,"goal":{"x":57.40364456176758,"y":28.34353256225586,"z":0.5999999642372131},"fault":{"name":"tire_pressure_imbalance","severity":1.0},"capture_flags":{"save_rgb":true,"save_depth":false,"video_rgb":true,"video_depth":false}}
{"frame":152,"timestamp":{"delta_seconds":0.05000000074505806,"elapsed_seconds":7.145947930403054},"control":{"throttle":0.39077410101890564,"steer":-0.13199999928474426,"brake":0.0,"hand_brake":false,"reverse":false,"manual_gear_shift":false,"gear":0},"transform":{"location":{"x":-99.27947235107422,"y":8.00130558013916,"z":0.0022402952890843153},"rotation":{"pitch":-0.03339279443025589,"yaw":-141.00814819335938,"roll":-0.20101924240589142}},"velocity":{"x":-7.356042385101318,"y":-6.3769145011901855,"z":-7.839203135517891e-06},"angular_velocity":{"x":0.7680833339691162,"y":0.4781443178653717,"z":23.397350311279297},"acceleration":{"x":3.9435863494873047,"y":0.7032394409179688,"z":-5.283356586005539e-05},"speed_mps":9.735317053232432,"speed_kph":35.04714139163676,"speed_limit_kph":30.0,"collisions_this_frame":[],"waypoint":{"x":-99.9515380859375,"y":8.841475486755371,"z":0.0},"lane_deviation_m":1.075900912284851,"lane_width":3.5,"goal":{"x":57.40364456176758,"y":28.34353256225586,"z":0.5999999642372131},"fault":{"name":"tire_pressure_imbalance","severity":1.0},"capture_flags":{"save_rgb":true,"save_depth":false,"video_rgb":true,"video_depth":false}}
{"frame":153,"timestamp":{"delta_seconds":0.05000000074505806,"elapsed_seconds":7.195947931148112},"control":{"throttle":0.3407741189002991,"steer":0.10400000214576721,"brake":0.0,"hand_brake":false,"reverse":false,"manual_gear_shift":false,"gear":0},"transform":{"location":{"x":-99.6468276977539,"y":7.687568187713623,"z":0.002249488839879632},"rotation":{"pitch":-0.035032037645578384,"yaw":-139.86509704589844,"roll":-0.17282100021839142}},"velocity":{"x":-7.181431770324707,"y":-6.404208660125732,"z":9.7370148068876e-06},"angular_velocity":{"x":0.2336670309305191,"y":0.19865258038043976,"z":23.853546142578125},"acceleration":{"x":3.4922122955322266,"y":-0.5458831787109375,"z":0.00035152435884810984},"speed_mps":9.62220613135851,"speed_kph":34.63994207289064,"speed_limit_kph":30.0,"collisions_this_frame":[],"waypoint":{"x":-100.36235046386719,"y":8.40349006652832,"z":0.0},"lane_deviation_m":1.0121867656707764,"lane_width":3.5,"goal":{"x":57.40364456176758,"y":28.34353256225586,"z":0.5999999642372131},"fault":{"name":"tire_pressure_imbalance","severity":1.0},"capture_flags":{"save_rgb":true,"save_depth":false,"video_rgb":true,"video_depth":false}}
{"frame":154,"timestamp":{"delta_seconds":0.05000000074505806,"elapsed_seconds":7.24594793189317},"control":{"throttle":0.2907741069793701,"steer":0.40400001406669617,"brake":0.0,"hand_brake":false,"reverse":false,"manual_gear_shift":false,"gear":0},"transform":{"location":{"x":-100.0009765625,"y":7.367453575134277,"z":0.0022494124714285135},"rotation":{"pitch":-0.034915924072265625,"yaw":-138.62640380859375,"roll":-0.1881408393383026}},"velocity":{"x":-6.834606647491455,"y":-6.600913047790527,"z":3.395080511836568e-06},"angular_velocity":{"x":-0.49665558338165283,"y":-0.4451634883880615,"z":26.875},"acceleration":{"x":6.936502456665039,"y":-3.9340877532958984,"z":-0.00012683868408203125},"speed_mps":9.501784100390681,"speed_kph":34.20642276140645,"speed_limit_kph":30.0,"collisions_this_frame":[],"waypoint":{"x":-100.74237823486328,"y":7.953492641448975,"z":0.0},"lane_deviation_m":0.9450519680976868,"lane_width":3.5,"goal":{"x":57.40364456176758,"y":28.34353256225586,"z":0.5999999642372131},"fault":{"name":"tire_pressure_imbalance","severity":1.0},"capture_flags":{"save_rgb":true,"save_depth":false,"video_rgb":true,"video_depth":false}}
{"frame":155,"timestamp":{"delta_seconds":0.05000000074505806,"elapsed_seconds":7.295947932638228},"control":{"throttle":0.725439190864563,"steer":0.2199999988079071,"brake":0.0,"hand_brake":false,"reverse":false,"manual_gear_shift":false,"gear":0},"transform":{"location":{"x":-100.33831787109375,"y":7.038654804229736,"z":0.0022470091935247183},"rotation":{"pitch":-0.034424152225255966,"yaw":-136.97262573242188,"roll":-0.2159423530101776}},"velocity":{"x":-6.485369682312012,"y":-6.790989875793457,"z":-7.810592251189519e-06},"angular_velocity":{"x":-0.3360825479030609,"y":-0.27624908089637756,"z":36.74622344970703},"acceleration":{"x":6.984739303588867,"y":-3.8015365600585938,"z":-0.00022411346435546875},"speed_mps":9.39029091186434,"speed_kph":33.80504728271163,"speed_limit_kph":30.0,"collisions_this_frame":[],"waypoint":{"x":-100.98928833007812,"y":7.63389778137207,"z":0.0},"lane_deviation_m":0.8820894956588745,"lane_width":3.5,"goal":{"x":57.40364456176758,"y":28.34353256225586,"z":0.5999999642372131},"fault":{"name":"tire_pressure_imbalance","severity":1.0},"capture_flags":{"save_rgb":true,"save_depth":false,"video_rgb":true,"video_depth":false}}
{"frame":156,"timestamp":{"delta_seconds":0.05000000074505806,"elapsed_seconds":7.345947933383286},"control":{"throttle":0.86583411693573,"steer":0.27900001406669617,"brake":0.0,"hand_brake":false,"reverse":false,"manual_gear_shift":false,"gear":0},"transform":{"location":{"x":-100.6586685180664,"y":6.69951868057251,"z":0.0022372817620635033},"rotation":{"pitch":-0.03275075554847717,"yaw":-135.03729248046875,"roll":-0.2458190619945526}},"velocity":{"x":-6.1014533042907715,"y":-7.051231384277344,"z":-1.6717909602448344e-05},"angular_velocity":{"x":-0.47205179929733276,"y":-0.40055397152900696,"z":39.9000358581543},"acceleration":{"x":7.678327560424805,"y":-5.204830169677734,"z":-0.00017814635066315532},"speed_mps":9.324569505308974,"speed_kph":33.56845021911231,"speed_limit_kph":30.0,"collisions_this_frame":[],"waypoint":{"x":-101.31874084472656,"y":7.16760778427124,"z":0.0},"lane_deviation_m":0.8092020153999329,"lane_width":3.5,"goal":{"x":57.40364456176758,"y":28.34353256225586,"z":0.5999999642372131},"fault":{"name":"tire_pressure_imbalance","severity":1.0},"capture_flags":{"save_rgb":true,"save_depth":false,"video_rgb":true,"video_depth":false}}
{"frame":157,"timestamp":{"delta_seconds":0.05000000074505806,"elapsed_seconds":7.395947934128344},"control":{"throttle":0.7367154955863953,"steer":0.5239999890327454,"brake":0.0,"hand_brake":false,"reverse":false,"manual_gear_shift":false,"gear":0},"transform":{"location":{"x":-100.95977020263672,"y":6.347018241882324,"z":0.0022209547460079193},"rotation":{"pitch":-0.029936717823147774,"yaw":-132.62860107421875,"roll":-0.28829947113990784}},"velocity":{"x":-5.616579055786133,"y":-7.381511688232422,"z":-2.8581618607859127e-05},"angular_velocity":{"x":-0.7316360473632812,"y":-0.703628420829773,"z":54.0085334777832},"acceleration":{"x":9.697484970092773,"y":-6.6056060791015625,"z":-0.00023727418738417327},"speed_mps":9.275380051201363,"speed_kph":33.39136818432491,"speed_limit_kph":30.0,"collisions_this_frame":[],"waypoint":{"x":-101.53457641601562,"y":6.832823276519775,"z":0.0},"lane_deviation_m":0.752604603767395,"lane_width":3.5,"goal":{"x":57.40364456176758,"y":28.34353256225586,"z":0.5999999642372131},"fault":{"name":"tire_pressure_imbalance","severity":1.0},"capture_flags":{"save_rgb":true,"save_depth":false,"video_rgb":true,"video_depth":false}}
{"frame":158,"timestamp":{"delta_seconds":0.05000000074505806,"elapsed_seconds":7.445947934873402},"control":{"throttle":1.0,"steer":0.4860000014305115,"brake":0.0,"hand_brake":false,"reverse":false,"manual_gear_shift":false,"gear":0},"transform":{"location":{"x":-101.2354507446289,"y":5.977885723114014,"z":0.0022101975046098232},"rotation":{"pitch":-0.027949132025241852,"yaw":-129.64060974121094,"roll":-0.3466186225414276}},"velocity":{"x":-5.013169288635254,"y":-7.765898704528809,"z":-4.1093826439464465e-05},"angular_velocity":{"x":-0.7911487221717834,"y":-0.8812001943588257,"z":63.6623649597168},"acceleration":{"x":12.068195343017578,"y":-7.687740325927734,"z":-0.00025024416390806437},"speed_mps":9.243432750185757,"speed_kph":33.27635790066873,"speed_limit_kph":30.0,"collisions_this_frame":[],"waypoint":{"x":-101.81785583496094,"y":6.35011100769043,"z":0.0},"lane_deviation_m":0.6911962628364563,"lane_width":3.5,"goal":{"x":57.40364456176758,"y":28.34353256225586,"z":0.5999999642372131},"fault":{"name":"tire_pressure_imbalance","severity":1.0},"capture_flags":{"save_rgb":true,"save_depth":false,"video_rgb":true,"video_depth":false}}
