{"frame":3561,"timestamp":{"delta_seconds":0.05000000074505806,"elapsed_seconds":38.63057851791382},"control":{"throttle":0.75,"steer":0.0,"brake":0.0,"hand_brake":false,"reverse":false,"manual_gear_shift":false,"gear":0},"transform":{"location":{"x":27.14229393005371,"y":66.28325653076172,"z":0.48239997029304504},"rotation":{"pitch":0.0,"yaw":-179.92672729492188,"roll":0.0}},"velocity":{"x":0.0,"y":0.0,"z":-1.470000147819519},"angular_velocity":{"x":0.0,"y":0.0,"z":0.0},"acceleration":{"x":0.0,"y":0.0,"z":-9.80000114440918},"speed_mps":1.470000147819519,"speed_kph":5.2920005321502686,"speed_limit_kph":30.0,"collisions_this_frame":[],"waypoint":{"x":27.14229393005371,"y":66.28325653076172,"z":0.0},"lane_deviation_m":0.48239997029304504,"lane_width":3.5,"goal":{"x":-71.26968383789062,"y":132.3148956298828,"z":0.5999999642372131},"fault":{"name":"tire_pressure_imbalance","severity":1.0},"capture_flags":{"save_rgb":true,"save_depth":false,"video_rgb":true,"video_depth":false}}
{"frame":3562,"timestamp":{"delta_seconds":0.05000000074505806,"elapsed_seconds":38.680578518658876},"control":{"throttle":0.75,"steer":0.0,"brake":0.0,"hand_brake":false,"reverse":false,"manual_gear_shift":false,"gear":0},"transform":{"location":{"x":27.14229393005371,"y":66.28325653076172,"z":0.3941999673843384},"rotation":{"pitch":0.0,"yaw":-179.92672729492188,"roll":0.0}},"velocity":{"x":0.0,"y":0.0,"z":-1.9600002765655518},"angular_velocity":{"x":0.0,"y":0.0,"z":0.0},"acceleration":{"x":0.0,"y":0.0,"z":-9.800003051757812},"speed_mps":1.9600002765655518,"speed_kph":7.056000995635986,"speed_limit_kph":30.0,"collisions_this_frame":[],"waypoint":{"x":27.14229393005371,"y":66.28325653076172,"z":0.0},"lane_deviation_m":0.3941999673843384,"lane_width":3.5,"goal":{"x":-71.26968383789062,"y":132.3148956298828,"z":0.5999999642372131},"fault":{"name":"tire_pressure_imbalance","severity":1.0},"capture_flags":{"save_rgb":true,"save_depth":false,"video_rgb":true,"video_depth":false}}
{"frame":3563,"timestamp":{"delta_seconds":0.05000000074505806,"elapsed_seconds":38.730578519403934},"control":{"throttle":0.75,"steer":0.0,"brake":0.0,"hand_brake":false,"reverse":false,"manual_gear_shift":false,"gear":0},"transform":{"location":{"x":27.14229393005371,"y":66.28325653076172,"z":0.28150007128715515},"rotation":{"pitch":0.0,"yaw":-179.92672729492188,"roll":0.0}},"velocity":{"x":0.0,"y":0.0,"z":-2.450000286102295},"angular_velocity":{"x":0.0,"y":0.0,"z":0.0},"acceleration":{"x":0.0,"y":0.0,"z":-9.800000190734863},"speed_mps":2.450000286102295,"speed_kph":8.820001029968262,"speed_limit_kph":30.0,"collisions_this_frame":[],"waypoint":{"x":27.14229393005371,"y":66.28325653076172,"z":0.0},"lane_deviation_m":0.28150007128715515,"lane_width":3.5,"goal":{"x":-71.26968383789062,"y":132.3148956298828,"z":0.5999999642372131},"fault":{"name":"tire_pressure_imbalance","severity":1.0},"capture_flags":{"save_rgb":true,"save_depth":false,"video_rgb":true,"video_depth":false}}
{"frame":3564,"timestamp":{"delta_seconds":0.05000000074505806,"elapsed_seconds":38.78057852014899},"control":{"throttle":0.75,"steer":0.0,"brake":0.0,"hand_brake":false,"reverse":false,"manual_gear_shift":false,"gear":0},"transform":{"location":{"x":27.14229393005371,"y":66.28325653076172,"z":0.14429999887943268},"rotation":{"pitch":0.0,"yaw":-179.92672729492188,"roll":0.0}},"velocity":{"x":0.0,"y":0.0,"z":-2.93999981880188},"angular_velocity":{"x":0.0,"y":0.0,"z":0.0},"acceleration":{"x":0.0,"y":0.0,"z":-9.7999906539917},"speed_mps":2.93999981880188,"speed_kph":10.583999347686769,"speed_limit_kph":30.0,"collisions_this_frame":[],"waypoint":{"x":27.14229393005371,"y":66.28325653076172,"z":0.0},"lane_deviation_m":0.14429999887943268,"lane_width":3.5,"goal":{"x":-71.26968383789062,"y":132.3148956298828,"z":0.5999999642372131},"fault":{"name":"tire_pressure_imbalance","severity":1.0},"capture_flags":{"save_rgb":true,"save_depth":false,"video_rgb":true,"video_depth":false}}
{"frame":3565,"timestamp":{"delta_seconds":0.05000000074505806,"elapsed_seconds":38.83057852089405},"control":{"throttle":0.75,"steer":0.0,"brake":0.0,"hand_brake":false,"reverse":false,"manual_gear_shift":false,"gear":0},"transform":{"location":{"x":27.14229393005371,"y":66.28325653076172,"z":0.008085518144071102},"rotation":{"pitch":0.0,"yaw":-179.92672729492188,"roll":0.0}},"velocity":{"x":5.401406042437884e-07,"y":8.27444364404073e-06,"z":-2.0645973682403564},"angular_velocity":{"x":-0.0009174657170660794,"y":0.0008077938691712916,"z":-2.1177964271146266e-08},"acceleration":{"x":1.0802812539623119e-05,"y":0.0001654888765187934,"z":17.50804901123047},"speed_mps":2.064597368257008,"speed_kph":7.432550525725229,"speed_limit_kph":30.0,"collisions_this_frame":[],"waypoint":{"x":27.14229393005371,"y":66.28325653076172,"z":0.0},"lane_deviation_m":0.008085518144071102,"lane_width":3.5,"goal":{"x":-71.26968383789062,"y":132.3148956298828,"z":0.5999999642372131},"fault":{"name":"tire_pressure_imbalance","severity":1.0},"capture_flags":{"save_rgb":true,"save_depth":false,"video_rgb":true,"video_depth":false}}
{"frame":3566,"timestamp":{"delta_seconds":0.05000000074505806,"elapsed_seconds":38.88057852163911},"control":{"throttle":0.75,"steer":0.0,"brake":0.0,"hand_brake":false,"reverse":false,"manual_gear_shift":false,"gear":0},"transform":{"location":{"x":27.14229393005371,"y":66.28325653076172,"z":-0.05158824846148491},"rotation":{"pitch":0.0,"yaw":-179.92672729492188,"roll":0.0}},"velocity":{"x":1.8285605563050922e-07,"y":1.3796666280541103e-06,"z":-0.7380892038345337},"angular_velocity":{"x":-6.791537452954799e-05,"y":0.0002636284625623375,"z":1.9342050183723813e-09},"acceleration":{"x":-7.145690688048489e-06,"y":-0.00013789553486276418,"z":26.530162811279297},"speed_mps":0.7380892038358458,"speed_kph":2.657121133809045,"speed_limit_kph":30.0,"collisions_this_frame":[],"waypoint":{"x":27.14229393005371,"y":66.28325653076172,"z":0.0},"lane_deviation_m":0.05158824846148491,"lane_width":3.5,"goal":{"x":-71.26968383789062,"y":132.3148956298828,"z":0.5999999642372131},"fault":{"name":"tire_pressure_imbalance","severity":1.0},"capture_flags":{"save_rgb":true,"save_depth":false,"video_rgb":true,"video_depth":false}}
{"frame":3567,"timestamp":{"delta_seconds":0.05000000074505806,"elapsed_seconds":38.93057852238417},"control":{"throttle":0.75,"steer":0.0,"brake":0.0,"hand_brake":false,"reverse":false,"manual_gear_shift":false,"gear":0},"transform":{"location":{"x":27.14229393005371,"y":66.28325653076172,"z":-0.06773200631141663},"rotation":{"pitch":0.0,"yaw":-179.92672729492188,"roll":0.0}},"velocity":{"x":4.906711126295704e-08,"y":3.655233626886911e-07,"z":-0.11209845542907715},"angular_velocity":{"x":-0.00010197668598266318,"y":7.065256068017334e-05,"z":-1.4876598841695454e-09},"acceleration":{"x":-2.6757788873510435e-06,"y":-2.0282863260945305e-05,"z":12.519815444946289},"speed_mps":0.11209845542968382,"speed_kph":0.40355443954686177,"speed_limit_kph":30.0,"collisions_this_frame":[],"waypoint":{"x":27.14229393005371,"y":66.28325653076172,"z":0.0},"lane_deviation_m":0.06773200631141663,"lane_width":3.5,"goal":{"x":-71.26968383789062,"y":132.3148956298828,"z":0.5999999642372131},"fault":{"name":"tire_pressure_imbalance","severity":1.0},"capture_flags":{"save_rgb":true,"save_depth":false,"video_rgb":true,"video_depth":false}}
{"frame":3568,"timestamp":{"delta_seconds":0.05000000074505806,"elapsed_seconds":38.980578523129225},"control":{"throttle":0.75,"steer":0.0,"brake":0.0,"hand_brake":false,"reverse":false,"manual_gear_shift":false,"gear":0},"transform":{"location":{"x":27.14229393005371,"y":66.28325653076172,"z":-0.06445339322090149},"rotation":{"pitch":0.0,"yaw":-179.92672729492188,"roll":0.0}},"velocity":{"x":2.662354603444328e-08,"y":-1.403551976864037e-07,"z":0.15056174993515015},"angular_velocity":{"x":3.8475929613923654e-05,"y":3.641232615336776e-05,"z":-1.2491472300979467e-09},"acceleration":{"x":-4.4887130457027524e-07,"y":-1.0117571946466342e-05,"z":5.253204345703125},"speed_mps":0.15056174993521793,"speed_kph":0.5420222997667845,"speed_limit_kph":30.0,"collisions_this_frame":[],"waypoint":{"x":27.14229393005371,"y":66.28325653076172,"z":0.0},"lane_deviation_m":0.06445339322090149,"lane_width":3.5,"goal":{"x":-71.26968383789062,"y":132.3148956298828,"z":0.5999999642372131},"fault":{"name":"tire_pressure_imbalance","severity":1.0},"capture_flags":{"save_rgb":true,"save_depth":false,"video_rgb":true,"video_depth":false}}
{"frame":3569,"timestamp":{"delta_seconds":0.05000000074505806,"elapsed_seconds":39.03057852387428},"control":{"throttle":0.75,"steer":0.0,"brake":0.0,"hand_brake":false,"reverse":false,"manual_gear_shift":false,"gear":0},"transform":{"location":{"x":27.14229393005371,"y":66.28325653076172,"z":-0.053962212055921555},"rotation":{"pitch":0.0,"yaw":-179.92672729492188,"roll":0.0}},"velocity":{"x":-1.2647128677656383e-08,"y":-7.73645822960134e-08,"z":0.23337270319461823},"angular_velocity":{"x":1.6620795577182434e-05,"y":-1.9629989765235223e-05,"z":-2.1302839492420844e-09},"acceleration":{"x":-7.854134764784249e-07,"y":1.2598122793860966e-06,"z":1.6562190055847168},"speed_mps":0.2333727031946314,"speed_kph":0.8401417315006731,"speed_limit_kph":30.0,"collisions_this_frame":[],"waypoint":{"x":27.14229393005371,"y":66.28325653076172,"z":0.0},"lane_deviation_m":0.053962212055921555,"lane_width":3.5,"goal":{"x":-71.26968383789062,"y":132.3148956298828,"z":0.5999999642372131},"fault":{"name":"tire_pressure_imbalance","severity":1.0},"capture_flags":{"save_rgb":true,"save_depth":false,"video_rgb":true,"video_depth":false}}
{"frame":3570,"timestamp":{"delta_seconds":0.05000000074505806,"elapsed_seconds":39.08057852461934},"control":{"throttle":0.75,"steer":0.0,"brake":0.0,"hand_brake":false,"reverse":false,"manual_gear_shift":false,"gear":0},"transform":{"location":{"x":27.14229393005371,"y":66.28325653076172,"z":-0.042078398168087006},"rotation":{"pitch":0.0,"yaw":-179.92672729492188,"roll":0.0}},"velocity":{"x":-2.1485558221456813e-08,"y":2.5641261913733615e-07,"z":0.2337069809436798},"angular_velocity":{"x":3.178376118739834e-06,"y":-2.9409182388917543e-05,"z":2.8367714843824388e-09},"acceleration":{"x":-1.7676859442872228e-07,"y":6.675543772871606e-06,"z":0.0066855549812316895},"speed_mps":0.23370698094382147,"speed_kph":0.8413451313977574,"speed_limit_kph":30.0,"collisions_this_frame":[],"waypoint":{"x":27.14229393005371,"y":66.28325653076172,"z":0.0},"lane_deviation_m":0.042078398168087006,"lane_width":3.5,"goal":{"x":-71.26968383789062,"y":132.3148956298828,"z":0.5999999642372131},"fault":{"name":"tire_pressure_imbalance","severity":1.0},"capture_flags":{"save_rgb":true,"save_depth":false,"video_rgb":true,"video_depth":false}}
{"frame":3571,"timestamp":{"delta_seconds":0.05000000074505806,"elapsed_seconds":39.1305785253644},"control":{"throttle":0.75,"steer":0.0,"brake":0.0,"hand_brake":false,"reverse":false,"manual_gear_shift":false,"gear":0},"transform":{"location":{"x":27.129926681518555,"y":66.28323364257812,"z":-0.031377486884593964},"rotation":{"pitch":0.014541472308337688,"yaw":-179.92698669433594,"roll":-6.103515261202119e-05}},"velocity":{"x":-0.603239119052887,"y":-0.0007885023951530457,"z":0.20143474638462067},"angular_velocity":{"x":-0.0008336982573382556,"y":0.6498637795448303,"z":0.00043816474499180913},"acceleration":{"x":-12.06478214263916,"y":-0.015775175765156746,"z":-0.6454446911811829},"speed_mps":0.6359827148144569,"speed_kph":2.289537773332045,"speed_limit_kph":30.0,"collisions_this_frame":[],"waypoint":{"x":27.129926681518555,"y":66.28324127197266,"z":0.0},"lane_deviation_m":0.031377486884593964,"lane_width":3.5,"goal":{"x":-71.26968383789062,"y":132.3148956298828,"z":0.5999999642372131},"fault":{"name":"tire_pressure_imbalance","severity":1.0},"capture_flags":{"save_rgb":true,"save_depth":false,"video_rgb":true,"video_depth":false}}
{"frame":3572,"timestamp":{"delta_seconds":0.05000000074505806,"elapsed_seconds":39.18057852610946},"control":{"throttle":0.75,"steer":0.0,"brake":0.0,"hand_brake":false,"reverse":false,"manual_gear_shift":false,"gear":0},"transform":{"location":{"x":27.080219268798828,"y":66.28316497802734,"z":-0.022707633674144745},"rotation":{"pitch":0.04647260531783104,"yaw":-179.92701721191406,"roll":-6.103514533606358e-05}},"velocity":{"x":-1.2304760217666626,"y":-0.0015685309190303087,"z":0.16076305508613586},"angular_velocity":{"x":-0.0006994662689976394,"y":0.5735893845558167,"z":0.0002530344354454428},"acceleration":{"x":-12.544737815856934,"y":-0.015600570477545261,"z":-0.813433825969696},"speed_mps":1.240934510887897,"speed_kph":4.46736423919643,"speed_limit_kph":30.0,"collisions_this_frame":[],"waypoint":{"x":27.080219268798828,"y":66.2831802368164,"z":0.0},"lane_deviation_m":0.022707639262080193,"lane_width":3.5,"goal":{"x":-71.26968383789062,"y":132.3148956298828,"z":0.5999999642372131},"fault":{"name":"tire_pressure_imbalance","severity":1.0},"capture_flags":{"save_rgb":true,"save_depth":false,"video_rgb":true,"video_depth":false}}
{"frame":3573,"timestamp":{"delta_seconds":0.05000000074505806,"elapsed_seconds":39.230578526854515},"control":{"throttle":0.75,"steer":-8.732896822039038e-05,"brake":0.0,"hand_brake":false,"reverse":false,"manual_gear_shift":false,"gear":0},"transform":{"location":{"x":26.99929428100586,"y":66.28307342529297,"z":-0.01599586382508278},"rotation":{"pitch":0.0730215460062027,"yaw":-179.9272003173828,"roll":-6.103517080191523e-05}},"velocity":{"x":-1.8029792308807373,"y":-0.0021954469848424196,"z":0.12241826951503754},"angular_velocity":{"x":-0.0002735582529567182,"y":0.3890339136123657,"z":-0.003491319017484784},"acceleration":{"x":-11.450063705444336,"y":-0.012538321316242218,"z":-0.7668957114219666},"speed_mps":1.8071317493989791,"speed_kph":6.505674297836325,"speed_limit_kph":30.0,"collisions_this_frame":[],"waypoint":{"x":26.99929428100586,"y":66.28307342529297,"z":0.0},"lane_deviation_m":0.01599586382508278,"lane_width":3.5,"goal":{"x":-71.26968383789062,"y":132.3148956298828,"z":0.5999999642372131},"fault":{"name":"tire_pressure_imbalance","severity":1.0},"capture_flags":{"save_rgb":true,"save_depth":false,"video_rgb":true,"video_depth":false}}
{"frame":3574,"timestamp":{"delta_seconds":0.05000000074505806,"elapsed_seconds":39.28057852759957},"control":{"throttle":0.75,"steer":-8.732896822039038e-05,"brake":0.0,"hand_brake":false,"reverse":false,"manual_gear_shift":false,"gear":0},"transform":{"location":{"x":26.895221710205078,"y":66.28294372558594,"z":-0.010947990231215954},"rotation":{"pitch":0.08699611574411392,"yaw":-179.92738342285156,"roll":-3.0517576306010596e-05}},"velocity":{"x":-2.225484609603882,"y":-0.002695798873901367,"z":0.09030555188655853},"angular_velocity":{"x":-0.0002428931911708787,"y":0.1761508285999298,"z":0.0002869033778551966},"acceleration":{"x":-8.45010757446289,"y":-0.010007037781178951,"z":-0.6422543525695801},"speed_mps":2.2273176934637875,"speed_kph":8.018343696469636,"speed_limit_kph":30.0,"collisions_this_frame":[],"waypoint":{"x":26.895221710205078,"y":66.28294372558594,"z":0.0},"lane_deviation_m":0.010947990231215954,"lane_width":3.5,"goal":{"x":-71.26968383789062,"y":132.3148956298828,"z":0.5999999642372131},"fault":{"name":"tire_pressure_imbalance","severity":1.0},"capture_flags":{"save_rgb":true,"save_depth":false,"video_rgb":true,"video_depth":false}}
{"frame":3575,"timestamp":{"delta_seconds":0.05000000074505806,"elapsed_seconds":39.33057852834463},"control":{"throttle":0.75,"steer":-0.0010202062549069524,"brake":0.0,"hand_brake":false,"reverse":false,"manual_gear_shift":false,"gear":0},"transform":{"location":{"x":26.773590087890625,"y":66.28282928466797,"z":-0.007239455822855234},"rotation":{"pitch":0.09109422564506531,"yaw":-179.92947387695312,"roll":0.00012983630585949868}},"velocity":{"x":-2.5651755332946777,"y":-0.0017171015497297049,"z":0.06511068344116211},"angular_velocity":{"x":0.0032206617761403322,"y":0.034704871475696564,"z":-0.05311691388487816},"acceleration":{"x":-6.793818473815918,"y":0.019573945552110672,"z":-0.5038973689079285},"speed_mps":2.5660023121871,"speed_kph":9.237608323873559,"speed_limit_kph":30.0,"collisions_this_frame":[],"waypoint":{"x":26.773590087890625,"y":66.28278350830078,"z":0.0},"lane_deviation_m":0.007239600643515587,"lane_width":3.5,"goal":{"x":-71.26968383789062,"y":132.3148956298828,"z":0.5999999642372131},"fault":{"name":"tire_pressure_imbalance","severity":1.0},"capture_flags":{"save_rgb":true,"save_depth":false,"video_rgb":true,"video_depth":false}}
{"frame":3576,"timestamp":{"delta_seconds":0.05000000074505806,"elapsed_seconds":39.38057852908969},"control":{"throttle":0.75,"steer":-0.0010202062549069524,"brake":0.0,"hand_brake":false,"reverse":false,"manual_gear_shift":false,"gear":0},"transform":{"location":{"x":26.63632583618164,"y":66.2827377319336,"z":-0.004571189638227224},"rotation":{"pitch":0.09028826653957367,"yaw":-179.93258666992188,"roll":0.00021422491408884525}},"velocity":{"x":-2.8626434803009033,"y":-0.0016016250010579824,"z":0.04613649100065231},"angular_velocity":{"x":0.0009387030149810016,"y":-0.04211582615971565,"z":-0.06518177688121796},"acceleration":{"x":-5.949358940124512,"y":0.0023095309734344482,"z":-0.3794838488101959},"speed_mps":2.8630156891490772,"speed_kph":10.306856480936679,"speed_limit_kph":30.0,"collisions_this_frame":[],"waypoint":{"x":26.63632583618164,"y":66.28260803222656,"z":0.0},"lane_deviation_m":0.004573029465973377,"lane_width":3.5,"goal":{"x":-71.26968383789062,"y":132.3148956298828,"z":0.5999999642372131},"fault":{"name":"tire_pressure_imbalance","severity":1.0},"capture_flags":{"save_rgb":true,"save_depth":false,"video_rgb":true,"video_depth":false}}
{"frame":3577,"timestamp":{"delta_seconds":0.05000000074505806,"elapsed_seconds":39.43057852983475},"control":{"throttle":0.75,"steer":0.002080782549455762,"brake":0.0,"hand_brake":false,"reverse":false,"manual_gear_shift":false,"gear":0},"transform":{"location":{"x":26.484394073486328,"y":66.28264617919922,"z":-0.002682647667825222},"rotation":{"pitch":0.08750838041305542,"yaw":-179.93601989746094,"roll":0.00023868556309025735}},"velocity":{"x":-3.1547975540161133,"y":-0.0015323132975026965,"z":0.03224962204694748},"angular_velocity":{"x":0.00035769055830314755,"y":-0.06032021343708038,"z":-0.07154549658298492},"acceleration":{"x":-5.843081474304199,"y":0.0013862340711057186,"z":-0.2777373790740967},"speed_mps":3.154962756187823,"speed_kph":11.357865922276163,"speed_limit_kph":30.0,"collisions_this_frame":[],"waypoint":{"x":26.484394073486328,"y":66.28241729736328,"z":0.0},"lane_deviation_m":0.002692393958568573,"lane_width":3.5,"goal":{"x":-71.26968383789062,"y":132.3148956298828,"z":0.5999999642372131},"fault":{"name":"tire_pressure_imbalance","severity":1.0},"capture_flags":{"save_rgb":true,"save_depth":false,"video_rgb":true,"video_depth":false}}
{"frame":3578,"timestamp":{"delta_seconds":0.05000000074505806,"elapsed_seconds":39.480578530579805},"control":{"throttle":0.75,"steer":0.002080782549455762,"brake":0.0,"hand_brake":false,"reverse":false,"manual_gear_shift":false,"gear":0},"transform":{"location":{"x":26.318424224853516,"y":66.28237915039062,"z":-0.0013629150344058871},"rotation":{"pitch":0.08418207615613937,"yaw":-179.93194580078125,"roll":-0.00048828116268850863}},"velocity":{"x":-3.430110454559326,"y":-0.007283983752131462,"z":0.022297954186797142},"angular_velocity":{"x":-0.013047091662883759,"y":-0.06849357485771179,"z":0.13190139830112457},"acceleration":{"x":-5.506258010864258,"y":-0.11503340303897858,"z":-0.19903334975242615},"speed_mps":3.4301906631639887,"speed_kph":12.348686387390359,"speed_limit_kph":30.0,"collisions_this_frame":[],"waypoint":{"x":26.318424224853516,"y":66.2822036743164,"z":0.0},"lane_deviation_m":0.0013741649454459548,"lane_width":3.5,"goal":{"x":-71.26968383789062,"y":132.3148956298828,"z":0.5999999642372131},"fault":{"name":"tire_pressure_imbalance","severity":1.0},"capture_flags":{"save_rgb":true,"save_depth":false,"video_rgb":true,"video_depth":false}}
{"frame":3579,"timestamp":{"delta_seconds":0.05000000074505806,"elapsed_seconds":39.53057853132486},"control":{"throttle":0.75,"steer":-0.0011404401157051325,"brake":0.0,"hand_brake":false,"reverse":false,"manual_gear_shift":false,"gear":0},"transform":{"location":{"x":26.138729095458984,"y":66.28217315673828,"z":-0.0004494094755500555},"rotation":{"pitch":0.08091724663972855,"yaw":-179.93289184570312,"roll":-3.0517576306010596e-05}},"velocity":{"x":-3.7003297805786133,"y":-0.0028226193971931934,"z":0.01527794823050499},"angular_velocity":{"x":0.01041072141379118,"y":-0.0656442940235138,"z":-0.06787900626659393},"acceleration":{"x":-5.404386520385742,"y":0.08922728896141052,"z":-0.14040011167526245},"speed_mps":3.7003623968362023,"speed_kph":13.321304628610328,"speed_limit_kph":30.0,"collisions_this_frame":[],"waypoint":{"x":26.138729095458984,"y":66.28197479248047,"z":0.0},"lane_deviation_m":0.0004912405274808407,"lane_width":3.5,"goal":{"x":-71.26968383789062,"y":132.3148956298828,"z":0.5999999642372131},"fault":{"name":"tire_pressure_imbalance","severity":1.0},"capture_flags":{"save_rgb":true,"save_depth":false,"video_rgb":true,"video_depth":false}}
{"frame":3580,"timestamp":{"delta_seconds":0.05000000074505806,"elapsed_seconds":39.58057853206992},"control":{"throttle":0.75,"steer":-0.0011404401157051325,"brake":0.0,"hand_brake":false,"reverse":false,"manual_gear_shift":false,"gear":0},"transform":{"location":{"x":25.94620132446289,"y":66.28204345703125,"z":0.00018085479678120464},"rotation":{"pitch":0.0774543434381485,"yaw":-179.93728637695312,"roll":0.0002824009279720485}},"velocity":{"x":-3.9505343437194824,"y":-0.0018719477811828256,"z":0.010386276058852673},"angular_velocity":{"x":0.004187180195003748,"y":-0.06987696141004562,"z":-0.0949733704328537},"acceleration":{"x":-5.004091262817383,"y":0.019013432785868645,"z":-0.09783343970775604},"speed_mps":3.9505484403847,"speed_kph":14.221974385384922,"speed_limit_kph":30.0,"collisions_this_frame":[],"waypoint":{"x":25.94620132446289,"y":66.28173065185547,"z":0.0},"lane_deviation_m":0.000361324695404619,"lane_width":3.5,"goal":{"x":-71.26968383789062,"y":132.3148956298828,"z":0.5999999642372131},"fault":{"name":"tire_pressure_imbalance","severity":1.0},"capture_flags":{"save_rgb":true,"save_depth":false,"video_rgb":true,"video_depth":false}}
{"frame":3581,"timestamp":{"delta_seconds":0.05000000074505806,"elapsed_seconds":39.63057853281498},"control":{"throttle":0.75,"steer":-0.0025622290559113026,"brake":0.0,"hand_brake":false,"reverse":false,"manual_gear_shift":false,"gear":0},"transform":{"location":{"x":25.74144172668457,"y":66.28201293945312,"z":0.0006140899495221674},"rotation":{"pitch":0.07401875406503677,"yaw":-179.94644165039062,"roll":0.0007666602614335716}},"velocity":{"x":-4.19113302230835,"y":0.0016328097553923726,"z":0.007019319571554661},"angular_velocity":{"x":0.008295963518321514,"y":-0.06755026429891586,"z":-0.2148606926202774},"acceleration":{"x":-4.811973571777344,"y":0.07009515166282654,"z":-0.06733912974596024},"speed_mps":4.191139218350838,"speed_kph":15.088101186063016,"speed_limit_kph":30.0,"collisions_this_frame":[],"waypoint":{"x":25.74144172668457,"y":66.28146362304688,"z":0.0},"lane_deviation_m":0.0008239265298470855,"lane_width":3.5,"goal":{"x":-71.26968383789062,"y":132.3148956298828,"z":0.5999999642372131},"fault":{"name":"tire_pressure_imbalance","severity":1.0},"capture_flags":{"save_rgb":true,"save_depth":false,"video_rgb":true,"video_depth":false}}
{"frame":3582,"timestamp":{"delta_seconds":0.05000000074505806,"elapsed_seconds":39.68057853356004},"control":{"throttle":0.75,"steer":-0.0025622290559113026,"brake":0.0,"hand_brake":false,"reverse":false,"manual_gear_shift":false,"gear":0},"transform":{"location":{"x":25.524879455566406,"y":66.28207397460938,"z":0.0009111404069699347},"rotation":{"pitch":0.07081539928913116,"yaw":-179.95811462402344,"roll":0.0009946638019755483}},"velocity":{"x":-4.424680709838867,"y":0.0031694124918431044,"z":0.004712953232228756},"angular_velocity":{"x":0.0026845685206353664,"y":-0.06142925098538399,"z":-0.24147698283195496},"acceleration":{"x":-4.670953750610352,"y":0.030732054263353348,"z":-0.0461273267865181},"speed_mps":4.42468435497086,"speed_kph":15.928863677895096,"speed_limit_kph":30.0,"collisions_this_frame":[],"waypoint":{"x":25.52488136291504,"y":66.28118896484375,"z":0.0},"lane_deviation_m":0.0012702057138085365,"lane_width":3.5,"goal":{"x":-71.26968383789062,"y":132.3148956298828,"z":0.5999999642372131},"fault":{"name":"tire_pressure_imbalance","severity":1.0},"capture_flags":{"save_rgb":true,"save_depth":false,"video_rgb":true,"video_depth":false}}
{"frame":3583,"timestamp":{"delta_seconds":0.05000000074505806,"elapsed_seconds":39.730578534305096},"control":{"throttle":0.75,"steer":0.0025366726331412792,"brake":0.0,"hand_brake":false,"reverse":false,"manual_gear_shift":false,"gear":0},"transform":{"location":{"x":25.29678726196289,"y":66.2818603515625,"z":0.0011141967261210084},"rotation":{"pitch":0.0679740384221077,"yaw":-179.9549102783203,"roll":-0.00039672848652116954}},"velocity":{"x":-4.653525352478027,"y":-0.00735176308080554,"z":0.003150091040879488},"angular_velocity":{"x":-0.02705639787018299,"y":-0.0535413920879364,"z":0.17277204990386963},"acceleration":{"x":-4.576892852783203,"y":-0.21042349934577942,"z":-0.03125724196434021},"speed_mps":4.65353222591718,"speed_kph":16.75271601330185,"speed_limit_kph":30.0,"collisions_this_frame":[],"waypoint":{"x":25.296789169311523,"y":66.28089904785156,"z":0.0},"lane_deviation_m":0.0014715783763676882,"lane_width":3.5,"goal":{"x":-71.26968383789062,"y":132.3148956298828,"z":0.5999999642372131},"fault":{"name":"tire_pressure_imbalance","severity":1.0},"capture_flags":{"save_rgb":true,"save_depth":false,"video_rgb":true,"video_depth":false}}
{"frame":3584,"timestamp":{"delta_seconds":0.05000000074505806,"elapsed_seconds":39.780578535050154},"control":{"throttle":0.75,"steer":0.0025366726331412792,"brake":0.0,"hand_brake":false,"reverse":false,"manual_gear_shift":false,"gear":0},"transform":{"location":{"x":25.057350158691406,"y":66.28144073486328,"z":0.0012525558704510331},"rotation":{"pitch":0.06554248929023743,"yaw":-179.9435577392578,"roll":-0.0012207030085846782}},"velocity":{"x":-4.879016399383545,"y":-0.010965135879814625,"z":0.0020974634680896997},"angular_velocity":{"x":-0.010417046956717968,"y":-0.045326054096221924,"z":0.24947157502174377},"acceleration":{"x":-4.509820938110352,"y":-0.07226745784282684,"z":-0.02105255052447319},"speed_mps":4.87902917177295,"speed_kph":17.56450501838262,"speed_limit_kph":30.0,"collisions_this_frame":[],"waypoint":{"x":25.05735206604004,"y":66.28059387207031,"z":0.0},"lane_deviation_m":0.0015119776362553239,"lane_width":3.5,"goal":{"x":-71.26968383789062,"y":132.3148956298828,"z":0.5999999642372131},"fault":{"name":"tire_pressure_imbalance","severity":1.0},"capture_flags":{"save_rgb":true,"save_depth":false,"video_rgb":true,"video_depth":false}}
{"frame":3585,"timestamp":{"delta_seconds":0.05000000074505806,"elapsed_seconds":39.83057853579521},"control":{"throttle":0.48585399985313416,"steer":-0.000652525806799531,"brake":0.0,"hand_brake":false,"reverse":false,"manual_gear_shift":false,"gear":0},"transform":{"location":{"x":24.80712127685547,"y":66.28111267089844,"z":0.001483497559092939},"rotation":{"pitch":0.0628582239151001,"yaw":-179.94068908691406,"roll":-0.0004577636136673391}},"velocity":{"x":-5.081026077270508,"y":-0.005308231804519892,"z":0.007365226745605469},"angular_velocity":{"x":0.019396603107452393,"y":-0.07001827657222748,"z":-0.017161192372441292},"acceleration":{"x":-4.040193557739258,"y":0.11313807964324951,"z":0.10535527020692825},"speed_mps":5.081034188213343,"speed_kph":18.291723077568037,"speed_limit_kph":30.0,"collisions_this_frame":[],"waypoint":{"x":24.8071231842041,"y":66.2802734375,"z":0.0},"lane_deviation_m":0.0017044299747794867,"lane_width":3.5,"goal":{"x":-71.26968383789062,"y":132.3148956298828,"z":0.5999999642372131},"fault":{"name":"tire_pressure_imbalance","severity":1.0},"capture_flags":{"save_rgb":true,"save_depth":false,"video_rgb":true,"video_depth":false}}
{"frame":3586,"timestamp":{"delta_seconds":0.05000000074505806,"elapsed_seconds":39.88057853654027},"control":{"throttle":0.48585399985313416,"steer":-0.000652525806799531,"brake":0.0,"hand_brake":false,"reverse":false,"manual_gear_shift":false,"gear":0},"transform":{"location":{"x":24.548307418823242,"y":66.2808837890625,"z":0.0017258452717214823},"rotation":{"pitch":0.05843226611614227,"yaw":-179.9431610107422,"roll":9.728079021442682e-05}},"velocity":{"x":-5.228771209716797,"y":-0.003824750892817974,"z":0.002781724790111184},"angular_velocity":{"x":0.0062372745014727116,"y":-0.10799435526132584,"z":-0.05009041726589203},"acceleration":{"x":-2.9549026489257812,"y":0.029669618234038353,"z":-0.09167004376649857},"speed_mps":5.22877334852788,"speed_kph":18.82358405470037,"speed_limit_kph":30.0,"collisions_this_frame":[],"waypoint":{"x":24.548309326171875,"y":66.27993774414062,"z":0.0},"lane_deviation_m":0.001968132797628641,"lane_width":3.5,"goal":{"x":-71.26968383789062,"y":132.3148956298828,"z":0.5999999642372131},"fault":{"name":"tire_pressure_imbalance","severity":1.0},"capture_flags":{"save_rgb":true,"save_depth":false,"video_rgb":true,"video_depth":false}}
{"frame":3587,"timestamp":{"delta_seconds":0.05000000074505806,"elapsed_seconds":39.93057853728533},"control":{"throttle":0.1064680740237236,"steer":0.0018821146804839373,"brake":0.0,"hand_brake":false,"reverse":false,"manual_gear_shift":false,"gear":0},"transform":{"location":{"x":24.288734436035156,"y":66.28056335449219,"z":0.0018678283086046576},"rotation":{"pitch":0.0464521124958992,"yaw":-179.94024658203125,"roll":-0.00042724600643850863}},"velocity":{"x":-5.181410789489746,"y":-0.008069891482591629,"z":0.0007621097611263394},"angular_velocity":{"x":-0.012324427254498005,"y":-0.2586389482021332,"z":0.1202748492360115},"acceleration":{"x":0.9472084045410156,"y":-0.0849028080701828,"z":-0.04039229825139046},"speed_mps":5.181417129840116,"speed_kph":18.65310166742442,"speed_limit_kph":30.0,"collisions_this_frame":[],"waypoint":{"x":24.28873634338379,"y":66.27960968017578,"z":0.0},"lane_deviation_m":0.002097207820042968,"lane_width":3.5,"goal":{"x":-71.26968383789062,"y":132.3148956298828,"z":0.5999999642372131},"fault":{"name":"tire_pressure_imbalance","severity":1.0},"capture_flags":{"save_rgb":true,"save_depth":false,"video_rgb":true,"video_depth":false}}
{"frame":3588,"timestamp":{"delta_seconds":0.05000000074505806,"elapsed_seconds":39.980578538030386},"control":{"throttle":0.1064680740237236,"steer":0.0018821146804839373,"brake":0.0,"hand_brake":false,"reverse":false,"manual_gear_shift":false,"gear":0},"transform":{"location":{"x":24.032203674316406,"y":66.2801513671875,"z":0.0019584274850785732},"rotation":{"pitch":0.03272343426942825,"yaw":-179.9326171875,"roll":-0.0007629393367096782}},"velocity":{"x":-5.0986480712890625,"y":-0.009714573621749878,"z":-5.7973858929472044e-05},"angular_velocity":{"x":-0.0031498216558247805,"y":-0.2795550525188446,"z":0.16562698781490326},"acceleration":{"x":1.6552543640136719,"y":-0.03289364278316498,"z":-0.01640167273581028},"speed_mps":5.0986573263126145,"speed_kph":18.355166374725414,"speed_limit_kph":30.0,"collisions_this_frame":[],"waypoint":{"x":24.03220558166504,"y":66.27928161621094,"z":0.0},"lane_deviation_m":0.002142873825505376,"lane_width":3.5,"goal":{"x":-71.26968383789062,"y":132.3148956298828,"z":0.5999999642372131},"fault":{"name":"tire_pressure_imbalance","severity":1.0},"capture_flags":{"save_rgb":true,"save_depth":false,"video_rgb":true,"video_depth":false}}
{"frame":3589,"timestamp":{"delta_seconds":0.05000000074505806,"elapsed_seconds":40.030578538775444},"control":{"throttle":0.1064680740237236,"steer":-0.001981831155717373,"brake":0.0,"hand_brake":false,"reverse":false,"manual_gear_shift":false,"gear":0},"transform":{"location":{"x":23.778549194335938,"y":66.27986145019531,"z":0.0020135496743023396},"rotation":{"pitch":0.021207736805081367,"yaw":-179.93301391601562,"roll":6.685948756057769e-05}},"velocity":{"x":-5.05821418762207,"y":-0.003974576946347952,"z":-0.00033083916059695184},"angular_velocity":{"x":0.018648169934749603,"y":-0.1946628838777542,"z":-0.09005307406187057},"acceleration":{"x":0.8086776733398438,"y":0.11479993164539337,"z":-0.0054573058150708675},"speed_mps":5.058215759986683,"speed_kph":18.20957673595206,"speed_limit_kph":30.0,"collisions_this_frame":[],"waypoint":{"x":23.77855110168457,"y":66.2789535522461,"z":0.0},"lane_deviation_m":0.0022087700199335814,"lane_width":3.5,"goal":{"x":-71.26968383789062,"y":132.3148956298828,"z":0.5999999642372131},"fault":{"name":"tire_pressure_imbalance","severity":1.0},"capture_flags":{"save_rgb":true,"save_depth":false,"video_rgb":true,"video_depth":false}}
{"frame":3590,"timestamp":{"delta_seconds":0.05000000074505806,"elapsed_seconds":40.0805785395205},"control":{"throttle":0.1064680740237236,"steer":-0.001981831155717373,"brake":0.0,"hand_brake":false,"reverse":false,"manual_gear_shift":false,"gear":0},"transform":{"location":{"x":23.527477264404297,"y":66.27970886230469,"z":0.0019905089866369963},"rotation":{"pitch":0.013353019021451473,"yaw":-179.94003295898438,"roll":0.0006232339073903859}},"velocity":{"x":-5.036684989929199,"y":-0.001159297302365303,"z":0.000716361973900348},"angular_velocity":{"x":0.011244179680943489,"y":-0.0965035930275917,"z":-0.17692190408706665},"acceleration":{"x":0.4305839538574219,"y":0.056305594742298126,"z":0.0209440216422081},"speed_mps":5.036685174291005,"speed_kph":18.132066627447617,"speed_limit_kph":30.0,"collisions_this_frame":[],"waypoint":{"x":23.52747917175293,"y":66.27863311767578,"z":0.0},"lane_deviation_m":0.0022625993005931377,"lane_width":3.5,"goal":{"x":-71.26968383789062,"y":132.3148956298828,"z":0.5999999642372131},"fault":{"name":"tire_pressure_imbalance","severity":1.0},"capture_flags":{"save_rgb":true,"save_depth":false,"video_rgb":true,"video_depth":false}}
{"frame":3591,"timestamp":{"delta_seconds":0.05000000074505806,"elapsed_seconds":40.13057854026556},"control":{"throttle":0.1064680740237236,"steer":-0.003763927612453699,"brake":0.0,"hand_brake":false,"reverse":false,"manual_gear_shift":false,"gear":0},"transform":{"location":{"x":23.275680541992188,"y":66.27975463867188,"z":0.001967849675565958},"rotation":{"pitch":0.009432490915060043,"yaw":-179.9550323486328,"roll":0.0013588989386335015}},"velocity":{"x":-5.029331207275391,"y":0.004110686480998993,"z":-0.0060802362859249115},"angular_velocity":{"x":0.008904852904379368,"y":-0.04595627263188362,"z":-0.33909842371940613},"acceleration":{"x":0.14707565307617188,"y":0.10539967566728592,"z":-0.13593196868896484},"speed_mps":5.029336562558801,"speed_kph":18.105611625211683,"speed_limit_kph":30.0,"collisions_this_frame":[],"waypoint":{"x":23.27568244934082,"y":66.27831268310547,"z":0.0},"lane_deviation_m":0.00243960483931005,"lane_width":3.5,"goal":{"x":-71.26968383789062,"y":132.3148956298828,"z":0.5999999642372131},"fault":{"name":"tire_pressure_imbalance","severity":1.0},"capture_flags":{"save_rgb":true,"save_depth":false,"video_rgb":true,"video_depth":false}}
{"frame":3592,"timestamp":{"delta_seconds":0.05000000074505806,"elapsed_seconds":40.18057854101062},"control":{"throttle":0.1064680740237236,"steer":-0.003763927612453699,"brake":0.0,"hand_brake":false,"reverse":false,"manual_gear_shift":false,"gear":0},"transform":{"location":{"x":23.024477005004883,"y":66.27996063232422,"z":0.0019735717214643955},"rotation":{"pitch":0.0065979622304439545,"yaw":-179.97384643554688,"roll":0.0017416694900020957}},"velocity":{"x":-5.024610996246338,"y":0.007581439334899187,"z":0.001612930209375918},"angular_velocity":{"x":0.0056112767197191715,"y":-0.04695495590567589,"z":-0.3898261487483978},"acceleration":{"x":0.09440422058105469,"y":0.06941505521535873,"z":0.153863325715065},"speed_mps":5.024616974791797,"speed_kph":18.088621109250468,"speed_limit_kph":30.0,"collisions_this_frame":[],"waypoint":{"x":23.024478912353516,"y":66.27799224853516,"z":0.0},"lane_deviation_m":0.0027873865328729153,"lane_width":3.5,"goal":{"x":-71.26968383789062,"y":132.3148956298828,"z":0.5999999642372131},"fault":{"name":"tire_pressure_imbalance","severity":1.0},"capture_flags":{"save_rgb":true,"save_depth":false,"video_rgb":true,"video_depth":false}}
{"frame":3593,"timestamp":{"delta_seconds":0.05000000074505806,"elapsed_seconds":40.230578541755676},"control":{"throttle":0.1064680740237236,"steer":0.00027251054416410625,"brake":0.0,"hand_brake":false,"reverse":false,"manual_gear_shift":false,"gear":0},"transform":{"location":{"x":22.7750186920166,"y":66.28004455566406,"z":0.0019243239657953382},"rotation":{"pitch":0.0031418867874890566,"yaw":-179.984130859375,"roll":0.0007067373371683061}},"velocity":{"x":-4.977813720703125,"y":0.001141341868788004,"z":-0.004713735543191433},"angular_velocity":{"x":-0.01935507543385029,"y":-0.05244707316160202,"z":-0.15632855892181396},"acceleration":{"x":0.9359455108642578,"y":-0.12880194187164307,"z":-0.12653331458568573},"speed_mps":4.977816083382784,"speed_kph":17.920137900178023,"speed_limit_kph":30.0,"collisions_this_frame":[],"waypoint":{"x":22.775020599365234,"y":66.27767181396484,"z":0.0},"lane_deviation_m":0.0030549843795597553,"lane_width":3.5,"goal":{"x":-71.26968383789062,"y":132.3148956298828,"z":0.5999999642372131},"fault":{"name":"tire_pressure_imbalance","severity":1.0},"capture_flags":{"save_rgb":true,"save_depth":false,"video_rgb":true,"video_depth":false}}
{"frame":3594,"timestamp":{"delta_seconds":0.05000000074505806,"elapsed_seconds":40.280578542500734},"control":{"throttle":0.1064680740237236,"steer":0.00027251054416410625,"brake":0.0,"hand_brake":false,"reverse":false,"manual_gear_shift":false,"gear":0},"transform":{"location":{"x":22.52643585205078,"y":66.2800064086914,"z":0.0017946624429896474},"rotation":{"pitch":0.0012294340413063765,"yaw":-179.98672485351562,"roll":0.0}},"velocity":{"x":-4.963735580444336,"y":-0.0011291976552456617,"z":-0.0018225096864625812},"angular_velocity":{"x":-0.010022887028753757,"y":-0.036331016570329666,"z":-0.009763853624463081},"acceleration":{"x":0.28156280517578125,"y":-0.04541078954935074,"z":0.0578245148062706},"speed_mps":4.963736043465443,"speed_kph":17.869449756475593,"speed_limit_kph":30.0,"collisions_this_frame":[],"waypoint":{"x":22.526439666748047,"y":66.27735137939453,"z":0.0},"lane_deviation_m":0.003204685403034091,"lane_width":3.5,"goal":{"x":-71.26968383789062,"y":132.3148956298828,"z":0.5999999642372131},"fault":{"name":"tire_pressure_imbalance","severity":1.0},"capture_flags":{"save_rgb":true,"save_depth":false,"video_rgb":true,"video_depth":false}}
{"frame":3595,"timestamp":{"delta_seconds":0.05000000074505806,"elapsed_seconds":40.33057854324579},"control":{"throttle":0.30259764194488525,"steer":-0.00031770329223945737,"brake":0.0,"hand_brake":false,"reverse":false,"manual_gear_shift":false,"gear":0},"transform":{"location":{"x":22.279016494750977,"y":66.27996063232422,"z":0.0017595671815797687},"rotation":{"pitch":-0.00045762263471260667,"yaw":-179.98782348632812,"roll":-9.1552734375e-05}},"velocity":{"x":-4.940916538238525,"y":-0.00035424676025286317,"z":-0.00042778014903888106},"angular_velocity":{"x":0.0005125747411511838,"y":-0.028356926515698433,"z":-0.027175219729542732},"acceleration":{"x":0.45638084411621094,"y":0.015499018132686615,"z":0.02789459191262722},"speed_mps":4.940916569456076,"speed_kph":17.787299650041874,"speed_limit_kph":30.0,"collisions_this_frame":[],"waypoint":{"x":22.279020309448242,"y":66.27703857421875,"z":0.0},"lane_deviation_m":0.0034109405241906643,"lane_width":3.5,"goal":{"x":-71.26968383789062,"y":132.3148956298828,"z":0.5999999642372131},"fault":{"name":"tire_pressure_imbalance","severity":1.0},"capture_flags":{"save_rgb":true,"save_depth":false,"video_rgb":true,"video_depth":false}}
{"frame":3596,"timestamp":{"delta_seconds":0.05000000074505806,"elapsed_seconds":40.38057854399085},"control":{"throttle":0.30259764194488525,"steer":-0.00031770329223945737,"brake":0.0,"hand_brake":false,"reverse":false,"manual_gear_shift":false,"gear":0},"transform":{"location":{"x":22.032169342041016,"y":66.27995300292969,"z":0.0017630005022510886},"rotation":{"pitch":-0.0012226038379594684,"yaw":-179.98941040039062,"roll":-6.103515261202119e-05}},"velocity":{"x":-4.936531066894531,"y":-7.484044908778742e-05,"z":0.0001818752207327634},"angular_velocity":{"x":0.0008366871043108404,"y":-0.006343191955238581,"z":-0.03315938264131546},"acceleration":{"x":0.08770942687988281,"y":0.005588126368820667,"z":0.012193107977509499},"speed_mps":4.93653107081223,"speed_kph":17.77151185492403,"speed_limit_kph":30.0,"collisions_this_frame":[],"waypoint":{"x":22.032175064086914,"y":66.27672576904297,"z":0.0},"lane_deviation_m":0.0036773961037397385,"lane_width":3.5,"goal":{"x":-71.26968383789062,"y":132.3148956298828,"z":0.5999999642372131},"fault":{"name":"tire_pressure_imbalance","severity":1.0},"capture_flags":{"save_rgb":true,"save_depth":false,"video_rgb":true,"video_depth":false}}
{"frame":3597,"timestamp":{"delta_seconds":0.05000000074505806,"elapsed_seconds":40.43057854473591},"control":{"throttle":0.43046116828918457,"steer":0.00033322456874884665,"brake":0.0,"hand_brake":false,"reverse":false,"manual_gear_shift":false,"gear":0},"transform":{"location":{"x":21.784942626953125,"y":66.27989959716797,"z":0.0017770003760233521},"rotation":{"pitch":-0.0007649811450392008,"yaw":-179.9889678955078,"roll":-0.000213623046875}},"velocity":{"x":-4.953972816467285,"y":-0.0014602973824366927,"z":0.00039715765160508454},"angular_velocity":{"x":-0.003135062288492918,"y":0.020622707903385162,"z":0.023650532588362694},"acceleration":{"x":-0.3488349914550781,"y":-0.02770913764834404,"z":0.004305648617446423},"speed_mps":4.953973047615364,"speed_kph":17.83430297141531,"speed_limit_kph":30.0,"collisions_this_frame":[],"waypoint":{"x":21.78494644165039,"y":66.27640533447266,"z":0.0},"lane_deviation_m":0.003920155111700296,"lane_width":3.5,"goal":{"x":-71.26968383789062,"y":132.3148956298828,"z":0.5999999642372131},"fault":{"name":"tire_pressure_imbalance","severity":1.0},"capture_flags":{"save_rgb":true,"save_depth":false,"video_rgb":true,"video_depth":false}}
{"frame":3598,"timestamp":{"delta_seconds":0.05000000074505806,"elapsed_seconds":40.48057854548097},"control":{"throttle":0.43046116828918457,"steer":0.00033322456874884665,"brake":0.0,"hand_brake":false,"reverse":false,"manual_gear_shift":false,"gear":0},"transform":{"location":{"x":21.536027908325195,"y":66.27982330322266,"z":0.0017876814818009734},"rotation":{"pitch":0.0010313584934920073,"yaw":-179.9874267578125,"roll":-0.00030517569393850863}},"velocity":{"x":-4.996671199798584,"y":-0.0019201510585844517,"z":0.00042724609375},"angular_velocity":{"x":-0.0008789976709522307,"y":0.04434641823172569,"z":0.03320810943841934},"acceleration":{"x":-0.8539676666259766,"y":-0.009197073057293892,"z":0.0006017688428983092},"speed_mps":4.996671587008289,"speed_kph":17.98801771322984,"speed_limit_kph":30.0,"collisions_this_frame":[],"waypoint":{"x":21.53603172302246,"y":66.27608489990234,"z":0.0},"lane_deviation_m":0.004143848083913326,"lane_width":3.5,"goal":{"x":-71.26968383789062,"y":132.3148956298828,"z":0.5999999642372131},"fault":{"name":"tire_pressure_imbalance","severity":1.0},"capture_flags":{"save_rgb":true,"save_depth":false,"video_rgb":true,"video_depth":false}}
{"frame":3599,"timestamp":{"delta_seconds":0.05000000074505806,"elapsed_seconds":40.530578546226025},"control":{"throttle":0.08329151570796967,"steer":-0.001334651722572744,"brake":0.0,"hand_brake":false,"reverse":false,"manual_gear_shift":false,"gear":0},"transform":{"location":{"x":21.28497314453125,"y":66.27983856201172,"z":0.0020112991333007812},"rotation":{"pitch":0.0032375094015151262,"yaw":-179.99154663085938,"roll":0.00027095587574876845}},"velocity":{"x":-5.028038024902344,"y":0.001999723259359598,"z":0.004242534749209881},"angular_velocity":{"x":0.010358089581131935,"y":0.025123560801148415,"z":-0.14188921451568604},"acceleration":{"x":-0.6273365020751953,"y":0.0783974826335907,"z":0.07630577683448792},"speed_mps":5.02804021243447,"speed_kph":18.10094476476409,"speed_limit_kph":30.0,"collisions_this_frame":[],"waypoint":{"x":21.28497886657715,"y":66.27576446533203,"z":0.0},"lane_deviation_m":0.004543525166809559,"lane_width":3.5,"goal":{"x":-71.26968383789062,"y":132.3148956298828,"z":0.5999999642372131},"fault":{"name":"tire_pressure_imbalance","severity":1.0},"capture_flags":{"save_rgb":true,"save_depth":false,"video_rgb":true,"video_depth":false}}
{"frame":3600,"timestamp":{"delta_seconds":0.05000000074505806,"elapsed_seconds":40.58057854697108},"control":{"throttle":0.08329151570796967,"steer":-0.001334651722572744,"brake":0.0,"hand_brake":false,"reverse":false,"manual_gear_shift":false,"gear":0},"transform":{"location":{"x":21.034143447875977,"y":66.27978515625,"z":0.002066383371129632},"rotation":{"pitch":0.0025203395634889603,"yaw":179.9740753173828,"roll":0.0005170548101887107}},"velocity":{"x":-4.997107028961182,"y":0.0029086386784911156,"z":-0.0050562284886837006},"angular_velocity":{"x":-2.2225001885090023e-05,"y":-0.03494880720973015,"z":-0.6034066081047058},"acceleration":{"x":0.6186199188232422,"y":0.018178308382630348,"z":-0.18597526848316193},"speed_mps":4.997110433492414,"speed_kph":17.98959756057269,"speed_limit_kph":30.0,"collisions_this_frame":[],"waypoint":{"x":21.034149169921875,"y":66.27544403076172,"z":0.0},"lane_deviation_m":0.004807841964066029,"lane_width":3.5,"goal":{"x":-71.26968383789062,"y":132.3148956298828,"z":0.5999999642372131},"fault":{"name":"tire_pressure_imbalance","severity":1.0},"capture_flags":{"save_rgb":true,"save_depth":false,"video_rgb":true,"video_depth":false}}
{"frame":3601,"timestamp":{"delta_seconds":0.05000000074505806,"elapsed_seconds":40.63057854771614},"control":{"throttle":0.12236308306455612,"steer":0.0034784278832376003,"brake":0.0,"hand_brake":false,"reverse":false,"manual_gear_shift":false,"gear":0},"transform":{"location":{"x":20.784854888916016,"y":66.27962493896484,"z":0.0019128798739984632},"rotation":{"pitch":0.0007923019002191722,"yaw":179.97459411621094,"roll":-0.0006103514460846782}},"velocity":{"x":-4.975264072418213,"y":-0.00540793826803565,"z":-0.002319612540304661},"angular_velocity":{"x":-0.02125457674264908,"y":-0.03635456785559654,"z":0.21367596089839935},"acceleration":{"x":0.436859130859375,"y":-0.16633152961730957,"z":0.054732318967580795},"speed_mps":4.975267552272351,"speed_kph":17.910963188180464,"speed_limit_kph":30.0,"collisions_this_frame":[],"waypoint":{"x":20.784860610961914,"y":66.27513122558594,"z":0.0},"lane_deviation_m":0.004883912857621908,"lane_width":3.5,"goal":{"x":-71.26968383789062,"y":132.3148956298828,"z":0.5999999642372131},"fault":{"name":"tire_pressure_imbalance","severity":1.0},"capture_flags":{"save_rgb":true,"save_depth":false,"video_rgb":true,"video_depth":false}}
{"frame":3602,"timestamp":{"delta_seconds":0.05000000074505806,"elapsed_seconds":40.6805785484612},"control":{"throttle":0.12236308306455612,"steer":0.0034784278832376003,"brake":0.0,"hand_brake":false,"reverse":false,"manual_gear_shift":false,"gear":0},"transform":{"location":{"x":20.53717041015625,"y":66.27934265136719,"z":0.001854438683949411},"rotation":{"pitch":-0.001188452821224928,"yaw":179.9896240234375,"roll":-0.0012512205867096782}},"velocity":{"x":-4.938624382019043,"y":-0.0083079244941473,"z":-0.0009177970932796597},"angular_velocity":{"x":-0.00775644788518548,"y":-0.041266199201345444,"z":0.33484840393066406},"acceleration":{"x":0.7327938079833984,"y":-0.05799972265958786,"z":0.02803630940616131},"speed_mps":4.938631455234727,"speed_kph":17.77907323884502,"speed_limit_kph":30.0,"collisions_this_frame":[],"waypoint":{"x":20.53717613220215,"y":66.27481079101562,"z":0.0},"lane_deviation_m":0.004896604456007481,"lane_width":3.5,"goal":{"x":-71.26968383789062,"y":132.3148956298828,"z":0.5999999642372131},"fault":{"name":"tire_pressure_imbalance","severity":1.0},"capture_flags":{"save_rgb":true,"save_depth":false,"video_rgb":true,"video_depth":false}}
{"frame":3603,"timestamp":{"delta_seconds":0.05000000074505806,"elapsed_seconds":40.73057854920626},"control":{"throttle":0.44085943698883057,"steer":0.0044528767466545105,"brake":0.0,"hand_brake":false,"reverse":false,"manual_gear_shift":false,"gear":0},"transform":{"location":{"x":20.291284561157227,"y":66.2789077758789,"z":0.0018415451049804688},"rotation":{"pitch":-0.0029643019661307335,"yaw":-179.98965454101562,"roll":-0.0017089841421693563}},"velocity":{"x":-4.908305644989014,"y":-0.01246868446469307,"z":-0.0002370166766922921},"angular_velocity":{"x":-0.007238481659442186,"y":-0.026121346279978752,"z":0.4416234791278839},"acceleration":{"x":0.6063747406005859,"y":-0.08321519941091537,"z":0.013615608215332031},"speed_mps":4.90832148793253,"speed_kph":17.66995735655711,"speed_limit_kph":30.0,"collisions_this_frame":[],"waypoint":{"x":20.291290283203125,"y":66.27449798583984,"z":0.0},"lane_deviation_m":0.004778866656124592,"lane_width":3.5,"goal":{"x":-71.26968383789062,"y":132.3148956298828,"z":0.5999999642372131},"fault":{"name":"tire_pressure_imbalance","severity":1.0},"capture_flags":{"save_rgb":true,"save_depth":false,"video_rgb":true,"video_depth":false}}
{"frame":3604,"timestamp":{"delta_seconds":0.05000000074505806,"elapsed_seconds":40.780578549951315},"control":{"throttle":0.44085943698883057,"steer":0.0044528767466545105,"brake":0.0,"hand_brake":false,"reverse":false,"manual_gear_shift":false,"gear":0},"transform":{"location":{"x":20.04568862915039,"y":66.27833557128906,"z":0.0018397902604192495},"rotation":{"pitch":-0.0029643019661307335,"yaw":-179.96693420410156,"roll":-0.001922607421875}},"velocity":{"x":-4.919607639312744,"y":-0.015039430931210518,"z":6.70433000777848e-05},"angular_velocity":{"x":-0.0019915613811463118,"y":0.017816366627812386,"z":0.46049806475639343},"acceleration":{"x":-0.22603988647460938,"y":-0.05141492933034897,"z":0.006081199273467064},"speed_mps":4.919630627777034,"speed_kph":17.710670259997322,"speed_limit_kph":30.0,"collisions_this_frame":[],"waypoint":{"x":20.04569435119629,"y":66.27418518066406,"z":0.0},"lane_deviation_m":0.004539890214800835,"lane_width":3.5,"goal":{"x":-71.26968383789062,"y":132.3148956298828,"z":0.5999999642372131},"fault":{"name":"tire_pressure_imbalance","severity":1.0},"capture_flags":{"save_rgb":true,"save_depth":false,"video_rgb":true,"video_depth":false}}
{"frame":3605,"timestamp":{"delta_seconds":0.05000000074505806,"elapsed_seconds":40.83057855069637},"control":{"throttle":0.48135101795196533,"steer":-0.002147079212591052,"brake":0.0,"hand_brake":false,"reverse":false,"manual_gear_shift":false,"gear":0},"transform":{"location":{"x":19.798439025878906,"y":66.27808380126953,"z":0.001834869384765625},"rotation":{"pitch":-0.0009152452694252133,"yaw":-179.96470642089844,"roll":1.4458723853749689e-05}},"velocity":{"x":-4.965365886688232,"y":-0.0014970686752349138,"z":0.00017501830006949604},"angular_velocity":{"x":0.03747447207570076,"y":0.05452931299805641,"z":-0.10699055343866348},"acceleration":{"x":-0.9151649475097656,"y":0.27084726095199585,"z":0.002159500028938055},"speed_mps":4.965366115457473,"speed_kph":17.875318015646904,"speed_limit_kph":30.0,"collisions_this_frame":[],"waypoint":{"x":19.798444747924805,"y":66.27386474609375,"z":0.0},"lane_deviation_m":0.0046007828786969185,"lane_width":3.5,"goal":{"x":-71.26968383789062,"y":132.3148956298828,"z":0.5999999642372131},"fault":{"name":"tire_pressure_imbalance","severity":1.0},"capture_flags":{"save_rgb":true,"save_depth":false,"video_rgb":true,"video_depth":false}}
{"frame":3606,"timestamp":{"delta_seconds":0.05000000074505806,"elapsed_seconds":40.88057855144143},"control":{"throttle":0.48135101795196533,"steer":-0.002147079212591052,"brake":0.0,"hand_brake":false,"reverse":false,"manual_gear_shift":false,"gear":0},"transform":{"location":{"x":19.54815673828125,"y":66.2780990600586,"z":0.001952857943251729},"rotation":{"pitch":0.0026774341240525246,"yaw":-179.97377014160156,"roll":0.0012332773767411709}},"velocity":{"x":-5.034090518951416,"y":0.0026124303694814444,"z":0.006036281585693359},"angular_velocity":{"x":0.016376720741391182,"y":0.08373864740133286,"z":-0.21006350219249725},"acceleration":{"x":-1.3744926452636719,"y":0.08218997716903687,"z":0.1172252669930458},"speed_mps":5.0340948158019785,"speed_kph":18.122741336887124,"speed_limit_kph":30.0,"collisions_this_frame":[],"waypoint":{"x":19.54816246032715,"y":66.27354431152344,"z":0.0},"lane_deviation_m":0.004955746233463287,"lane_width":3.5,"goal":{"x":-71.26968383789062,"y":132.3148956298828,"z":0.5999999642372131},"fault":{"name":"tire_pressure_imbalance","severity":1.0},"capture_flags":{"save_rgb":true,"save_depth":false,"video_rgb":true,"video_depth":false}}
{"frame":3607,"timestamp":{"delta_seconds":0.05000000074505806,"elapsed_seconds":40.93057855218649},"control":{"throttle":0.047784917056560516,"steer":0.0030514022801071405,"brake":0.0,"hand_brake":false,"reverse":false,"manual_gear_shift":false,"gear":0},"transform":{"location":{"x":19.29461097717285,"y":66.27787780761719,"z":0.002102813683450222},"rotation":{"pitch":0.005901283118873835,"yaw":-179.96507263183594,"roll":-0.00033569327206350863}},"velocity":{"x":-5.079222679138184,"y":-0.008446711115539074,"z":0.0020366383250802755},"angular_velocity":{"x":-0.029252221807837486,"y":0.027659183368086815,"z":0.5124368071556091},"acceleration":{"x":-0.9026432037353516,"y":-0.22118283808231354,"z":-0.0799928605556488},"speed_mps":5.079230110862866,"speed_kph":18.28522839910632,"speed_limit_kph":30.0,"collisions_this_frame":[],"waypoint":{"x":19.29461669921875,"y":66.27322387695312,"z":0.0},"lane_deviation_m":0.005106949247419834,"lane_width":3.5,"goal":{"x":-71.26968383789062,"y":132.3148956298828,"z":0.5999999642372131},"fault":{"name":"tire_pressure_imbalance","severity":1.0},"capture_flags":{"save_rgb":true,"save_depth":false,"video_rgb":true,"video_depth":false}}
{"frame":3608,"timestamp":{"delta_seconds":0.05000000074505806,"elapsed_seconds":40.98057855293155},"control":{"throttle":0.047784917056560516,"steer":0.0030514022801071405,"brake":0.0,"hand_brake":false,"reverse":false,"manual_gear_shift":false,"gear":0},"transform":{"location":{"x":19.042945861816406,"y":66.27742004394531,"z":0.0021006774622946978},"rotation":{"pitch":0.003244339721277356,"yaw":-179.95701599121094,"roll":-0.0009460446308366954}},"velocity":{"x":-5.019036769866943,"y":-0.010767403990030289,"z":-0.005917911417782307},"angular_velocity":{"x":-0.006434557493776083,"y":-0.034276846796274185,"z":0.3939478099346161},"acceleration":{"x":1.2037181854248047,"y":-0.046413857489824295,"z":-0.15909099578857422},"speed_mps":5.019051808453528,"speed_kph":18.068586510432702,"speed_limit_kph":30.0,"collisions_this_frame":[],"waypoint":{"x":19.042951583862305,"y":66.27290344238281,"z":0.0},"lane_deviation_m":0.004981221631169319,"lane_width":3.5,"goal":{"x":-71.26968383789062,"y":132.3148956298828,"z":0.5999999642372131},"fault":{"name":"tire_pressure_imbalance","severity":1.0},"capture_flags":{"save_rgb":true,"save_depth":false,"video_rgb":true,"video_depth":false}}
{"frame":3609,"timestamp":{"delta_seconds":0.05000000074505806,"elapsed_seconds":41.030578553676605},"control":{"throttle":0.07366905361413956,"steer":0.0050760069862008095,"brake":0.0,"hand_brake":false,"reverse":false,"manual_gear_shift":false,"gear":0},"transform":{"location":{"x":18.79307746887207,"y":66.27679443359375,"z":0.002036208985373378},"rotation":{"pitch":0.0007240000413730741,"yaw":-179.9279022216797,"roll":-0.0018920892616733909}},"velocity":{"x":-4.989090919494629,"y":-0.01825430989265442,"z":-0.004996738396584988},"angular_velocity":{"x":-0.013959533534944057,"y":-0.03435629606246948,"z":0.5372439026832581},"acceleration":{"x":0.5989170074462891,"y":-0.1497381180524826,"z":0.01842346042394638},"speed_mps":4.989126816408661,"speed_kph":17.96085653907118,"speed_limit_kph":30.0,"collisions_this_frame":[],"waypoint":{"x":18.793081283569336,"y":66.2725830078125,"z":0.0},"lane_deviation_m":0.004677848424762487,"lane_width":3.5,"goal":{"x":-71.26968383789062,"y":132.3148956298828,"z":0.5999999642372131},"fault":{"name":"tire_pressure_imbalance","severity":1.0},"capture_flags":{"save_rgb":true,"save_depth":false,"video_rgb":true,"video_depth":false}}
{"frame":3610,"timestamp":{"delta_seconds":0.05000000074505806,"elapsed_seconds":41.08057855442166},"control":{"throttle":0.07366905361413956,"steer":0.0050760069862008095,"brake":0.0,"hand_brake":false,"reverse":false,"manual_gear_shift":false,"gear":0},"transform":{"location":{"x":18.544431686401367,"y":66.27590942382812,"z":0.0018879699055105448},"rotation":{"pitch":-0.0009767169831320643,"yaw":-179.90184020996094,"roll":-0.0023193354718387127}},"velocity":{"x":-4.959010601043701,"y":-0.022068077698349953,"z":-0.0021886825561523438},"angular_velocity":{"x":-0.005057682748883963,"y":-0.037057556211948395,"z":0.5231443643569946},"acceleration":{"x":0.6016063690185547,"y":-0.07627535611391068,"z":0.05616111680865288},"speed_mps":4.9590601863305155,"speed_kph":17.852616670789857,"speed_limit_kph":30.0,"collisions_this_frame":[],"waypoint":{"x":18.544435501098633,"y":66.27226257324219,"z":0.0},"lane_deviation_m":0.00410657562315464,"lane_width":3.5,"goal":{"x":-71.26968383789062,"y":132.3148956298828,"z":0.5999999642372131},"fault":{"name":"tire_pressure_imbalance","severity":1.0},"capture_flags":{"save_rgb":true,"save_depth":false,"video_rgb":true,"video_depth":false}}
{"frame":3611,"timestamp":{"delta_seconds":0.05000000074505806,"elapsed_seconds":41.13057855516672},"control":{"throttle":0.300430029630661,"steer":-0.0005827305722050369,"brake":0.0,"hand_brake":false,"reverse":false,"manual_gear_shift":false,"gear":0},"transform":{"location":{"x":18.29766273498535,"y":66.27526092529297,"z":0.0018359755631536245},"rotation":{"pitch":-0.0028413585387170315,"yaw":-179.8932647705078,"roll":-0.0007324217585846782}},"velocity":{"x":-4.922674179077148,"y":-0.011235539801418781,"z":-0.000774545653257519},"angular_velocity":{"x":0.03186682611703873,"y":-0.032031264156103134,"z":0.041932594031095505},"acceleration":{"x":0.7267284393310547,"y":0.21665075421333313,"z":0.028282739222049713},"speed_mps":4.922687062025015,"speed_kph":17.721673423290056,"speed_limit_kph":30.0,"collisions_this_frame":[],"waypoint":{"x":18.297666549682617,"y":66.2719497680664,"z":0.0},"lane_deviation_m":0.0037861040327697992,"lane_width":3.5,"goal":{"x":-71.26968383789062,"y":132.3148956298828,"z":0.5999999642372131},"fault":{"name":"tire_pressure_imbalance","severity":1.0},"capture_flags":{"save_rgb":true,"save_depth":false,"video_rgb":true,"video_depth":false}}
