{"frame":28880,"timestamp":{"delta_seconds":0.05000000074505806,"elapsed_seconds":283.9755975212902},"control":{"throttle":0.0,"steer":0.0,"brake":1.0,"hand_brake":false,"reverse":false,"manual_gear_shift":false,"gear":0},"transform":{"location":{"x":-48.83995056152344,"y":-17.213199615478516,"z":0.48239994049072266},"rotation":{"pitch":0.0,"yaw":90.43232727050781,"roll":0.0}},"velocity":{"x":0.0,"y":0.0,"z":-1.470000147819519},"angular_velocity":{"x":0.0,"y":0.0,"z":0.0},"acceleration":{"x":0.0,"y":0.0,"z":-9.80000114440918},"speed_mps":1.470000147819519,"speed_kph":5.2920005321502686,"speed_limit_kph":30.0,"collisions_this_frame":[],"waypoint":{"x":-48.83995056152344,"y":-17.213199615478516,"z":0.0},"lane_deviation_m":0.48239994049072266,"lane_width":3.5,"goal":{"x":-71.26968383789062,"y":132.3148956298828,"z":0.5999999642372131},"fault":{"name":"tire_pressure_imbalance","severity":1.0},"capture_flags":{"save_rgb":true,"save_depth":false,"video_rgb":true,"video_depth":false}}
{"frame":28881,"timestamp":{"delta_seconds":0.05000000074505806,"elapsed_seconds":284.02559752203524},"control":{"throttle":1.0,"steer":0.027000000700354576,"brake":0.0,"hand_brake":false,"reverse":false,"manual_gear_shift":false,"gear":0},"transform":{"location":{"x":-48.83995056152344,"y":-17.213199615478516,"z":0.394199937582016},"rotation":{"pitch":0.0,"yaw":90.43232727050781,"roll":0.0}},"velocity":{"x":0.0,"y":0.0,"z":-1.9600002765655518},"angular_velocity":{"x":0.0,"y":0.0,"z":0.0},"acceleration":{"x":0.0,"y":0.0,"z":-9.800003051757812},"speed_mps":1.9600002765655518,"speed_kph":7.056000995635986,"speed_limit_kph":30.0,"collisions_this_frame":[],"waypoint":{"x":-48.83995056152344,"y":-17.213199615478516,"z":0.0},"lane_deviation_m":0.394199937582016,"lane_width":3.5,"goal":{"x":-71.26968383789062,"y":132.3148956298828,"z":0.5999999642372131},"fault":{"name":"tire_pressure_imbalance","severity":1.0},"capture_flags":{"save_rgb":true,"save_depth":false,"video_rgb":true,"video_depth":false}}
{"frame":28882,"timestamp":{"delta_seconds":0.05000000074505806,"elapsed_seconds":284.0755975227803},"control":{"throttle":0.0,"steer":0.010999999940395355,"brake":1.0,"hand_brake":false,"reverse":false,"manual_gear_shift":false,"gear":0},"transform":{"location":{"x":-48.83995056152344,"y":-17.213199615478516,"z":0.281499981880188},"rotation":{"pitch":0.0,"yaw":90.43232727050781,"roll":0.0}},"velocity":{"x":0.0,"y":0.0,"z":-2.450000286102295},"angular_velocity":{"x":0.0,"y":0.0,"z":0.0},"acceleration":{"x":0.0,"y":0.0,"z":-9.800000190734863},"speed_mps":2.450000286102295,"speed_kph":8.820001029968262,"speed_limit_kph":30.0,"collisions_this_frame":[],"waypoint":{"x":-48.83995056152344,"y":-17.213199615478516,"z":0.0},"lane_deviation_m":0.281499981880188,"lane_width":3.5,"goal":{"x":-71.26968383789062,"y":132.3148956298828,"z":0.5999999642372131},"fault":{"name":"tire_pressure_imbalance","severity":1.0},"capture_flags":{"save_rgb":true,"save_depth":false,"video_rgb":true,"video_depth":false}}
{"frame":28883,"timestamp":{"delta_seconds":0.05000000074505806,"elapsed_seconds":284.12559752352536},"control":{"throttle":0.0,"steer":-0.004999999888241291,"brake":1.0,"hand_brake":false,"reverse":false,"manual_gear_shift":false,"gear":0},"transform":{"location":{"x":-48.83995056152344,"y":-17.213199615478516,"z":0.14429987967014313},"rotation":{"pitch":0.0,"yaw":90.43232727050781,"roll":0.0}},"velocity":{"x":0.0,"y":0.0,"z":-2.93999981880188},"angular_velocity":{"x":0.0,"y":0.0,"z":0.0},"acceleration":{"x":0.0,"y":0.0,"z":-9.7999906539917},"speed_mps":2.93999981880188,"speed_kph":10.583999347686769,"speed_limit_kph":30.0,"collisions_this_frame":[],"waypoint":{"x":-48.83995056152344,"y":-17.213199615478516,"z":0.0},"lane_deviation_m":0.14429987967014313,"lane_width":3.5,"goal":{"x":-71.26968383789062,"y":132.3148956298828,"z":0.5999999642372131},"fault":{"name":"tire_pressure_imbalance","severity":1.0},"capture_flags":{"save_rgb":true,"save_depth":false,"video_rgb":true,"video_depth":false}}
{"frame":28884,"timestamp":{"delta_seconds":0.05000000074505806,"elapsed_seconds":284.1755975242704},"control":{"throttle":0.0,"steer":0.0010000000474974513,"brake":1.0,"hand_brake":false,"reverse":false,"manual_gear_shift":false,"gear":0},"transform":{"location":{"x":-48.83995056152344,"y":-17.213199615478516,"z":0.008085518144071102},"rotation":{"pitch":0.0,"yaw":90.43232727050781,"roll":0.0}},"velocity":{"x":8.842485840432346e-06,"y":-4.933967829856556e-07,"z":-2.0645971298217773},"angular_velocity":{"x":0.0008187006460502744,"y":0.0009687644778750837,"z":8.779997173746779e-09},"acceleration":{"x":0.00017684971680864692,"y":-9.867935659713112e-06,"z":17.508052825927734},"speed_mps":2.0645971298407724,"speed_kph":7.43254966742678,"speed_limit_kph":30.0,"collisions_this_frame":[],"waypoint":{"x":-48.83995056152344,"y":-17.213199615478516,"z":0.0},"lane_deviation_m":0.008085518144071102,"lane_width":3.5,"goal":{"x":-71.26968383789062,"y":132.3148956298828,"z":0.5999999642372131},"fault":{"name":"tire_pressure_imbalance","severity":1.0},"capture_flags":{"save_rgb":true,"save_depth":false,"video_rgb":true,"video_depth":false}}
{"frame":28885,"timestamp":{"delta_seconds":0.05000000074505806,"elapsed_seconds":284.2255975250155},"control":{"throttle":0.0,"steer":-0.003000000026077032,"brake":1.0,"hand_brake":false,"reverse":false,"manual_gear_shift":false,"gear":0},"transform":{"location":{"x":-48.83995056152344,"y":-17.213197708129883,"z":-0.051588211208581924},"rotation":{"pitch":0.0,"yaw":90.43232727050781,"roll":0.0}},"velocity":{"x":1.5615587471984327e-06,"y":-1.56349742042039e-07,"z":-0.7380875945091248},"angular_velocity":{"x":0.00023955845972523093,"y":0.00022781992447562516,"z":-7.31435934042679e-09},"acceleration":{"x":-0.00014561854186467826,"y":6.7409405346552376e-06,"z":26.530189514160156},"speed_mps":0.7380875945107932,"speed_kph":2.6571153402388554,"speed_limit_kph":30.0,"collisions_this_frame":[],"waypoint":{"x":-48.83995056152344,"y":-17.213197708129883,"z":0.0},"lane_deviation_m":0.051588211208581924,"lane_width":3.5,"goal":{"x":-71.26968383789062,"y":132.3148956298828,"z":0.5999999642372131},"fault":{"name":"tire_pressure_imbalance","severity":1.0},"capture_flags":{"save_rgb":true,"save_depth":false,"video_rgb":true,"video_depth":false}}
{"frame":28886,"timestamp":{"delta_seconds":0.05000000074505806,"elapsed_seconds":284.27559752576053},"control":{"throttle":0.0,"steer":-0.0010000000474974513,"brake":1.0,"hand_brake":false,"reverse":false,"manual_gear_shift":false,"gear":0},"transform":{"location":{"x":-48.83995056152344,"y":-17.213197708129883,"z":-0.06773189455270767},"rotation":{"pitch":0.0,"yaw":90.43232727050781,"roll":0.0}},"velocity":{"x":3.144465381410555e-07,"y":-4.6481513749085934e-08,"z":-0.11209714412689209},"angular_velocity":{"x":6.861312431283295e-05,"y":9.573592251399532e-06,"z":-9.278615653585121e-10},"acceleration":{"x":-2.4942244635894895e-05,"y":2.197364437961369e-06,"z":12.519808769226074},"speed_mps":0.11209714412734276,"speed_kph":0.40354971885843394,"speed_limit_kph":30.0,"collisions_this_frame":[],"waypoint":{"x":-48.83995056152344,"y":-17.213197708129883,"z":0.0},"lane_deviation_m":0.06773189455270767,"lane_width":3.5,"goal":{"x":-71.26968383789062,"y":132.3148956298828,"z":0.5999999642372131},"fault":{"name":"tire_pressure_imbalance","severity":1.0},"capture_flags":{"save_rgb":true,"save_depth":false,"video_rgb":true,"video_depth":false}}
{"frame":28887,"timestamp":{"delta_seconds":0.05000000074505806,"elapsed_seconds":284.3255975265056},"control":{"throttle":0.0,"steer":-0.003000000026077032,"brake":1.0,"hand_brake":false,"reverse":false,"manual_gear_shift":false,"gear":0},"transform":{"location":{"x":-48.83995056152344,"y":-17.213197708129883,"z":-0.06445327401161194},"rotation":{"pitch":0.0,"yaw":90.43232727050781,"roll":0.0}},"velocity":{"x":-1.5078670401180716e-07,"y":3.5540304033077064e-09,"z":0.15056146681308746},"angular_velocity":{"x":-5.699926077795681e-06,"y":-2.8235068384674378e-05,"z":1.3493041128853633e-09},"acceleration":{"x":-9.304665582021698e-06,"y":1.000710881271516e-06,"z":5.253171920776367},"speed_mps":0.15056146681316301,"speed_kph":0.5420212805273869,"speed_limit_kph":30.0,"collisions_this_frame":[],"waypoint":{"x":-48.83995056152344,"y":-17.213197708129883,"z":0.0},"lane_deviation_m":0.06445327401161194,"lane_width":3.5,"goal":{"x":-71.26968383789062,"y":132.3148956298828,"z":0.5999999642372131},"fault":{"name":"tire_pressure_imbalance","severity":1.0},"capture_flags":{"save_rgb":true,"save_depth":false,"video_rgb":true,"video_depth":false}}
{"frame":28888,"timestamp":{"delta_seconds":0.05000000074505806,"elapsed_seconds":284.37559752725065},"control":{"throttle":0.0,"steer":-0.003000000026077032,"brake":1.0,"hand_brake":false,"reverse":false,"manual_gear_shift":false,"gear":0},"transform":{"location":{"x":-48.83995056152344,"y":-17.213197708129883,"z":-0.0539620965719223},"rotation":{"pitch":0.0,"yaw":90.43232727050781,"roll":0.0}},"velocity":{"x":-1.8573253157683212e-07,"y":-7.902303811313516e-10,"z":0.23337282240390778},"angular_velocity":{"x":-2.4820105863909703e-06,"y":3.429326170589775e-05,"z":7.32554850113587e-10},"acceleration":{"x":-6.989165513004991e-07,"y":-8.688522257216391e-08,"z":1.6562271118164062},"speed_mps":0.2333728224039817,"speed_kph":0.8401421606543341,"speed_limit_kph":30.0,"collisions_this_frame":[],"waypoint":{"x":-48.83995056152344,"y":-17.213197708129883,"z":0.0},"lane_deviation_m":0.0539620965719223,"lane_width":3.5,"goal":{"x":-71.26968383789062,"y":132.3148956298828,"z":0.5999999642372131},"fault":{"name":"tire_pressure_imbalance","severity":1.0},"capture_flags":{"save_rgb":true,"save_depth":false,"video_rgb":true,"video_depth":false}}
{"frame":28889,"timestamp":{"delta_seconds":0.05000000074505806,"elapsed_seconds":284.4255975279957},"control":{"throttle":0.0,"steer":-0.02199999988079071,"brake":1.0,"hand_brake":false,"reverse":false,"manual_gear_shift":false,"gear":0},"transform":{"location":{"x":-48.83995056152344,"y":-17.213197708129883,"z":-0.04207828268408775},"rotation":{"pitch":0.0,"yaw":90.43232727050781,"roll":0.0}},"velocity":{"x":-4.537197924037173e-07,"y":8.335843126872078e-09,"z":0.23370617628097534},"angular_velocity":{"x":-1.1498651474539656e-05,"y":-5.678694651578553e-05,"z":9.695566127732036e-09},"acceleration":{"x":-5.359745500754798e-06,"y":1.8252146105623979e-07,"z":0.006667077541351318},"speed_mps":0.23370617628141593,"speed_kph":0.8413422346130974,"speed_limit_kph":30.0,"collisions_this_frame":[],"waypoint":{"x":-48.83995056152344,"y":-17.213197708129883,"z":0.0},"lane_deviation_m":0.04207828268408775,"lane_width":3.5,"goal":{"x":-71.26968383789062,"y":132.3148956298828,"z":0.5999999642372131},"fault":{"name":"tire_pressure_imbalance","severity":1.0},"capture_flags":{"save_rgb":true,"save_depth":false,"video_rgb":true,"video_depth":false}}
{"frame":28890,"timestamp":{"delta_seconds":0.05000000074505806,"elapsed_seconds":284.47559752874076},"control":{"throttle":0.0,"steer":-0.014999999664723873,"brake":1.0,"hand_brake":false,"reverse":false,"manual_gear_shift":false,"gear":0},"transform":{"location":{"x":-48.83995056152344,"y":-17.213197708129883,"z":-0.031292419880628586},"rotation":{"pitch":0.0,"yaw":90.43232727050781,"roll":0.0}},"velocity":{"x":-8.161442366372285e-08,"y":9.69952473894864e-09,"z":0.20143400132656097},"angular_velocity":{"x":-1.5857103790040128e-05,"y":-2.6961035473505035e-05,"z":4.017632004860161e-09},"acceleration":{"x":7.4421077442821115e-06,"y":2.727363224153123e-08,"z":-0.6454434990882874},"speed_mps":0.20143400132657774,"speed_kph":0.7251624047756798,"speed_limit_kph":30.0,"collisions_this_frame":[],"waypoint":{"x":-48.83995056152344,"y":-17.213197708129883,"z":0.0},"lane_deviation_m":0.031292419880628586,"lane_width":3.5,"goal":{"x":-71.26968383789062,"y":132.3148956298828,"z":0.5999999642372131},"fault":{"name":"tire_pressure_imbalance","severity":1.0},"capture_flags":{"save_rgb":true,"save_depth":false,"video_rgb":true,"video_depth":false}}
{"frame":28891,"timestamp":{"delta_seconds":0.05000000074505806,"elapsed_seconds":284.5255975294858},"control":{"throttle":0.0,"steer":-0.014000000432133675,"brake":1.0,"hand_brake":false,"reverse":false,"manual_gear_shift":false,"gear":0},"transform":{"location":{"x":-48.83995056152344,"y":-17.213197708129883,"z":-0.02243553102016449},"rotation":{"pitch":0.0,"yaw":90.43232727050781,"roll":0.0}},"velocity":{"x":-1.5559767518880108e-07,"y":2.490618911110687e-08,"z":0.16076599061489105},"angular_velocity":{"x":-3.414050297578797e-05,"y":-6.06981739110779e-05,"z":1.401541549483909e-09},"acceleration":{"x":-1.4796650020798552e-06,"y":3.0413329454859195e-07,"z":-0.8133602142333984},"speed_mps":0.16076599061496827,"speed_kph":0.5787575662138857,"speed_limit_kph":30.0,"collisions_this_frame":[],"waypoint":{"x":-48.83995056152344,"y":-17.213197708129883,"z":0.0},"lane_deviation_m":0.02243553102016449,"lane_width":3.5,"goal":{"x":-71.26968383789062,"y":132.3148956298828,"z":0.5999999642372131},"fault":{"name":"tire_pressure_imbalance","severity":1.0},"capture_flags":{"save_rgb":true,"save_depth":false,"video_rgb":true,"video_depth":false}}
{"frame":28892,"timestamp":{"delta_seconds":0.05000000074505806,"elapsed_seconds":284.5755975302309},"control":{"throttle":0.0,"steer":-0.014000000432133675,"brake":1.0,"hand_brake":false,"reverse":false,"manual_gear_shift":false,"gear":0},"transform":{"location":{"x":-48.83995056152344,"y":-17.213197708129883,"z":-0.015568045899271965},"rotation":{"pitch":0.0,"yaw":90.43232727050781,"roll":0.0}},"velocity":{"x":-2.3761995038285022e-08,"y":1.9501518622178082e-08,"z":0.12242083996534348},"angular_velocity":{"x":-2.6470364900887944e-05,"y":8.970276394393295e-05,"z":8.63916549409538e-10},"acceleration":{"x":2.6367135887994664e-06,"y":-1.0809340977857573e-07,"z":-0.7669030427932739},"speed_mps":0.12242083996534733,"speed_kph":0.4407150238752504,"speed_limit_kph":30.0,"collisions_this_frame":[],"waypoint":{"x":-48.83995056152344,"y":-17.213197708129883,"z":0.0},"lane_deviation_m":0.015568045899271965,"lane_width":3.5,"goal":{"x":-71.26968383789062,"y":132.3148956298828,"z":0.5999999642372131},"fault":{"name":"tire_pressure_imbalance","severity":1.0},"capture_flags":{"save_rgb":true,"save_depth":false,"video_rgb":true,"video_depth":false}}
{"frame":28893,"timestamp":{"delta_seconds":0.05000000074505806,"elapsed_seconds":284.62559753097594},"control":{"throttle":0.0,"steer":-0.013000000268220901,"brake":1.0,"hand_brake":false,"reverse":false,"manual_gear_shift":false,"gear":0},"transform":{"location":{"x":-48.83995056152344,"y":-17.213197708129883,"z":-0.010438118129968643},"rotation":{"pitch":0.0,"yaw":90.43232727050781,"roll":0.0}},"velocity":{"x":-4.8626528581507955e-08,"y":-4.676016907012581e-09,"z":0.09030948579311371},"angular_velocity":{"x":6.529786332976073e-06,"y":-2.4619113901280798e-05,"z":-2.0439292480745053e-09},"acceleration":{"x":-4.972906708644587e-07,"y":-4.835507070310996e-07,"z":-0.642227053642273},"speed_mps":0.09030948579312692,"speed_kph":0.3251141488552569,"speed_limit_kph":30.0,"collisions_this_frame":[],"waypoint":{"x":-48.83995056152344,"y":-17.213197708129883,"z":0.0},"lane_deviation_m":0.010438118129968643,"lane_width":3.5,"goal":{"x":-71.26968383789062,"y":132.3148956298828,"z":0.5999999642372131},"fault":{"name":"tire_pressure_imbalance","severity":1.0},"capture_flags":{"save_rgb":true,"save_depth":false,"video_rgb":true,"video_depth":false}}
{"frame":28894,"timestamp":{"delta_seconds":0.05000000074505806,"elapsed_seconds":284.675597531721},"control":{"throttle":0.0,"steer":-0.013000000268220901,"brake":1.0,"hand_brake":false,"reverse":false,"manual_gear_shift":false,"gear":0},"transform":{"location":{"x":-48.83995056152344,"y":-17.213197708129883,"z":-0.006705360487103462},"rotation":{"pitch":0.0,"yaw":90.43232727050781,"roll":0.0}},"velocity":{"x":-2.3824061656796403e-07,"y":3.9806791196639324e-10,"z":0.06511255353689194},"angular_velocity":{"x":-1.2010879117951845e-06,"y":-3.6447618185775355e-05,"z":2.788809849718632e-09},"acceleration":{"x":-3.792281631831429e-06,"y":1.0148169593549028e-07,"z":-0.5039386749267578},"speed_mps":0.06511255353732778,"speed_kph":0.23440519273438,"speed_limit_kph":30.0,"collisions_this_frame":[],"waypoint":{"x":-48.83995056152344,"y":-17.213197708129883,"z":0.0},"lane_deviation_m":0.006705360487103462,"lane_width":3.5,"goal":{"x":-71.26968383789062,"y":132.3148956298828,"z":0.5999999642372131},"fault":{"name":"tire_pressure_imbalance","severity":1.0},"capture_flags":{"save_rgb":true,"save_depth":false,"video_rgb":true,"video_depth":false}}
{"frame":28895,"timestamp":{"delta_seconds":0.05000000074505806,"elapsed_seconds":284.72559753246605},"control":{"throttle":0.0,"steer":-0.013000000268220901,"brake":1.0,"hand_brake":false,"reverse":false,"manual_gear_shift":false,"gear":0},"transform":{"location":{"x":-48.83995056152344,"y":-17.213197708129883,"z":-0.004041709937155247},"rotation":{"pitch":0.0,"yaw":90.43232727050781,"roll":0.0}},"velocity":{"x":-8.430386344571161e-08,"y":4.316834445461382e-09,"z":0.046137407422065735},"angular_velocity":{"x":-6.2956733017927036e-06,"y":-4.6368739276658744e-05,"z":1.2702721097213043e-09},"acceleration":{"x":3.0787350624450482e-06,"y":7.83753364430595e-08,"z":-0.37950292229652405},"speed_mps":0.04613740742214296,"speed_kph":0.16609466671971465,"speed_limit_kph":30.0,"collisions_this_frame":[],"waypoint":{"x":-48.83995056152344,"y":-17.213197708129883,"z":0.0},"lane_deviation_m":0.004041709937155247,"lane_width":3.5,"goal":{"x":-71.26968383789062,"y":132.3148956298828,"z":0.5999999642372131},"fault":{"name":"tire_pressure_imbalance","severity":1.0},"capture_flags":{"save_rgb":true,"save_depth":false,"video_rgb":true,"video_depth":false}}
{"frame":28896,"timestamp":{"delta_seconds":0.05000000074505806,"elapsed_seconds":284.7755975332111},"control":{"throttle":0.0,"steer":-0.01600000075995922,"brake":1.0,"hand_brake":false,"reverse":false,"manual_gear_shift":false,"gear":0},"transform":{"location":{"x":-48.83995056152344,"y":-17.213197708129883,"z":-0.002169456332921982},"rotation":{"pitch":0.0,"yaw":90.43232727050781,"roll":0.0}},"velocity":{"x":-1.5414816800785047e-07,"y":-7.88821363784109e-09,"z":0.03224905952811241},"angular_velocity":{"x":9.708002835395746e-06,"y":8.101296771201305e-06,"z":1.1729897053669447e-09},"acceleration":{"x":-1.3968860912427772e-06,"y":-2.441009598896926e-07,"z":-0.2777669429779053},"speed_mps":0.03224905952848178,"speed_kph":0.11609661430253441,"speed_limit_kph":30.0,"collisions_this_frame":[],"waypoint":{"x":-48.83995056152344,"y":-17.213197708129883,"z":0.0},"lane_deviation_m":0.002169456332921982,"lane_width":3.5,"goal":{"x":-71.26968383789062,"y":132.3148956298828,"z":0.5999999642372131},"fault":{"name":"tire_pressure_imbalance","severity":1.0},"capture_flags":{"save_rgb":true,"save_depth":false,"video_rgb":true,"video_depth":false}}
{"frame":28897,"timestamp":{"delta_seconds":0.05000000074505806,"elapsed_seconds":284.82559753395617},"control":{"throttle":0.0,"steer":-0.004999999888241291,"brake":1.0,"hand_brake":false,"reverse":false,"manual_gear_shift":false,"gear":0},"transform":{"location":{"x":-48.83995056152344,"y":-17.213197708129883,"z":-0.0008691787370480597},"rotation":{"pitch":0.0,"yaw":90.43232727050781,"roll":0.0}},"velocity":{"x":5.122898727449865e-08,"y":-6.406426500404905e-09,"z":0.022296123206615448},"angular_velocity":{"x":8.147224434651434e-06,"y":7.321786597458413e-06,"z":1.9390568317678714e-10},"acceleration":{"x":4.10754273616476e-06,"y":2.9635742748723715e-08,"z":-0.19905872642993927},"speed_mps":0.02229612320667522,"speed_kph":0.08026604354403079,"speed_limit_kph":30.0,"collisions_this_frame":[],"waypoint":{"x":-48.83995056152344,"y":-17.213197708129883,"z":0.0},"lane_deviation_m":0.0008691787370480597,"lane_width":3.5,"goal":{"x":-71.26968383789062,"y":132.3148956298828,"z":0.5999999642372131},"fault":{"name":"tire_pressure_imbalance","severity":1.0},"capture_flags":{"save_rgb":true,"save_depth":false,"video_rgb":true,"video_depth":false}}
{"frame":28898,"timestamp":{"delta_seconds":0.05000000074505806,"elapsed_seconds":284.8755975347012},"control":{"throttle":0.0,"steer":-0.008999999612569809,"brake":1.0,"hand_brake":false,"reverse":false,"manual_gear_shift":false,"gear":0},"transform":{"location":{"x":-48.83995056152344,"y":-17.213197708129883,"z":2.502441384422127e-05},"rotation":{"pitch":0.0,"yaw":90.43232727050781,"roll":0.0}},"velocity":{"x":-1.0711172393484958e-07,"y":-5.659756219245082e-09,"z":0.015275144018232822},"angular_velocity":{"x":7.3904711825889535e-06,"y":2.590383701317478e-05,"z":-6.938856433880147e-11},"acceleration":{"x":-3.1668141673435457e-06,"y":1.493340562319645e-08,"z":-0.1404195874929428},"speed_mps":0.015275144018609414,"speed_kph":0.05499051846699389,"speed_limit_kph":30.0,"collisions_this_frame":[],"waypoint":{"x":-48.83995056152344,"y":-17.213197708129883,"z":0.0},"lane_deviation_m":2.502441384422127e-05,"lane_width":3.5,"goal":{"x":-71.26968383789062,"y":132.3148956298828,"z":0.5999999642372131},"fault":{"name":"tire_pressure_imbalance","severity":1.0},"capture_flags":{"save_rgb":true,"save_depth":false,"video_rgb":true,"video_depth":false}}
{"frame":28899,"timestamp":{"delta_seconds":0.05000000074505806,"elapsed_seconds":284.9255975354463},"control":{"throttle":0.0,"steer":-0.009999999776482582,"brake":1.0,"hand_brake":false,"reverse":false,"manual_gear_shift":false,"gear":0},"transform":{"location":{"x":-48.83995056152344,"y":-17.213197708129883,"z":0.0006349182222038507},"rotation":{"pitch":0.0,"yaw":90.43232727050781,"roll":0.0}},"velocity":{"x":1.7434997801046848e-07,"y":-4.915271745176142e-09,"z":0.010385198518633842},"angular_velocity":{"x":6.423982085834723e-06,"y":-6.941460469533922e-06,"z":-3.035414808394421e-09},"acceleration":{"x":5.629233783110976e-06,"y":1.488968948137881e-08,"z":-0.0977989137172699},"speed_mps":0.010385198520098527,"speed_kph":0.037386714672354694,"speed_limit_kph":30.0,"collisions_this_frame":[],"waypoint":{"x":-48.83995056152344,"y":-17.213197708129883,"z":0.0},"lane_deviation_m":0.0006349182222038507,"lane_width":3.5,"goal":{"x":-71.26968383789062,"y":132.3148956298828,"z":0.5999999642372131},"fault":{"name":"tire_pressure_imbalance","severity":1.0},"capture_flags":{"save_rgb":true,"save_depth":false,"video_rgb":true,"video_depth":false}}
{"frame":28900,"timestamp":{"delta_seconds":0.05000000074505806,"elapsed_seconds":284.97559753619134},"control":{"throttle":0.0,"steer":-0.004000000189989805,"brake":1.0,"hand_brake":false,"reverse":false,"manual_gear_shift":false,"gear":0},"transform":{"location":{"x":-48.83995056152344,"y":-17.213197708129883,"z":0.0010480117052793503},"rotation":{"pitch":0.0,"yaw":90.43232727050781,"roll":0.0}},"velocity":{"x":-6.03295546852678e-08,"y":-5.764150046161376e-09,"z":0.007016515359282494},"angular_velocity":{"x":6.22979314357508e-06,"y":2.598416176624596e-05,"z":-3.7063543345539074e-09},"acceleration":{"x":-4.693590653914725e-06,"y":-1.6977566019704682e-08,"z":-0.06737366318702698},"speed_mps":0.007016515359544225,"speed_kph":0.02525945529435921,"speed_limit_kph":30.0,"collisions_this_frame":[],"waypoint":{"x":-48.83995056152344,"y":-17.213197708129883,"z":0.0},"lane_deviation_m":0.0010480117052793503,"lane_width":3.5,"goal":{"x":-71.26968383789062,"y":132.3148956298828,"z":0.5999999642372131},"fault":{"name":"tire_pressure_imbalance","severity":1.0},"capture_flags":{"save_rgb":true,"save_depth":false,"video_rgb":true,"video_depth":false}}
{"frame":28901,"timestamp":{"delta_seconds":0.05000000074505806,"elapsed_seconds":285.0255975369364},"control":{"throttle":0.0,"steer":-0.009999999776482582,"brake":1.0,"hand_brake":false,"reverse":false,"manual_gear_shift":false,"gear":0},"transform":{"location":{"x":-48.83995056152344,"y":-17.213197708129883,"z":0.0013261794811114669},"rotation":{"pitch":0.0,"yaw":90.43232727050781,"roll":0.0}},"velocity":{"x":-1.380328598088454e-07,"y":1.0645099024486626e-08,"z":0.004713105969130993},"angular_velocity":{"x":-1.4282985830504913e-05,"y":-3.7074994907015935e-05,"z":1.972768615132736e-09},"acceleration":{"x":-1.5540661024715519e-06,"y":3.2818496720210533e-07,"z":-0.046068187803030014},"speed_mps":0.0047131059711643004,"speed_kph":0.01696718149619148,"speed_limit_kph":30.0,"collisions_this_frame":[],"waypoint":{"x":-48.83995056152344,"y":-17.213197708129883,"z":0.0},"lane_deviation_m":0.0013261794811114669,"lane_width":3.5,"goal":{"x":-71.26968383789062,"y":132.3148956298828,"z":0.5999999642372131},"fault":{"name":"tire_pressure_imbalance","severity":1.0},"capture_flags":{"save_rgb":true,"save_depth":false,"video_rgb":true,"video_depth":false}}
{"frame":28902,"timestamp":{"delta_seconds":0.05000000074505806,"elapsed_seconds":285.07559753768146},"control":{"throttle":0.0,"steer":-0.0010000000474974513,"brake":1.0,"hand_brake":false,"reverse":false,"manual_gear_shift":false,"gear":0},"transform":{"location":{"x":-48.83995056152344,"y":-17.213197708129883,"z":0.0015124892815947533},"rotation":{"pitch":0.0,"yaw":90.43232727050781,"roll":0.0}},"velocity":{"x":4.253944041465729e-08,"y":-3.217596633575681e-09,"z":0.0031509685795754194},"angular_velocity":{"x":4.96453367304639e-06,"y":7.296559033420635e-06,"z":4.055972224747961e-11},"acceleration":{"x":3.6114461181568913e-06,"y":-2.7725391760213824e-07,"z":-0.031242746859788895},"speed_mps":0.0031509685798642127,"speed_kph":0.011343486887511167,"speed_limit_kph":30.0,"collisions_this_frame":[],"waypoint":{"x":-48.83995056152344,"y":-17.213197708129883,"z":0.0},"lane_deviation_m":0.0015124892815947533,"lane_width":3.5,"goal":{"x":-71.26968383789062,"y":132.3148956298828,"z":0.5999999642372131},"fault":{"name":"tire_pressure_imbalance","severity":1.0},"capture_flags":{"save_rgb":true,"save_depth":false,"video_rgb":true,"video_depth":false}}
{"frame":28903,"timestamp":{"delta_seconds":0.05000000074505806,"elapsed_seconds":285.1255975384265},"control":{"throttle":0.0,"steer":-0.010999999940395355,"brake":1.0,"hand_brake":false,"reverse":false,"manual_gear_shift":false,"gear":0},"transform":{"location":{"x":-48.83995056152344,"y":-17.213197708129883,"z":0.0015980148455128074},"rotation":{"pitch":0.0,"yaw":90.43232727050781,"roll":0.0}},"velocity":{"x":4.584529023077266e-08,"y":1.584013986644095e-08,"z":0.0005042076227255166},"angular_velocity":{"x":-2.1064353859401308e-05,"y":4.4190855987835675e-05,"z":5.483765885827552e-09},"acceleration":{"x":6.611699632230739e-08,"y":3.811547344412247e-07,"z":-0.052935220301151276},"speed_mps":0.0005042076250585839,"speed_kph":0.001815147450210902,"speed_limit_kph":30.0,"collisions_this_frame":[],"waypoint":{"x":-48.83995056152344,"y":-17.213197708129883,"z":0.0},"lane_deviation_m":0.0015980148455128074,"lane_width":3.5,"goal":{"x":-71.26968383789062,"y":132.3148956298828,"z":0.5999999642372131},"fault":{"name":"tire_pressure_imbalance","severity":1.0},"capture_flags":{"save_rgb":true,"save_depth":false,"video_rgb":true,"video_depth":false}}
{"frame":28904,"timestamp":{"delta_seconds":0.05000000074505806,"elapsed_seconds":285.1755975391716},"control":{"throttle":0.0,"steer":-0.01600000075995922,"brake":1.0,"hand_brake":false,"reverse":false,"manual_gear_shift":false,"gear":0},"transform":{"location":{"x":-48.83995056152344,"y":-17.213197708129883,"z":0.0016385269118472934},"rotation":{"pitch":0.0,"yaw":90.43232727050781,"roll":0.0}},"velocity":{"x":-1.2171391006177146e-08,"y":1.7649781636208672e-10,"z":0.0009392833453603089},"angular_velocity":{"x":-2.446059284011426e-07,"y":-1.3459611182042863e-05,"z":9.858178717792043e-10},"acceleration":{"x":-1.1603335678955773e-06,"y":-3.1327286365012696e-07,"z":0.008701514452695847},"speed_mps":0.0009392833454391849,"speed_kph":0.003381420043581066,"speed_limit_kph":30.0,"collisions_this_frame":[],"waypoint":{"x":-48.83995056152344,"y":-17.213197708129883,"z":0.0},"lane_deviation_m":0.0016385269118472934,"lane_width":3.5,"goal":{"x":-71.26968383789062,"y":132.3148956298828,"z":0.5999999642372131},"fault":{"name":"tire_pressure_imbalance","severity":1.0},"capture_flags":{"save_rgb":true,"save_depth":false,"video_rgb":true,"video_depth":false}}
{"frame":28905,"timestamp":{"delta_seconds":0.05000000074505806,"elapsed_seconds":285.22559753991663},"control":{"throttle":0.0,"steer":-0.003000000026077032,"brake":1.0,"hand_brake":false,"reverse":false,"manual_gear_shift":false,"gear":0},"transform":{"location":{"x":-48.83995056152344,"y":-17.213197708129883,"z":0.0016877364832907915},"rotation":{"pitch":0.0,"yaw":90.43232727050781,"roll":0.0}},"velocity":{"x":-4.806993691985895e-10,"y":-8.52185683131168e-11,"z":0.0009801483247429132},"angular_velocity":{"x":1.7982809197292227e-07,"y":-1.2202589459775481e-05,"z":-2.1134576033698949e-10},"acceleration":{"x":2.338138358481956e-07,"y":-5.234327637992919e-09,"z":0.0008172995876520872},"speed_mps":0.000980148324743035,"speed_kph":0.0035285339690749257,"speed_limit_kph":30.0,"collisions_this_frame":[],"waypoint":{"x":-48.83995056152344,"y":-17.213197708129883,"z":0.0},"lane_deviation_m":0.0016877364832907915,"lane_width":3.5,"goal":{"x":-71.26968383789062,"y":132.3148956298828,"z":0.5999999642372131},"fault":{"name":"tire_pressure_imbalance","severity":1.0},"capture_flags":{"save_rgb":true,"save_depth":false,"video_rgb":true,"video_depth":false}}
{"frame":28906,"timestamp":{"delta_seconds":0.05000000074505806,"elapsed_seconds":285.2755975406617},"control":{"throttle":0.0,"steer":-0.004999999888241291,"brake":1.0,"hand_brake":false,"reverse":false,"manual_gear_shift":false,"gear":0},"transform":{"location":{"x":-48.83995056152344,"y":-17.213197708129883,"z":0.0017335510347038507},"rotation":{"pitch":0.0,"yaw":90.43232727050781,"roll":0.0}},"velocity":{"x":3.5129286146684535e-08,"y":-8.484607461056726e-10,"z":0.0008605003240518272},"angular_velocity":{"x":7.213369457303997e-08,"y":1.2784469163307222e-06,"z":-1.0217691581715371e-08},"acceleration":{"x":7.121997214198927e-07,"y":-1.5264843611362267e-08,"z":-0.002392960013821721},"speed_mps":0.000860500324769309,"speed_kph":0.0030978011691695125,"speed_limit_kph":30.0,"collisions_this_frame":[],"waypoint":{"x":-48.83995056152344,"y":-17.213197708129883,"z":0.0},"lane_deviation_m":0.0017335510347038507,"lane_width":3.5,"goal":{"x":-71.26968383789062,"y":132.3148956298828,"z":0.5999999642372131},"fault":{"name":"tire_pressure_imbalance","severity":1.0},"capture_flags":{"save_rgb":true,"save_depth":false,"video_rgb":true,"video_depth":false}}
{"frame":28907,"timestamp":{"delta_seconds":0.05000000074505806,"elapsed_seconds":285.32559754140675},"control":{"throttle":0.0,"steer":-0.009999999776482582,"brake":1.0,"hand_brake":false,"reverse":false,"manual_gear_shift":false,"gear":0},"transform":{"location":{"x":-48.83995056152344,"y":-17.213197708129883,"z":0.0017716598231345415},"rotation":{"pitch":0.0,"yaw":90.43232727050781,"roll":0.0}},"velocity":{"x":1.1901126306668175e-08,"y":-6.821729292560974e-10,"z":0.0006945419008843601},"angular_velocity":{"x":9.60019747253682e-07,"y":2.0289238818804733e-05,"z":-8.006019736050973e-10},"acceleration":{"x":-4.645632145638956e-07,"y":3.3257563369915033e-09,"z":-0.0033191684633493423},"speed_mps":0.0006945419009866593,"speed_kph":0.0025003508435519736,"speed_limit_kph":30.0,"collisions_this_frame":[],"waypoint":{"x":-48.83995056152344,"y":-17.213197708129883,"z":0.0},"lane_deviation_m":0.0017716598231345415,"lane_width":3.5,"goal":{"x":-71.26968383789062,"y":132.3148956298828,"z":0.5999999642372131},"fault":{"name":"tire_pressure_imbalance","severity":1.0},"capture_flags":{"save_rgb":true,"save_depth":false,"video_rgb":true,"video_depth":false}}
{"frame":28908,"timestamp":{"delta_seconds":0.05000000074505806,"elapsed_seconds":285.3755975421518},"control":{"throttle":0.0,"steer":-0.007000000216066837,"brake":1.0,"hand_brake":false,"reverse":false,"manual_gear_shift":false,"gear":0},"transform":{"location":{"x":-48.83995056152344,"y":-17.213197708129883,"z":0.001801452599465847},"rotation":{"pitch":0.0,"yaw":90.43232727050781,"roll":0.0}},"velocity":{"x":9.160105562955323e-09,"y":-1.2473694299686144e-09,"z":0.0005322932847775519},"angular_velocity":{"x":1.7962041738428525e-06,"y":6.604058398806956e-06,"z":-1.7491131876212762e-09},"acceleration":{"x":-5.482041487425704e-08,"y":-1.1303930236294946e-08,"z":-0.0032449723221361637},"speed_mps":0.0005322932848578304,"speed_kph":0.0019162558254881897,"speed_limit_kph":30.0,"collisions_this_frame":[],"waypoint":{"x":-48.83995056152344,"y":-17.213197708129883,"z":0.0},"lane_deviation_m":0.001801452599465847,"lane_width":3.5,"goal":{"x":-71.26968383789062,"y":132.3148956298828,"z":0.5999999642372131},"fault":{"name":"tire_pressure_imbalance","severity":1.0},"capture_flags":{"save_rgb":true,"save_depth":false,"video_rgb":true,"video_depth":false}}
{"frame":28909,"timestamp":{"delta_seconds":0.05000000074505806,"elapsed_seconds":285.42559754289687},"control":{"throttle":0.0,"steer":-0.00800000037997961,"brake":1.0,"hand_brake":false,"reverse":false,"manual_gear_shift":false,"gear":0},"transform":{"location":{"x":-48.83995056152344,"y":-17.213197708129883,"z":0.001823806669563055},"rotation":{"pitch":0.0,"yaw":90.43232727050781,"roll":0.0}},"velocity":{"x":-2.0140090484233042e-08,"y":-1.4677881132740822e-09,"z":0.00039374351035803556},"angular_velocity":{"x":2.0175575627945364e-06,"y":-8.098400030576158e-06,"z":3.2253060222586782e-09},"acceleration":{"x":-5.860039209437673e-07,"y":-4.408373666109355e-09,"z":-0.0027709954883903265},"speed_mps":0.000393743510875857,"speed_kph":0.001417476639153085,"speed_limit_kph":30.0,"collisions_this_frame":[],"waypoint":{"x":-48.83995056152344,"y":-17.213197708129883,"z":0.0},"lane_deviation_m":0.001823806669563055,"lane_width":3.5,"goal":{"x":-71.26968383789062,"y":132.3148956298828,"z":0.5999999642372131},"fault":{"name":"tire_pressure_imbalance","severity":1.0},"capture_flags":{"save_rgb":true,"save_depth":false,"video_rgb":true,"video_depth":false}}
{"frame":28910,"timestamp":{"delta_seconds":0.05000000074505806,"elapsed_seconds":285.4755975436419},"control":{"throttle":0.0,"steer":-0.004999999888241291,"brake":1.0,"hand_brake":false,"reverse":false,"manual_gear_shift":false,"gear":0},"transform":{"location":{"x":-48.83995056152344,"y":-17.213197708129883,"z":0.0018401335692033172},"rotation":{"pitch":0.0,"yaw":90.43232727050781,"roll":0.0}},"velocity":{"x":-4.430000810629053e-09,"y":-3.82276099664125e-10,"z":0.00028573989402502775},"angular_velocity":{"x":6.04979902618652e-07,"y":-1.1074996109528001e-05,"z":-1.1722224302346262e-09},"acceleration":{"x":3.1420177037944086e-07,"y":2.1710240716288354e-08,"z":-0.0021600723266601562},"speed_mps":0.000285739894059624,"speed_kph":0.0010286636186146465,"speed_limit_kph":30.0,"collisions_this_frame":[],"waypoint":{"x":-48.83995056152344,"y":-17.213197708129883,"z":0.0},"lane_deviation_m":0.0018401335692033172,"lane_width":3.5,"goal":{"x":-71.26968383789062,"y":132.3148956298828,"z":0.5999999642372131},"fault":{"name":"tire_pressure_imbalance","severity":1.0},"capture_flags":{"save_rgb":true,"save_depth":false,"video_rgb":true,"video_depth":false}}
{"frame":28911,"timestamp":{"delta_seconds":0.05000000074505806,"elapsed_seconds":285.525597544387},"control":{"throttle":0.0,"steer":-0.009999999776482582,"brake":1.0,"hand_brake":false,"reverse":false,"manual_gear_shift":false,"gear":0},"transform":{"location":{"x":-48.83995056152344,"y":-17.213197708129883,"z":0.0018518066499382257},"rotation":{"pitch":0.0,"yaw":90.43232727050781,"roll":0.0}},"velocity":{"x":1.82170367679646e-09,"y":-1.0676379919027923e-11,"z":0.00020352362480480224},"angular_velocity":{"x":8.554080999090274e-09,"y":3.1321851565735415e-06,"z":6.983583156205952e-10},"acceleration":{"x":1.250340915248671e-07,"y":7.431994575313183e-09,"z":-0.0016443254426121712},"speed_mps":0.0002035236248129554,"speed_kph":0.0007326850493266395,"speed_limit_kph":30.0,"collisions_this_frame":[],"waypoint":{"x":-48.83995056152344,"y":-17.213197708129883,"z":0.0},"lane_deviation_m":0.0018518066499382257,"lane_width":3.5,"goal":{"x":-71.26968383789062,"y":132.3148956298828,"z":0.5999999642372131},"fault":{"name":"tire_pressure_imbalance","severity":1.0},"capture_flags":{"save_rgb":true,"save_depth":false,"video_rgb":true,"video_depth":false}}
{"frame":28912,"timestamp":{"delta_seconds":0.05000000074505806,"elapsed_seconds":285.57559754513204},"control":{"throttle":0.0,"steer":-0.007000000216066837,"brake":1.0,"hand_brake":false,"reverse":false,"manual_gear_shift":false,"gear":0},"transform":{"location":{"x":-48.83995056152344,"y":-17.213197708129883,"z":0.0018542479956522584},"rotation":{"pitch":0.0,"yaw":90.43232727050781,"roll":0.0}},"velocity":{"x":2.77304357254593e-09,"y":7.027332188380697e-11,"z":7.512092270189896e-05},"angular_velocity":{"x":-2.044050830818378e-07,"y":3.012482193298638e-05,"z":1.0145847495479643e-09},"acceleration":{"x":1.9026797914989402e-08,"y":1.6189940499344857e-09,"z":-0.002568054012954235},"speed_mps":7.512092275311445e-05,"speed_kph":0.000270435321911212,"speed_limit_kph":30.0,"collisions_this_frame":[],"waypoint":{"x":-48.83995056152344,"y":-17.213197708129883,"z":0.0},"lane_deviation_m":0.0018542479956522584,"lane_width":3.5,"goal":{"x":-71.26968383789062,"y":132.3148956298828,"z":0.5999999642372131},"fault":{"name":"tire_pressure_imbalance","severity":1.0},"capture_flags":{"save_rgb":true,"save_depth":false,"video_rgb":true,"video_depth":false}}
{"frame":28913,"timestamp":{"delta_seconds":0.05000000074505806,"elapsed_seconds":285.6255975458771},"control":{"throttle":0.0,"steer":-0.014000000432133675,"brake":1.0,"hand_brake":false,"reverse":false,"manual_gear_shift":false,"gear":0},"transform":{"location":{"x":-48.83995056152344,"y":-17.213197708129883,"z":0.0018585968064144254},"rotation":{"pitch":0.0,"yaw":90.43232727050781,"roll":0.0}},"velocity":{"x":-4.800689978878836e-08,"y":1.4789354629840545e-08,"z":9.113311534747481e-05},"angular_velocity":{"x":-1.977616557269357e-05,"y":-5.094477819511667e-05,"z":9.712739057476938e-09},"acceleration":{"x":-1.015598854792188e-06,"y":2.943816070910543e-07,"z":0.000320243852911517},"speed_mps":9.113312919198806e-05,"speed_kph":0.00032807926509115703,"speed_limit_kph":30.0,"collisions_this_frame":[],"waypoint":{"x":-48.83995056152344,"y":-17.213197708129883,"z":0.0},"lane_deviation_m":0.0018585968064144254,"lane_width":3.5,"goal":{"x":-71.26968383789062,"y":132.3148956298828,"z":0.5999999642372131},"fault":{"name":"tire_pressure_imbalance","severity":1.0},"capture_flags":{"save_rgb":true,"save_depth":false,"video_rgb":true,"video_depth":false}}
{"frame":28914,"timestamp":{"delta_seconds":0.05000000074505806,"elapsed_seconds":285.67559754662216},"control":{"throttle":0.0,"steer":-0.012000000104308128,"brake":1.0,"hand_brake":false,"reverse":false,"manual_gear_shift":false,"gear":0},"transform":{"location":{"x":-48.83995056152344,"y":-17.213197708129883,"z":0.0018630599370226264},"rotation":{"pitch":0.0,"yaw":90.43232727050781,"roll":0.0}},"velocity":{"x":-5.860522289680148e-09,"y":-1.1262566435021881e-09,"z":8.403777610510588e-05},"angular_velocity":{"x":1.5525573644481483e-06,"y":6.720511009916663e-06,"z":3.993896324772095e-09},"acceleration":{"x":8.429275908383715e-07,"y":-3.183122316841036e-07,"z":-0.00014190678484737873},"speed_mps":8.403777631699972e-05,"speed_kph":0.000302535994741199,"speed_limit_kph":30.0,"collisions_this_frame":[],"waypoint":{"x":-48.83995056152344,"y":-17.213197708129883,"z":0.0},"lane_deviation_m":0.0018630599370226264,"lane_width":3.5,"goal":{"x":-71.26968383789062,"y":132.3148956298828,"z":0.5999999642372131},"fault":{"name":"tire_pressure_imbalance","severity":1.0},"capture_flags":{"save_rgb":true,"save_depth":false,"video_rgb":true,"video_depth":false}}
{"frame":28915,"timestamp":{"delta_seconds":0.05000000074505806,"elapsed_seconds":285.7255975473672},"control":{"throttle":0.0,"steer":-0.0020000000949949026,"brake":1.0,"hand_brake":false,"reverse":false,"manual_gear_shift":false,"gear":0},"transform":{"location":{"x":-48.83995056152344,"y":-17.213197708129883,"z":0.0018668364500626922},"rotation":{"pitch":0.0,"yaw":90.43232727050781,"roll":0.0}},"velocity":{"x":4.5684274141422065e-08,"y":-2.1327899446532683e-09,"z":6.997107993811369e-05},"angular_velocity":{"x":1.969824779735063e-06,"y":1.815738323784899e-05,"z":-1.0550197160341668e-08},"acceleration":{"x":1.0308958735549822e-06,"y":-2.0130666911200024e-08,"z":-0.00028133392333984375},"speed_mps":6.997109488429913e-05,"speed_kph":0.0002518959415834769,"speed_limit_kph":30.0,"collisions_this_frame":[],"waypoint":{"x":-48.83995056152344,"y":-17.213197708129883,"z":0.0},"lane_deviation_m":0.0018668364500626922,"lane_width":3.5,"goal":{"x":-71.26968383789062,"y":132.3148956298828,"z":0.5999999642372131},"fault":{"name":"tire_pressure_imbalance","severity":1.0},"capture_flags":{"save_rgb":true,"save_depth":false,"video_rgb":true,"video_depth":false}}
{"frame":28916,"timestamp":{"delta_seconds":0.05000000074505806,"elapsed_seconds":285.7755975481123},"control":{"throttle":0.0,"steer":-0.008999999612569809,"brake":1.0,"hand_brake":false,"reverse":false,"manual_gear_shift":false,"gear":0},"transform":{"location":{"x":-48.83995056152344,"y":-17.213197708129883,"z":0.0018698882777243853},"rotation":{"pitch":0.0,"yaw":90.43232727050781,"roll":0.0}},"velocity":{"x":9.624344654568517e-10,"y":-1.9790653560392e-09,"z":5.482673441292718e-05},"angular_velocity":{"x":2.8042491067026276e-06,"y":4.9716072680894285e-06,"z":4.709727607909997e-10},"acceleration":{"x":-8.944368232732813e-07,"y":3.0744917722813625e-09,"z":-0.0003028869105037302},"speed_mps":5.482673445709341e-05,"speed_kph":0.00019737624404553628,"speed_limit_kph":30.0,"collisions_this_frame":[],"waypoint":{"x":-48.83995056152344,"y":-17.213197708129883,"z":0.0},"lane_deviation_m":0.0018698882777243853,"lane_width":3.5,"goal":{"x":-71.26968383789062,"y":132.3148956298828,"z":0.5999999642372131},"fault":{"name":"tire_pressure_imbalance","severity":1.0},"capture_flags":{"save_rgb":true,"save_depth":false,"video_rgb":true,"video_depth":false}}
{"frame":28917,"timestamp":{"delta_seconds":0.05000000074505806,"elapsed_seconds":285.82559754885733},"control":{"throttle":0.0,"steer":-0.004999999888241291,"brake":1.0,"hand_brake":false,"reverse":false,"manual_gear_shift":false,"gear":0},"transform":{"location":{"x":-48.83995056152344,"y":-17.213197708129883,"z":0.001872215187177062},"rotation":{"pitch":0.0,"yaw":90.43232727050781,"roll":0.0}},"velocity":{"x":-1.992758313917875e-08,"y":-2.6864910296353628e-09,"z":4.1999817767646164e-05},"angular_velocity":{"x":3.7190093280514702e-06,"y":-8.333207915711682e-06,"z":3.11204062519721e-09},"acceleration":{"x":-4.17800322338735e-07,"y":-1.4148513471923252e-08,"z":-0.00025653833290562034},"speed_mps":4.19998225810692e-05,"speed_kph":0.0001511993612918491,"speed_limit_kph":30.0,"collisions_this_frame":[],"waypoint":{"x":-48.83995056152344,"y":-17.213197708129883,"z":0.0},"lane_deviation_m":0.001872215187177062,"lane_width":3.5,"goal":{"x":-71.26968383789062,"y":132.3148956298828,"z":0.5999999642372131},"fault":{"name":"tire_pressure_imbalance","severity":1.0},"capture_flags":{"save_rgb":true,"save_depth":false,"video_rgb":true,"video_depth":false}}
{"frame":28918,"timestamp":{"delta_seconds":0.05000000074505806,"elapsed_seconds":285.8755975496024},"control":{"throttle":0.0,"steer":-0.012000000104308128,"brake":1.0,"hand_brake":false,"reverse":false,"manual_gear_shift":false,"gear":0},"transform":{"location":{"x":-48.83995056152344,"y":-17.213197708129883,"z":0.001873931847512722},"rotation":{"pitch":0.0,"yaw":90.43232727050781,"roll":0.0}},"velocity":{"x":4.5462133613227707e-08,"y":-2.94250512844485e-09,"z":3.086090146098286e-05},"angular_velocity":{"x":2.9599229947052663e-06,"y":1.9550077922758646e-05,"z":-1.225531764958987e-08},"acceleration":{"x":1.3077942639938556e-06,"y":-5.1202819761897445e-09,"z":-0.0002227783261332661},"speed_mps":3.086093508707121e-05,"speed_kph":0.00011109936631345636,"speed_limit_kph":30.0,"collisions_this_frame":[],"waypoint":{"x":-48.83995056152344,"y":-17.213197708129883,"z":0.0},"lane_deviation_m":0.001873931847512722,"lane_width":3.5,"goal":{"x":-71.26968383789062,"y":132.3148956298828,"z":0.5999999642372131},"fault":{"name":"tire_pressure_imbalance","severity":1.0},"capture_flags":{"save_rgb":true,"save_depth":false,"video_rgb":true,"video_depth":false}}
{"frame":28919,"timestamp":{"delta_seconds":0.05000000074505806,"elapsed_seconds":285.92559755034745},"control":{"throttle":0.0,"steer":-0.004999999888241291,"brake":1.0,"hand_brake":false,"reverse":false,"manual_gear_shift":false,"gear":0},"transform":{"location":{"x":-48.83995056152344,"y":-17.213197708129883,"z":0.0018751906463876367},"rotation":{"pitch":0.0,"yaw":90.43232727050781,"roll":0.0}},"velocity":{"x":2.3676211213796705e-08,"y":-2.493737882858227e-09,"z":2.1667479813913815e-05},"angular_velocity":{"x":2.43804197452846e-06,"y":-1.096751384466188e-05,"z":-9.171194470525279e-09},"acceleration":{"x":-4.3571844798862003e-07,"y":8.975344911732464e-09,"z":-0.00018386842566542327},"speed_mps":2.166749289299684e-05,"speed_kph":7.800297441478863e-05,"speed_limit_kph":30.0,"collisions_this_frame":[],"waypoint":{"x":-48.83995056152344,"y":-17.213197708129883,"z":0.0},"lane_deviation_m":0.0018751906463876367,"lane_width":3.5,"goal":{"x":-71.26968383789062,"y":132.3148956298828,"z":0.5999999642372131},"fault":{"name":"tire_pressure_imbalance","severity":1.0},"capture_flags":{"save_rgb":true,"save_depth":false,"video_rgb":true,"video_depth":false}}
{"frame":28920,"timestamp":{"delta_seconds":0.05000000074505806,"elapsed_seconds":285.9755975510925},"control":{"throttle":0.0,"steer":-0.00800000037997961,"brake":1.0,"hand_brake":false,"reverse":false,"manual_gear_shift":false,"gear":0},"transform":{"location":{"x":-48.83995056152344,"y":-17.213197708129883,"z":0.0018751906463876367},"rotation":{"pitch":0.0,"yaw":90.43232727050781,"roll":0.0}},"velocity":{"x":1.1242166308988999e-08,"y":-5.200069888577907e-11,"z":5.0354001359664835e-06},"angular_velocity":{"x":6.955033171607283e-08,"y":1.5692792658228427e-05,"z":-1.0879563916432744e-09},"acceleration":{"x":-2.4868089099072677e-07,"y":4.8834746024795095e-08,"z":-0.0003326415899209678},"speed_mps":5.035412685996916e-06,"speed_kph":1.8127485669588897e-05,"speed_limit_kph":30.0,"collisions_this_frame":[],"waypoint":{"x":-48.83995056152344,"y":-17.213197708129883,"z":0.0},"lane_deviation_m":0.0018751906463876367,"lane_width":3.5,"goal":{"x":-71.26968383789062,"y":132.3148956298828,"z":0.5999999642372131},"fault":{"name":"tire_pressure_imbalance","severity":1.0},"capture_flags":{"save_rgb":true,"save_depth":false,"video_rgb":true,"video_depth":false}}
{"frame":28921,"timestamp":{"delta_seconds":0.05000000074505806,"elapsed_seconds":286.02559755183756},"control":{"throttle":0.0,"steer":-0.00800000037997961,"brake":1.0,"hand_brake":false,"reverse":false,"manual_gear_shift":false,"gear":0},"transform":{"location":{"x":-48.83995056152344,"y":-17.213197708129883,"z":0.0018751906463876367},"rotation":{"pitch":0.0,"yaw":90.43232727050781,"roll":0.0}},"velocity":{"x":5.193802055103447e-10,"y":-4.035981826522317e-10,"z":8.354187229997478e-06},"angular_velocity":{"x":5.555452275984862e-07,"y":1.8918966588898911e-06,"z":1.1799881904916987e-10},"acceleration":{"x":-2.1445572429001913e-07,"y":-7.03194924511763e-09,"z":6.637573824264109e-05},"speed_mps":8.354187255891516e-06,"speed_kph":3.0075074121209458e-05,"speed_limit_kph":30.0,"collisions_this_frame":[],"waypoint":{"x":-48.83995056152344,"y":-17.213197708129883,"z":0.0},"lane_deviation_m":0.0018751906463876367,"lane_width":3.5,"goal":{"x":-71.26968383789062,"y":132.3148956298828,"z":0.5999999642372131},"fault":{"name":"tire_pressure_imbalance","severity":1.0},"capture_flags":{"save_rgb":true,"save_depth":false,"video_rgb":true,"video_depth":false}}
{"frame":28922,"timestamp":{"delta_seconds":0.05000000074505806,"elapsed_seconds":286.0755975525826},"control":{"throttle":0.0,"steer":-0.00800000037997961,"brake":1.0,"hand_brake":false,"reverse":false,"manual_gear_shift":false,"gear":0},"transform":{"location":{"x":-48.83995056152344,"y":-17.213197708129883,"z":0.001876411377452314},"rotation":{"pitch":0.0,"yaw":90.43232727050781,"roll":0.0}},"velocity":{"x":6.542426600475437e-10,"y":-6.54826026735833e-10,"z":9.222030712408014e-06},"angular_velocity":{"x":9.163642857856757e-07,"y":4.778091351909097e-06,"z":9.166480768874052e-11},"acceleration":{"x":2.6972490907439806e-09,"y":-5.024556770649724e-09,"z":1.7356869648210704e-05},"speed_mps":9.222030758863647e-06,"speed_kph":3.3199310731909135e-05,"speed_limit_kph":30.0,"collisions_this_frame":[],"waypoint":{"x":-48.83995056152344,"y":-17.213197708129883,"z":0.0},"lane_deviation_m":0.001876411377452314,"lane_width":3.5,"goal":{"x":-71.26968383789062,"y":132.3148956298828,"z":0.5999999642372131},"fault":{"name":"tire_pressure_imbalance","severity":1.0},"capture_flags":{"save_rgb":true,"save_depth":false,"video_rgb":true,"video_depth":false}}
{"frame":28923,"timestamp":{"delta_seconds":0.05000000074505806,"elapsed_seconds":286.1255975533277},"control":{"throttle":0.0,"steer":-0.004000000189989805,"brake":1.0,"hand_brake":false,"reverse":false,"manual_gear_shift":false,"gear":0},"transform":{"location":{"x":-48.83995056152344,"y":-17.213197708129883,"z":0.001876411377452314},"rotation":{"pitch":0.0,"yaw":90.43232727050781,"roll":0.0}},"velocity":{"x":2.4760982153537725e-10,"y":-1.1469680760711753e-09,"z":8.373260243388359e-06},"angular_velocity":{"x":1.5783554090376128e-06,"y":6.920608029759023e-06,"z":7.370588861466132e-11},"acceleration":{"x":-8.13265721433254e-09,"y":-9.842841208751452e-09,"z":-1.6975409380393103e-05},"speed_mps":8.373260325605222e-06,"speed_kph":3.0143737172178798e-05,"speed_limit_kph":30.0,"collisions_this_frame":[],"waypoint":{"x":-48.83995056152344,"y":-17.213197708129883,"z":0.0},"lane_deviation_m":0.001876411377452314,"lane_width":3.5,"goal":{"x":-71.26968383789062,"y":132.3148956298828,"z":0.5999999642372131},"fault":{"name":"tire_pressure_imbalance","severity":1.0},"capture_flags":{"save_rgb":true,"save_depth":false,"video_rgb":true,"video_depth":false}}
{"frame":28924,"timestamp":{"delta_seconds":0.05000000074505806,"elapsed_seconds":286.17559755407274},"control":{"throttle":0.0,"steer":-0.00800000037997961,"brake":1.0,"hand_brake":false,"reverse":false,"manual_gear_shift":false,"gear":0},"transform":{"location":{"x":-48.83995056152344,"y":-17.213197708129883,"z":0.001876411377452314},"rotation":{"pitch":0.0,"yaw":90.43232727050781,"roll":0.0}},"velocity":{"x":-2.5105464374064468e-09,"y":-1.5465947411641423e-09,"z":5.779266302852193e-06},"angular_velocity":{"x":2.1074658889119746e-06,"y":8.714496289030649e-06,"z":-8.775662974080944e-10},"acceleration":{"x":-5.516312739928253e-08,"y":-7.99253285777013e-09,"z":-5.187987699173391e-05},"speed_mps":5.779267055092849e-06,"speed_kph":2.0805361398334254e-05,"speed_limit_kph":30.0,"collisions_this_frame":[],"waypoint":{"x":-48.83995056152344,"y":-17.213197708129883,"z":0.0},"lane_deviation_m":0.001876411377452314,"lane_width":3.5,"goal":{"x":-71.26968383789062,"y":132.3148956298828,"z":0.5999999642372131},"fault":{"name":"tire_pressure_imbalance","severity":1.0},"capture_flags":{"save_rgb":true,"save_depth":false,"video_rgb":true,"video_depth":false}}
{"frame":28925,"timestamp":{"delta_seconds":0.05000000074505806,"elapsed_seconds":286.2255975548178},"control":{"throttle":0.0,"steer":-0.0020000000949949026,"brake":1.0,"hand_brake":false,"reverse":false,"manual_gear_shift":false,"gear":0},"transform":{"location":{"x":-48.83995056152344,"y":-17.213197708129883,"z":0.001876411377452314},"rotation":{"pitch":0.0,"yaw":90.43232727050781,"roll":0.0}},"velocity":{"x":-5.2152351770473615e-08,"y":1.2793379688957884e-08,"z":4.310607891966356e-06},"angular_velocity":{"x":-1.7007349015329964e-05,"y":-4.913907469017431e-05,"z":8.346460411701173e-09},"acceleration":{"x":-9.928361350830528e-07,"y":2.867994908228866e-07,"z":-2.937316821771674e-05},"speed_mps":4.310942349027842e-06,"speed_kph":1.5519392456500232e-05,"speed_limit_kph":30.0,"collisions_this_frame":[],"waypoint":{"x":-48.83995056152344,"y":-17.213197708129883,"z":0.0},"lane_deviation_m":0.001876411377452314,"lane_width":3.5,"goal":{"x":-71.26968383789062,"y":132.3148956298828,"z":0.5999999642372131},"fault":{"name":"tire_pressure_imbalance","severity":1.0},"capture_flags":{"save_rgb":true,"save_depth":false,"video_rgb":true,"video_depth":false}}
{"frame":28926,"timestamp":{"delta_seconds":0.05000000074505806,"elapsed_seconds":286.27559755556285},"control":{"throttle":0.0,"steer":-0.010999999940395355,"brake":1.0,"hand_brake":false,"reverse":false,"manual_gear_shift":false,"gear":0},"transform":{"location":{"x":-48.83995056152344,"y":-17.213197708129883,"z":0.0018775558564811945},"rotation":{"pitch":0.0,"yaw":90.43232727050781,"roll":0.0}},"velocity":{"x":-1.1358066487332508e-08,"y":-2.4082933425262354e-09,"z":3.5285947888041846e-06},"angular_velocity":{"x":3.3935345982172294e-06,"y":-3.4577897167764604e-06,"z":9.618259522170547e-10},"acceleration":{"x":8.158856417139759e-07,"y":-3.0403344908336294e-07,"z":-1.5640262063243426e-05},"speed_mps":3.5286138906271967e-06,"speed_kph":1.2703010006257909e-05,"speed_limit_kph":30.0,"collisions_this_frame":[],"waypoint":{"x":-48.83995056152344,"y":-17.213197708129883,"z":0.0},"lane_deviation_m":0.0018775558564811945,"lane_width":3.5,"goal":{"x":-71.26968383789062,"y":132.3148956298828,"z":0.5999999642372131},"fault":{"name":"tire_pressure_imbalance","severity":1.0},"capture_flags":{"save_rgb":true,"save_depth":false,"video_rgb":true,"video_depth":false}}
{"frame":28927,"timestamp":{"delta_seconds":0.05000000074505806,"elapsed_seconds":286.3255975563079},"control":{"throttle":0.0,"steer":-0.006000000052154064,"brake":1.0,"hand_brake":false,"reverse":false,"manual_gear_shift":false,"gear":0},"transform":{"location":{"x":-48.83995056152344,"y":-17.213197708129883,"z":0.0018775558564811945},"rotation":{"pitch":0.0,"yaw":90.43232727050781,"roll":0.0}},"velocity":{"x":1.4500808553918887e-08,"y":-2.8545248387246147e-09,"z":1.4877318790240679e-06},"angular_velocity":{"x":4.057912974531064e-06,"y":1.2047887139488012e-05,"z":4.3318199027808646e-10},"acceleration":{"x":5.171774546397501e-07,"y":-8.924629923967586e-09,"z":-4.081725637661293e-05},"speed_mps":1.4878052848492156e-06,"speed_kph":5.356099025457176e-06,"speed_limit_kph":30.0,"collisions_this_frame":[],"waypoint":{"x":-48.83995056152344,"y":-17.213197708129883,"z":0.0},"lane_deviation_m":0.0018775558564811945,"lane_width":3.5,"goal":{"x":-71.26968383789062,"y":132.3148956298828,"z":0.5999999642372131},"fault":{"name":"tire_pressure_imbalance","severity":1.0},"capture_flags":{"save_rgb":true,"save_depth":false,"video_rgb":true,"video_depth":false}}
{"frame":28928,"timestamp":{"delta_seconds":0.05000000074505806,"elapsed_seconds":286.37559755705297},"control":{"throttle":0.0,"steer":-0.00800000037997961,"brake":1.0,"hand_brake":false,"reverse":false,"manual_gear_shift":false,"gear":0},"transform":{"location":{"x":-48.83995056152344,"y":-17.213197708129883,"z":0.0018775558564811945},"rotation":{"pitch":0.0,"yaw":90.43232727050781,"roll":0.0}},"velocity":{"x":0.0,"y":0.0,"z":0.0},"angular_velocity":{"x":0.0,"y":0.0,"z":0.0},"acceleration":{"x":-2.900161746310914e-07,"y":5.7090495886313875e-08,"z":-2.9754637580481358e-05},"speed_mps":0.0,"speed_kph":0.0,"speed_limit_kph":30.0,"collisions_this_frame":[],"waypoint":{"x":-48.83995056152344,"y":-17.213197708129883,"z":0.0},"lane_deviation_m":0.0018775558564811945,"lane_width":3.5,"goal":{"x":-71.26968383789062,"y":132.3148956298828,"z":0.5999999642372131},"fault":{"name":"tire_pressure_imbalance","severity":1.0},"capture_flags":{"save_rgb":true,"save_depth":false,"video_rgb":true,"video_depth":false}}
{"frame":28929,"timestamp":{"delta_seconds":0.05000000074505806,"elapsed_seconds":286.425597557798},"control":{"throttle":0.0,"steer":-0.012000000104308128,"brake":1.0,"hand_brake":false,"reverse":false,"manual_gear_shift":false,"gear":0},"transform":{"location":{"x":-48.83995056152344,"y":-17.213197708129883,"z":0.0018775558564811945},"rotation":{"pitch":0.0,"yaw":90.43232727050781,"roll":0.0}},"velocity":{"x":3.3191716042324515e-10,"y":2.1133516811544517e-11,"z":1.058578504853358e-06},"angular_velocity":{"x":-4.004836995363803e-08,"y":2.2174924652063055e-06,"z":-1.6560025919987176e-11},"acceleration":{"x":6.638343208464903e-09,"y":4.2267034316978425e-10,"z":2.117157055181451e-05},"speed_mps":1.0585785571006046e-06,"speed_kph":3.8108828055621766e-06,"speed_limit_kph":30.0,"collisions_this_frame":[],"waypoint":{"x":-48.83995056152344,"y":-17.213197708129883,"z":0.0},"lane_deviation_m":0.0018775558564811945,"lane_width":3.5,"goal":{"x":-71.26968383789062,"y":132.3148956298828,"z":0.5999999642372131},"fault":{"name":"tire_pressure_imbalance","severity":1.0},"capture_flags":{"save_rgb":true,"save_depth":false,"video_rgb":true,"video_depth":false}}
{"frame":28930,"timestamp":{"delta_seconds":0.05000000074505806,"elapsed_seconds":286.4755975585431},"control":{"throttle":0.0,"steer":-0.012000000104308128,"brake":1.0,"hand_brake":false,"reverse":false,"manual_gear_shift":false,"gear":0},"transform":{"location":{"x":-48.83995056152344,"y":-17.213197708129883,"z":0.0018775558564811945},"rotation":{"pitch":0.0,"yaw":90.43232727050781,"roll":0.0}},"velocity":{"x":4.4124298659298233e-10,"y":4.562612787584186e-11,"z":2.117157009706716e-06},"angular_velocity":{"x":-8.010101737454534e-08,"y":4.436652034200961e-06,"z":-3.051106242657475e-11},"acceleration":{"x":2.1865165233947437e-09,"y":4.89852214347053e-10,"z":2.117157055181451e-05},"speed_mps":2.1171570561787336e-06,"speed_kph":7.621765402243441e-06,"speed_limit_kph":30.0,"collisions_this_frame":[],"waypoint":{"x":-48.83995056152344,"y":-17.213197708129883,"z":0.0},"lane_deviation_m":0.0018775558564811945,"lane_width":3.5,"goal":{"x":-71.26968383789062,"y":132.3148956298828,"z":0.5999999642372131},"fault":{"name":"tire_pressure_imbalance","severity":1.0},"capture_flags":{"save_rgb":true,"save_depth":false,"video_rgb":true,"video_depth":false}}
{"frame":28931,"timestamp":{"delta_seconds":0.05000000074505806,"elapsed_seconds":286.52559755928814},"control":{"throttle":0.0,"steer":-0.006000000052154064,"brake":1.0,"hand_brake":false,"reverse":false,"manual_gear_shift":false,"gear":0},"transform":{"location":{"x":-48.83995056152344,"y":-17.213197708129883,"z":0.0018775558564811945},"rotation":{"pitch":0.0,"yaw":90.43232727050781,"roll":0.0}},"velocity":{"x":-2.3155313222389395e-09,"y":-6.462775314908242e-10,"z":1.4877318790240679e-06},"angular_velocity":{"x":9.982770734495716e-07,"y":-2.287651295773685e-05,"z":-7.127442525067806e-10},"acceleration":{"x":-5.513548728686146e-08,"y":-1.3838072909777566e-08,"z":-1.2588502613652963e-05},"speed_mps":1.487733821362019e-06,"speed_kph":5.355841756903269e-06,"speed_limit_kph":30.0,"collisions_this_frame":[],"waypoint":{"x":-48.83995056152344,"y":-17.213197708129883,"z":0.0},"lane_deviation_m":0.0018775558564811945,"lane_width":3.5,"goal":{"x":-71.26968383789062,"y":132.3148956298828,"z":0.5999999642372131},"fault":{"name":"tire_pressure_imbalance","severity":1.0},"capture_flags":{"save_rgb":true,"save_depth":false,"video_rgb":true,"video_depth":false}}
