{"frame":4747,"timestamp":{"delta_seconds":0.05000000074505806,"elapsed_seconds":51.81137497164309},"control":{"throttle":0.0,"steer":0.0,"brake":1.0,"hand_brake":false,"reverse":false,"manual_gear_shift":false,"gear":0},"transform":{"location":{"x":-64.64484405517578,"y":24.471010208129883,"z":0.48239994049072266},"rotation":{"pitch":0.0,"yaw":0.15919795632362366,"roll":0.0}},"velocity":{"x":0.0,"y":0.0,"z":-1.470000147819519},"angular_velocity":{"x":0.0,"y":0.0,"z":0.0},"acceleration":{"x":0.0,"y":0.0,"z":-9.80000114440918},"speed_mps":1.470000147819519,"speed_kph":5.2920005321502686,"speed_limit_kph":30.0,"collisions_this_frame":[],"waypoint":{"x":-64.64469146728516,"y":24.504404067993164,"z":0.0},"lane_deviation_m":0.4835544228553772,"lane_width":3.5,"goal":{"x":22.88115692138672,"y":-60.89999771118164,"z":0.5999999642372131},"fault":{"name":"tire_pressure_imbalance","severity":1.0},"capture_flags":{"save_rgb":true,"save_depth":false,"video_rgb":true,"video_depth":false}}
{"frame":4748,"timestamp":{"delta_seconds":0.05000000074505806,"elapsed_seconds":51.86137497238815},"control":{"throttle":1.0,"steer":0.2639999985694885,"brake":0.0,"hand_brake":false,"reverse":false,"manual_gear_shift":false,"gear":0},"transform":{"location":{"x":-64.64484405517578,"y":24.471010208129883,"z":0.394199937582016},"rotation":{"pitch":0.0,"yaw":0.15919795632362366,"roll":0.0}},"velocity":{"x":0.0,"y":0.0,"z":-1.9600002765655518},"angular_velocity":{"x":0.0,"y":0.0,"z":0.0},"acceleration":{"x":0.0,"y":0.0,"z":-9.800003051757812},"speed_mps":1.9600002765655518,"speed_kph":7.056000995635986,"speed_limit_kph":30.0,"collisions_this_frame":[],"waypoint":{"x":-64.64469146728516,"y":24.504404067993164,"z":0.0},"lane_deviation_m":0.39561188220977783,"lane_width":3.5,"goal":{"x":22.88115692138672,"y":-60.89999771118164,"z":0.5999999642372131},"fault":{"name":"tire_pressure_imbalance","severity":1.0},"capture_flags":{"save_rgb":true,"save_depth":false,"video_rgb":true,"video_depth":false}}
{"frame":4749,"timestamp":{"delta_seconds":0.05000000074505806,"elapsed_seconds":51.911374973133206},"control":{"throttle":1.0,"steer":0.5,"brake":0.0,"hand_brake":false,"reverse":false,"manual_gear_shift":false,"gear":0},"transform":{"location":{"x":-64.64484405517578,"y":24.471010208129883,"z":0.28150004148483276},"rotation":{"pitch":0.0,"yaw":0.15919795632362366,"roll":0.0}},"velocity":{"x":0.0,"y":0.0,"z":-2.450000286102295},"angular_velocity":{"x":0.0,"y":0.0,"z":0.0},"acceleration":{"x":0.0,"y":0.0,"z":-9.800000190734863},"speed_mps":2.450000286102295,"speed_kph":8.820001029968262,"speed_limit_kph":30.0,"collisions_this_frame":[],"waypoint":{"x":-64.64469146728516,"y":24.504404067993164,"z":0.0},"lane_deviation_m":0.2834738790988922,"lane_width":3.5,"goal":{"x":22.88115692138672,"y":-60.89999771118164,"z":0.5999999642372131},"fault":{"name":"tire_pressure_imbalance","severity":1.0},"capture_flags":{"save_rgb":true,"save_depth":false,"video_rgb":true,"video_depth":false}}
{"frame":4750,"timestamp":{"delta_seconds":0.05000000074505806,"elapsed_seconds":51.961374973878264},"control":{"throttle":0.8264428377151489,"steer":0.7009999752044678,"brake":0.0,"hand_brake":false,"reverse":false,"manual_gear_shift":false,"gear":0},"transform":{"location":{"x":-64.64484405517578,"y":24.471010208129883,"z":0.1442999690771103},"rotation":{"pitch":0.0,"yaw":0.15919795632362366,"roll":0.0}},"velocity":{"x":0.0,"y":0.0,"z":-2.93999981880188},"angular_velocity":{"x":0.0,"y":0.0,"z":0.0},"acceleration":{"x":0.0,"y":0.0,"z":-9.7999906539917},"speed_mps":2.93999981880188,"speed_kph":10.583999347686769,"speed_limit_kph":30.0,"collisions_this_frame":[],"waypoint":{"x":-64.64469146728516,"y":24.504404067993164,"z":0.0},"lane_deviation_m":0.1481136530637741,"lane_width":3.5,"goal":{"x":22.88115692138672,"y":-60.89999771118164,"z":0.5999999642372131},"fault":{"name":"tire_pressure_imbalance","severity":1.0},"capture_flags":{"save_rgb":true,"save_depth":false,"video_rgb":true,"video_depth":false}}
{"frame":4751,"timestamp":{"delta_seconds":0.05000000074505806,"elapsed_seconds":52.01137497462332},"control":{"throttle":0.0,"steer":0.6570000052452087,"brake":1.0,"hand_brake":false,"reverse":false,"manual_gear_shift":false,"gear":0},"transform":{"location":{"x":-64.64484405517578,"y":24.471010208129883,"z":0.008085555396974087},"rotation":{"pitch":0.0,"yaw":0.15919795632362366,"roll":0.0}},"velocity":{"x":-1.4789030444717355e-07,"y":-2.2099350189819233e-06,"z":-2.06459641456604},"angular_velocity":{"x":0.0009198705083690584,"y":-0.0008250255486927927,"z":1.682183938100934e-05},"acceleration":{"x":-2.95780614578689e-06,"y":-4.4198699470143765e-05,"z":17.508068084716797},"speed_mps":2.064596414567228,"speed_kph":7.432547092442021,"speed_limit_kph":30.0,"collisions_this_frame":[],"waypoint":{"x":-64.64469146728516,"y":24.504404067993164,"z":0.0},"lane_deviation_m":0.034359123557806015,"lane_width":3.5,"goal":{"x":22.88115692138672,"y":-60.89999771118164,"z":0.5999999642372131},"fault":{"name":"tire_pressure_imbalance","severity":1.0},"capture_flags":{"save_rgb":true,"save_depth":false,"video_rgb":true,"video_depth":false}}
{"frame":4752,"timestamp":{"delta_seconds":0.05000000074505806,"elapsed_seconds":52.06137497536838},"control":{"throttle":0.0,"steer":0.6190000176429749,"brake":1.0,"hand_brake":false,"reverse":false,"manual_gear_shift":false,"gear":0},"transform":{"location":{"x":-64.64484405517578,"y":24.471010208129883,"z":-0.05158817023038864},"rotation":{"pitch":0.0,"yaw":0.15919795632362366,"roll":0.0}},"velocity":{"x":-1.5465002434211783e-07,"y":-2.8014852659907774e-07,"z":-0.7380887269973755},"angular_velocity":{"x":0.00017421046504750848,"y":-0.0002616486162878573,"z":3.7773872918478446e-06},"acceleration":{"x":-1.3519439789888565e-07,"y":3.859573189401999e-05,"z":26.530153274536133},"speed_mps":0.7380887269974449,"speed_kph":2.6571194171908017,"speed_limit_kph":30.0,"collisions_this_frame":[],"waypoint":{"x":-64.64469146728516,"y":24.504404067993164,"z":0.0},"lane_deviation_m":0.061453334987163544,"lane_width":3.5,"goal":{"x":22.88115692138672,"y":-60.89999771118164,"z":0.5999999642372131},"fault":{"name":"tire_pressure_imbalance","severity":1.0},"capture_flags":{"save_rgb":true,"save_depth":false,"video_rgb":true,"video_depth":false}}
{"frame":4753,"timestamp":{"delta_seconds":0.05000000074505806,"elapsed_seconds":52.11137497611344},"control":{"throttle":0.0,"steer":0.8500000238418579,"brake":1.0,"hand_brake":false,"reverse":false,"manual_gear_shift":false,"gear":0},"transform":{"location":{"x":-64.64484405517578,"y":24.471010208129883,"z":-0.06773189455270767},"rotation":{"pitch":0.0,"yaw":0.15919795632362366,"roll":0.0}},"velocity":{"x":-5.1966523528790276e-08,"y":2.0066181605216116e-08,"z":-0.1120968759059906},"angular_velocity":{"x":4.170109241385944e-05,"y":-4.761966556543484e-05,"z":-6.585032110706379e-07},"acceleration":{"x":2.0536699594231322e-06,"y":6.004293936712202e-06,"z":12.51983642578125},"speed_mps":0.11209687590600444,"speed_kph":0.403548753261616,"speed_limit_kph":30.0,"collisions_this_frame":[],"waypoint":{"x":-64.64469146728516,"y":24.504404067993164,"z":0.0},"lane_deviation_m":0.07551676779985428,"lane_width":3.5,"goal":{"x":22.88115692138672,"y":-60.89999771118164,"z":0.5999999642372131},"fault":{"name":"tire_pressure_imbalance","severity":1.0},"capture_flags":{"save_rgb":true,"save_depth":false,"video_rgb":true,"video_depth":false}}
{"frame":4754,"timestamp":{"delta_seconds":0.05000000074505806,"elapsed_seconds":52.1613749768585},"control":{"throttle":1.0,"steer":0.625,"brake":0.0,"hand_brake":false,"reverse":false,"manual_gear_shift":false,"gear":0},"transform":{"location":{"x":-64.64484405517578,"y":24.471010208129883,"z":-0.06445319950580597},"rotation":{"pitch":0.0,"yaw":0.15919795632362366,"roll":0.0}},"velocity":{"x":-1.8464060280720673e-09,"y":5.4919091496685724e-08,"z":0.15056157112121582},"angular_velocity":{"x":-5.2531588153215125e-05,"y":7.396380169666372e-06,"z":-8.611242208189651e-08},"acceleration":{"x":1.0024023140431382e-06,"y":6.970582262511016e-07,"z":5.253169059753418},"speed_mps":0.15056157112122584,"speed_kph":0.5420216560364131,"speed_limit_kph":30.0,"collisions_this_frame":[],"waypoint":{"x":-64.64469146728516,"y":24.504404067993164,"z":0.0},"lane_deviation_m":0.07259055227041245,"lane_width":3.5,"goal":{"x":22.88115692138672,"y":-60.89999771118164,"z":0.5999999642372131},"fault":{"name":"tire_pressure_imbalance","severity":1.0},"capture_flags":{"save_rgb":true,"save_depth":false,"video_rgb":true,"video_depth":false}}
{"frame":4755,"timestamp":{"delta_seconds":0.05000000074505806,"elapsed_seconds":52.211374977603555},"control":{"throttle":0.0,"steer":0.7850000262260437,"brake":1.0,"hand_brake":false,"reverse":false,"manual_gear_shift":false,"gear":0},"transform":{"location":{"x":-64.64484405517578,"y":24.471010208129883,"z":-0.05396205931901932},"rotation":{"pitch":0.0,"yaw":0.15919795632362366,"roll":0.0}},"velocity":{"x":2.211059779710922e-08,"y":8.823771935340119e-09,"z":0.23337243497371674},"angular_velocity":{"x":-4.127887586946599e-05,"y":2.113897971867118e-05,"z":4.7374598466376483e-07},"acceleration":{"x":4.791400556314329e-07,"y":-9.219064054377668e-07,"z":1.656217336654663},"speed_mps":0.23337243497371796,"speed_kph":0.8401407659053847,"speed_limit_kph":30.0,"collisions_this_frame":[],"waypoint":{"x":-64.64469146728516,"y":24.504404067993164,"z":0.0},"lane_deviation_m":0.06345925480127335,"lane_width":3.5,"goal":{"x":22.88115692138672,"y":-60.89999771118164,"z":0.5999999642372131},"fault":{"name":"tire_pressure_imbalance","severity":1.0},"capture_flags":{"save_rgb":true,"save_depth":false,"video_rgb":true,"video_depth":false}}
{"frame":4756,"timestamp":{"delta_seconds":0.05000000074505806,"elapsed_seconds":52.26137497834861},"control":{"throttle":1.0,"steer":0.7929999828338623,"brake":0.0,"hand_brake":false,"reverse":false,"manual_gear_shift":false,"gear":0},"transform":{"location":{"x":-64.64484405517578,"y":24.471010208129883,"z":-0.04207824543118477},"rotation":{"pitch":0.0,"yaw":0.15919795632362366,"roll":0.0}},"velocity":{"x":2.60526817896789e-08,"y":4.817644505550334e-09,"z":0.2337058037519455},"angular_velocity":{"x":-7.847098459023982e-06,"y":3.1777464755577967e-05,"z":-1.7530972229451436e-07},"acceleration":{"x":7.884167985139356e-08,"y":-8.012254681943887e-08,"z":0.006667375564575195},"speed_mps":0.233705803751947,"speed_kph":0.8413408935070092,"speed_limit_kph":30.0,"collisions_this_frame":[],"waypoint":{"x":-64.64469146728516,"y":24.504404067993164,"z":0.0},"lane_deviation_m":0.05371919646859169,"lane_width":3.5,"goal":{"x":22.88115692138672,"y":-60.89999771118164,"z":0.5999999642372131},"fault":{"name":"tire_pressure_imbalance","severity":1.0},"capture_flags":{"save_rgb":true,"save_depth":false,"video_rgb":true,"video_depth":false}}
{"frame":4757,"timestamp":{"delta_seconds":0.05000000074505806,"elapsed_seconds":52.31137497909367},"control":{"throttle":1.0,"steer":0.6790000200271606,"brake":0.0,"hand_brake":false,"reverse":false,"manual_gear_shift":false,"gear":0},"transform":{"location":{"x":-64.64484405517578,"y":24.471010208129883,"z":-0.03129245713353157},"rotation":{"pitch":0.0,"yaw":0.15919795632362366,"roll":0.0}},"velocity":{"x":3.7073021985634114e-08,"y":3.404293025255356e-08,"z":0.20143471658229828},"angular_velocity":{"x":-3.123892383882776e-05,"y":5.365931792766787e-05,"z":-1.788614554243395e-07},"acceleration":{"x":2.2040680391910428e-07,"y":5.84505698952853e-07,"z":-0.6454217433929443},"speed_mps":0.20143471658230458,"speed_kph":0.7251649796962965,"speed_limit_kph":30.0,"collisions_this_frame":[],"waypoint":{"x":-64.64469146728516,"y":24.504404067993164,"z":0.0},"lane_deviation_m":0.045764513313770294,"lane_width":3.5,"goal":{"x":22.88115692138672,"y":-60.89999771118164,"z":0.5999999642372131},"fault":{"name":"tire_pressure_imbalance","severity":1.0},"capture_flags":{"save_rgb":true,"save_depth":false,"video_rgb":true,"video_depth":false}}
{"frame":4758,"timestamp":{"delta_seconds":0.05000000074505806,"elapsed_seconds":52.36137497983873},"control":{"throttle":1.0,"steer":0.6660000085830688,"brake":0.0,"hand_brake":false,"reverse":false,"manual_gear_shift":false,"gear":0},"transform":{"location":{"x":-64.64484405517578,"y":24.471010208129883,"z":-0.022435493767261505},"rotation":{"pitch":0.0,"yaw":0.15919795632362366,"roll":0.0}},"velocity":{"x":-1.2466671028832366e-09,"y":1.8204231011509364e-08,"z":0.1607663482427597},"angular_velocity":{"x":-4.8347548727178946e-05,"y":-1.0816425856319256e-05,"z":2.0043701454142138e-07},"acceleration":{"x":-7.663937822144362e-07,"y":-3.167739919263113e-07,"z":-0.8133673667907715},"speed_mps":0.16076634824276073,"speed_kph":0.5787588536739386,"speed_limit_kph":30.0,"collisions_this_frame":[],"waypoint":{"x":-64.64469146728516,"y":24.504404067993164,"z":0.0},"lane_deviation_m":0.0402308888733387,"lane_width":3.5,"goal":{"x":22.88115692138672,"y":-60.89999771118164,"z":0.5999999642372131},"fault":{"name":"tire_pressure_imbalance","severity":1.0},"capture_flags":{"save_rgb":true,"save_depth":false,"video_rgb":true,"video_depth":false}}
{"frame":4759,"timestamp":{"delta_seconds":0.05000000074505806,"elapsed_seconds":52.41137498058379},"control":{"throttle":0.0,"steer":0.5950000286102295,"brake":1.0,"hand_brake":false,"reverse":false,"manual_gear_shift":false,"gear":0},"transform":{"location":{"x":-64.64484405517578,"y":24.471010208129883,"z":-0.015568007715046406},"rotation":{"pitch":0.0,"yaw":0.15919795632362366,"roll":0.0}},"velocity":{"x":-3.558032446449033e-08,"y":8.566836129375588e-08,"z":0.1224210113286972},"angular_velocity":{"x":-2.3825392418075353e-05,"y":-1.8561831893748604e-05,"z":-8.738331871427363e-07},"acceleration":{"x":-6.866731041554885e-07,"y":1.3492825701177935e-06,"z":-0.76690673828125},"speed_mps":0.12242101132873234,"speed_kph":0.44071564078343645,"speed_limit_kph":30.0,"collisions_this_frame":[],"waypoint":{"x":-64.64469146728516,"y":24.504404067993164,"z":0.0},"lane_deviation_m":0.036844756454229355,"lane_width":3.5,"goal":{"x":22.88115692138672,"y":-60.89999771118164,"z":0.5999999642372131},"fault":{"name":"tire_pressure_imbalance","severity":1.0},"capture_flags":{"save_rgb":true,"save_depth":false,"video_rgb":true,"video_depth":false}}
{"frame":4760,"timestamp":{"delta_seconds":0.05000000074505806,"elapsed_seconds":52.461374981328845},"control":{"throttle":0.0,"steer":0.7170000076293945,"brake":1.0,"hand_brake":false,"reverse":false,"manual_gear_shift":false,"gear":0},"transform":{"location":{"x":-64.64484405517578,"y":24.471010208129883,"z":-0.010438041761517525},"rotation":{"pitch":0.0,"yaw":0.15919795632362366,"roll":0.0}},"velocity":{"x":-2.1593669075059552e-08,"y":7.258893219841411e-08,"z":0.09031110256910324},"angular_velocity":{"x":-3.9710317651042715e-05,"y":-8.305215487780515e-06,"z":-7.662380312467576e-07},"acceleration":{"x":2.7973311489404296e-07,"y":-2.615885819068353e-07,"z":-0.6421982049942017},"speed_mps":0.090311102569135,"speed_kph":0.325119969248886,"speed_limit_kph":30.0,"collisions_this_frame":[],"waypoint":{"x":-64.64469146728516,"y":24.504404067993164,"z":0.0},"lane_deviation_m":0.03498750925064087,"lane_width":3.5,"goal":{"x":22.88115692138672,"y":-60.89999771118164,"z":0.5999999642372131},"fault":{"name":"tire_pressure_imbalance","severity":1.0},"capture_flags":{"save_rgb":true,"save_depth":false,"video_rgb":true,"video_depth":false}}
{"frame":4761,"timestamp":{"delta_seconds":0.05000000074505806,"elapsed_seconds":52.5113749820739},"control":{"throttle":0.0,"steer":0.7200000286102295,"brake":1.0,"hand_brake":false,"reverse":false,"manual_gear_shift":false,"gear":0},"transform":{"location":{"x":-64.64484405517578,"y":24.471010208129883,"z":-0.006705284118652344},"rotation":{"pitch":0.0,"yaw":0.15919795632362366,"roll":0.0}},"velocity":{"x":7.687083192209343e-10,"y":4.4002462118442054e-08,"z":0.06511273980140686},"angular_velocity":{"x":-4.810999598703347e-05,"y":1.1849172096844995e-06,"z":-2.159359411280093e-07},"acceleration":{"x":4.4724754388880683e-07,"y":-5.717294015994412e-07,"z":-0.50396728515625},"speed_mps":0.06511273980142174,"speed_kph":0.23440586328511825,"speed_limit_kph":30.0,"collisions_this_frame":[],"waypoint":{"x":-64.64469146728516,"y":24.504404067993164,"z":0.0},"lane_deviation_m":0.03406073898077011,"lane_width":3.5,"goal":{"x":22.88115692138672,"y":-60.89999771118164,"z":0.5999999642372131},"fault":{"name":"tire_pressure_imbalance","severity":1.0},"capture_flags":{"save_rgb":true,"save_depth":false,"video_rgb":true,"video_depth":false}}
{"frame":4762,"timestamp":{"delta_seconds":0.05000000074505806,"elapsed_seconds":52.56137498281896},"control":{"throttle":1.0,"steer":0.6620000004768372,"brake":0.0,"hand_brake":false,"reverse":false,"manual_gear_shift":false,"gear":0},"transform":{"location":{"x":-64.64484405517578,"y":24.471010208129883,"z":-0.004041633568704128},"rotation":{"pitch":0.0,"yaw":0.15919795632362366,"roll":0.0}},"velocity":{"x":-5.029942240497576e-09,"y":8.113794791597684e-08,"z":0.04613763839006424},"angular_velocity":{"x":-5.616130511043593e-05,"y":7.528217793151271e-06,"z":-6.778147394470579e-07},"acceleration":{"x":-1.1597300897392415e-07,"y":7.427097443724051e-07,"z":-0.3795020282268524},"speed_mps":0.04613763839013586,"speed_kph":0.1660954982044891,"speed_limit_kph":30.0,"collisions_this_frame":[],"waypoint":{"x":-64.64469146728516,"y":24.504404067993164,"z":0.0},"lane_deviation_m":0.033637892454862595,"lane_width":3.5,"goal":{"x":22.88115692138672,"y":-60.89999771118164,"z":0.5999999642372131},"fault":{"name":"tire_pressure_imbalance","severity":1.0},"capture_flags":{"save_rgb":true,"save_depth":false,"video_rgb":true,"video_depth":false}}
{"frame":4763,"timestamp":{"delta_seconds":0.05000000074505806,"elapsed_seconds":52.61137498356402},"control":{"throttle":0.0,"steer":0.7829999923706055,"brake":1.0,"hand_brake":false,"reverse":false,"manual_gear_shift":false,"gear":0},"transform":{"location":{"x":-64.64484405517578,"y":24.471010208129883,"z":-0.002169380197301507},"rotation":{"pitch":0.0,"yaw":0.15919795632362366,"roll":0.0}},"velocity":{"x":-4.81513762196073e-09,"y":1.617192424419045e-08,"z":0.032249677926301956},"angular_velocity":{"x":3.729386662598699e-05,"y":1.2647422408917919e-05,"z":-9.225954045177787e-07},"acceleration":{"x":4.296092370736915e-09,"y":-1.2993205018574372e-06,"z":-0.2777591943740845},"speed_mps":0.03224967792630637,"speed_kph":0.11609884053470293,"speed_limit_kph":30.0,"collisions_this_frame":[],"waypoint":{"x":-64.64469146728516,"y":24.504404067993164,"z":0.0},"lane_deviation_m":0.03346459940075874,"lane_width":3.5,"goal":{"x":22.88115692138672,"y":-60.89999771118164,"z":0.5999999642372131},"fault":{"name":"tire_pressure_imbalance","severity":1.0},"capture_flags":{"save_rgb":true,"save_depth":false,"video_rgb":true,"video_depth":false}}
{"frame":4764,"timestamp":{"delta_seconds":0.05000000074505806,"elapsed_seconds":52.66137498430908},"control":{"throttle":1.0,"steer":0.7039999961853027,"brake":0.0,"hand_brake":false,"reverse":false,"manual_gear_shift":false,"gear":0},"transform":{"location":{"x":-64.64484405517578,"y":24.471010208129883,"z":-0.0008690643007867038},"rotation":{"pitch":0.0,"yaw":0.15919795632362366,"roll":0.0}},"velocity":{"x":-1.028519314161258e-08,"y":3.1948992784691654e-08,"z":0.022295627743005753},"angular_velocity":{"x":-2.5672146875876933e-05,"y":-7.1679955908621196e-06,"z":-1.7263084828300634e-07},"acceleration":{"x":-1.094011139457507e-07,"y":3.155413708100241e-07,"z":-0.19908100366592407},"speed_mps":0.022295627743031014,"speed_kph":0.08026425987491165,"speed_limit_kph":30.0,"collisions_this_frame":[],"waypoint":{"x":-64.64469146728516,"y":24.504404067993164,"z":0.0},"lane_deviation_m":0.03340551629662514,"lane_width":3.5,"goal":{"x":22.88115692138672,"y":-60.89999771118164,"z":0.5999999642372131},"fault":{"name":"tire_pressure_imbalance","severity":1.0},"capture_flags":{"save_rgb":true,"save_depth":false,"video_rgb":true,"video_depth":false}}
{"frame":4765,"timestamp":{"delta_seconds":0.05000000074505806,"elapsed_seconds":52.711374985054135},"control":{"throttle":0.0,"steer":0.675000011920929,"brake":1.0,"hand_brake":false,"reverse":false,"manual_gear_shift":false,"gear":0},"transform":{"location":{"x":-64.64484405517578,"y":24.471010208129883,"z":2.5100707716774195e-05},"rotation":{"pitch":0.0,"yaw":0.15919795632362366,"roll":0.0}},"velocity":{"x":-5.221100884966745e-09,"y":-1.470755184307393e-10,"z":0.015275267884135246},"angular_velocity":{"x":6.160114480735501e-06,"y":-4.753142547997413e-06,"z":-2.442821056547473e-08},"acceleration":{"x":1.0128184158020304e-07,"y":-6.419213605113328e-07,"z":-0.14040720462799072},"speed_mps":0.01527526788413614,"speed_kph":0.054990964382890105,"speed_limit_kph":30.0,"collisions_this_frame":[],"waypoint":{"x":-64.64469146728516,"y":24.504404067993164,"z":0.0},"lane_deviation_m":0.0333942174911499,"lane_width":3.5,"goal":{"x":22.88115692138672,"y":-60.89999771118164,"z":0.5999999642372131},"fault":{"name":"tire_pressure_imbalance","severity":1.0},"capture_flags":{"save_rgb":true,"save_depth":false,"video_rgb":true,"video_depth":false}}
{"frame":4766,"timestamp":{"delta_seconds":0.05000000074505806,"elapsed_seconds":52.76137498579919},"control":{"throttle":0.0,"steer":0.6669999957084656,"brake":1.0,"hand_brake":false,"reverse":false,"manual_gear_shift":false,"gear":0},"transform":{"location":{"x":-64.64484405517578,"y":24.471010208129883,"z":0.0006349944742396474},"rotation":{"pitch":0.0,"yaw":0.15919795632362366,"roll":0.0}},"velocity":{"x":-7.759201281487549e-09,"y":3.6047218543444615e-08,"z":0.010385379195213318},"angular_velocity":{"x":-3.005841062986292e-05,"y":-3.0823723591311136e-06,"z":-1.2993912434922095e-07},"acceleration":{"x":-5.0762007930416075e-08,"y":7.23885875686392e-07,"z":-0.09779777377843857},"speed_mps":0.010385379195278776,"speed_kph":0.0373873651030036,"speed_limit_kph":30.0,"collisions_this_frame":[],"waypoint":{"x":-64.64469146728516,"y":24.504404067993164,"z":0.0},"lane_deviation_m":0.033400245010852814,"lane_width":3.5,"goal":{"x":22.88115692138672,"y":-60.89999771118164,"z":0.5999999642372131},"fault":{"name":"tire_pressure_imbalance","severity":1.0},"capture_flags":{"save_rgb":true,"save_depth":false,"video_rgb":true,"video_depth":false}}
{"frame":4767,"timestamp":{"delta_seconds":0.05000000074505806,"elapsed_seconds":52.81137498654425},"control":{"throttle":0.0,"steer":0.675000011920929,"brake":1.0,"hand_brake":false,"reverse":false,"manual_gear_shift":false,"gear":0},"transform":{"location":{"x":-64.64484405517578,"y":24.471010208129883,"z":0.0010480880737304688},"rotation":{"pitch":0.0,"yaw":0.15919795632362366,"roll":0.0}},"velocity":{"x":9.033605863351113e-09,"y":-1.9173780785308736e-08,"z":0.007017068564891815},"angular_velocity":{"x":4.4488708226708695e-05,"y":1.839132164604962e-05,"z":-2.6200143565802136e-07},"acceleration":{"x":3.3585615710762795e-07,"y":-1.1044199936804944e-06,"z":-0.06736621260643005},"speed_mps":0.007017068564923826,"speed_kph":0.025261446833725776,"speed_limit_kph":30.0,"collisions_this_frame":[],"waypoint":{"x":-64.64469146728516,"y":24.504404067993164,"z":0.0},"lane_deviation_m":0.03341064974665642,"lane_width":3.5,"goal":{"x":22.88115692138672,"y":-60.89999771118164,"z":0.5999999642372131},"fault":{"name":"tire_pressure_imbalance","severity":1.0},"capture_flags":{"save_rgb":true,"save_depth":false,"video_rgb":true,"video_depth":false}}
{"frame":4768,"timestamp":{"delta_seconds":0.05000000074505806,"elapsed_seconds":52.86137498728931},"control":{"throttle":1.0,"steer":0.6119999885559082,"brake":0.0,"hand_brake":false,"reverse":false,"manual_gear_shift":false,"gear":0},"transform":{"location":{"x":-64.64484405517578,"y":24.471010208129883,"z":0.0013262939173728228},"rotation":{"pitch":0.0,"yaw":0.15919795632362366,"roll":0.0}},"velocity":{"x":6.552995479580659e-09,"y":-1.8633199871942452e-08,"z":0.004713020287454128},"angular_velocity":{"x":-1.3919363482273184e-05,"y":-9.281532697968942e-07,"z":5.191350851418974e-07},"acceleration":{"x":-4.961220767540908e-08,"y":1.0811618267325684e-08,"z":-0.04608096554875374},"speed_mps":0.004713020287495518,"speed_kph":0.016966873034983863,"speed_limit_kph":30.0,"collisions_this_frame":[],"waypoint":{"x":-64.64469146728516,"y":24.504404067993164,"z":0.0},"lane_deviation_m":0.03342053294181824,"lane_width":3.5,"goal":{"x":22.88115692138672,"y":-60.89999771118164,"z":0.5999999642372131},"fault":{"name":"tire_pressure_imbalance","severity":1.0},"capture_flags":{"save_rgb":true,"save_depth":false,"video_rgb":true,"video_depth":false}}
{"frame":4769,"timestamp":{"delta_seconds":0.05000000074505806,"elapsed_seconds":52.91137498803437},"control":{"throttle":1.0,"steer":0.6330000162124634,"brake":0.0,"hand_brake":false,"reverse":false,"manual_gear_shift":false,"gear":0},"transform":{"location":{"x":-64.64484405517578,"y":24.471010208129883,"z":0.0015126037178561091},"rotation":{"pitch":0.0,"yaw":0.15919795632362366,"roll":0.0}},"velocity":{"x":-3.001529025326022e-09,"y":3.2658409310215575e-08,"z":0.0031504917424172163},"angular_velocity":{"x":-2.5799108698265627e-05,"y":1.2996073337490088e-06,"z":-2.2485187400889117e-07},"acceleration":{"x":-1.9109049276266887e-07,"y":1.0258321481160237e-06,"z":-0.031250569969415665},"speed_mps":0.003150491742587917,"speed_kph":0.0113417702733165,"speed_limit_kph":30.0,"collisions_this_frame":[],"waypoint":{"x":-64.64469146728516,"y":24.504404067993164,"z":0.0},"lane_deviation_m":0.03342844918370247,"lane_width":3.5,"goal":{"x":22.88115692138672,"y":-60.89999771118164,"z":0.5999999642372131},"fault":{"name":"tire_pressure_imbalance","severity":1.0},"capture_flags":{"save_rgb":true,"save_depth":false,"video_rgb":true,"video_depth":false}}
{"frame":4770,"timestamp":{"delta_seconds":0.05000000074505806,"elapsed_seconds":52.961374988779426},"control":{"throttle":0.0,"steer":0.6650000214576721,"brake":1.0,"hand_brake":false,"reverse":false,"manual_gear_shift":false,"gear":0},"transform":{"location":{"x":-64.64484405517578,"y":24.471010208129883,"z":0.0015981292817741632},"rotation":{"pitch":0.0,"yaw":0.15919795632362366,"roll":0.0}},"velocity":{"x":4.650139384665408e-09,"y":-3.706426099370219e-08,"z":0.0005038547678850591},"angular_velocity":{"x":2.9741066100541502e-05,"y":2.931096787506249e-07,"z":2.534275438392797e-07},"acceleration":{"x":1.5303336908800702e-07,"y":-1.39445342028921e-06,"z":-0.0529327392578125},"speed_mps":0.0005038547692697669,"speed_kph":0.001813877169371161,"speed_limit_kph":30.0,"collisions_this_frame":[],"waypoint":{"x":-64.64469146728516,"y":24.504404067993164,"z":0.0},"lane_deviation_m":0.033432427793741226,"lane_width":3.5,"goal":{"x":22.88115692138672,"y":-60.89999771118164,"z":0.5999999642372131},"fault":{"name":"tire_pressure_imbalance","severity":1.0},"capture_flags":{"save_rgb":true,"save_depth":false,"video_rgb":true,"video_depth":false}}
{"frame":4771,"timestamp":{"delta_seconds":0.05000000074505806,"elapsed_seconds":53.011374989524484},"control":{"throttle":1.0,"steer":0.6119999885559082,"brake":0.0,"hand_brake":false,"reverse":false,"manual_gear_shift":false,"gear":0},"transform":{"location":{"x":-64.64484405517578,"y":24.471010208129883,"z":0.0016386413481086493},"rotation":{"pitch":0.0,"yaw":0.15919795632362366,"roll":0.0}},"velocity":{"x":-1.763503476581718e-08,"y":5.0766306713967424e-08,"z":0.0009395122178830206},"angular_velocity":{"x":-4.9411992222303525e-05,"y":-1.9687646272359416e-05,"z":-3.582285046377365e-08},"acceleration":{"x":-4.457035061022907e-07,"y":1.7566114820510847e-06,"z":0.008713148534297943},"speed_mps":0.0009395122194201014,"speed_kph":0.0033822439899123652,"speed_limit_kph":30.0,"collisions_this_frame":[],"waypoint":{"x":-64.64469146728516,"y":24.504404067993164,"z":0.0},"lane_deviation_m":0.03343438729643822,"lane_width":3.5,"goal":{"x":22.88115692138672,"y":-60.89999771118164,"z":0.5999999642372131},"fault":{"name":"tire_pressure_imbalance","severity":1.0},"capture_flags":{"save_rgb":true,"save_depth":false,"video_rgb":true,"video_depth":false}}
{"frame":4772,"timestamp":{"delta_seconds":0.05000000074505806,"elapsed_seconds":53.06137499026954},"control":{"throttle":0.0,"steer":0.8410000205039978,"brake":1.0,"hand_brake":false,"reverse":false,"manual_gear_shift":false,"gear":0},"transform":{"location":{"x":-64.64484405517578,"y":24.471010208129883,"z":0.0016878509195521474},"rotation":{"pitch":0.0,"yaw":0.15919795632362366,"roll":0.0}},"velocity":{"x":-2.345660732316901e-08,"y":6.522684259380185e-08,"z":0.0009802436688914895},"angular_velocity":{"x":-5.238466474111192e-05,"y":-1.9549466742319055e-05,"z":1.0085565271822361e-08},"acceleration":{"x":-1.1643145114703657e-07,"y":2.892107318075432e-07,"z":0.0008146290201693773},"speed_mps":0.000980243671342285,"speed_kph":0.003528877216832226,"speed_limit_kph":30.0,"collisions_this_frame":[],"waypoint":{"x":-64.64469146728516,"y":24.504404067993164,"z":0.0},"lane_deviation_m":0.03343683481216431,"lane_width":3.5,"goal":{"x":22.88115692138672,"y":-60.89999771118164,"z":0.5999999642372131},"fault":{"name":"tire_pressure_imbalance","severity":1.0},"capture_flags":{"save_rgb":true,"save_depth":false,"video_rgb":true,"video_depth":false}}
{"frame":4773,"timestamp":{"delta_seconds":0.05000000074505806,"elapsed_seconds":53.1113749910146},"control":{"throttle":0.0,"steer":0.6830000281333923,"brake":1.0,"hand_brake":false,"reverse":false,"manual_gear_shift":false,"gear":0},"transform":{"location":{"x":-64.64484405517578,"y":24.471010208129883,"z":0.0017336654709652066},"rotation":{"pitch":0.0,"yaw":0.15919795632362366,"roll":0.0}},"velocity":{"x":1.8176919525103585e-08,"y":-5.448972828503429e-08,"z":0.00086040492169559},"angular_velocity":{"x":6.81008750689216e-05,"y":2.3977172531886026e-05,"z":2.613389149530576e-08},"acceleration":{"x":8.326705369654519e-07,"y":-2.3943314317875775e-06,"z":-0.0023967749439179897},"speed_mps":0.0008604049236130191,"speed_kph":0.003097457725006869,"speed_limit_kph":30.0,"collisions_this_frame":[],"waypoint":{"x":-64.64469146728516,"y":24.504404067993164,"z":0.0},"lane_deviation_m":0.03343917801976204,"lane_width":3.5,"goal":{"x":22.88115692138672,"y":-60.89999771118164,"z":0.5999999642372131},"fault":{"name":"tire_pressure_imbalance","severity":1.0},"capture_flags":{"save_rgb":true,"save_depth":false,"video_rgb":true,"video_depth":false}}
{"frame":4774,"timestamp":{"delta_seconds":0.05000000074505806,"elapsed_seconds":53.16137499175966},"control":{"throttle":1.0,"steer":0.7170000076293945,"brake":0.0,"hand_brake":false,"reverse":false,"manual_gear_shift":false,"gear":0},"transform":{"location":{"x":-64.64484405517578,"y":24.471010208129883,"z":0.0017717742593958974},"rotation":{"pitch":0.0,"yaw":0.15919795632362366,"roll":0.0}},"velocity":{"x":2.385445452279811e-10,"y":4.879045611971833e-09,"z":0.0006940173916518688},"angular_velocity":{"x":1.0231266060145572e-05,"y":5.672318366123363e-06,"z":-2.9466482587281462e-08},"acceleration":{"x":-3.5876749393537466e-07,"y":1.187375460176554e-06,"z":-0.003327750600874424},"speed_mps":0.00069401739166906,"speed_kph":0.002498462610008616,"speed_limit_kph":30.0,"collisions_this_frame":[],"waypoint":{"x":-64.64469146728516,"y":24.504404067993164,"z":0.0},"lane_deviation_m":0.033441174775362015,"lane_width":3.5,"goal":{"x":22.88115692138672,"y":-60.89999771118164,"z":0.5999999642372131},"fault":{"name":"tire_pressure_imbalance","severity":1.0},"capture_flags":{"save_rgb":true,"save_depth":false,"video_rgb":true,"video_depth":false}}
{"frame":4775,"timestamp":{"delta_seconds":0.05000000074505806,"elapsed_seconds":53.211374992504716},"control":{"throttle":1.0,"steer":0.6460000276565552,"brake":0.0,"hand_brake":false,"reverse":false,"manual_gear_shift":false,"gear":0},"transform":{"location":{"x":-64.64484405517578,"y":24.471010208129883,"z":0.0018015288515016437},"rotation":{"pitch":0.0,"yaw":0.15919795632362366,"roll":0.0}},"velocity":{"x":6.0225868736552e-09,"y":-1.1696979385078521e-08,"z":0.000532445905264467},"angular_velocity":{"x":7.95759569882648e-06,"y":6.495388333860319e-06,"z":6.04404775117473e-08},"acceleration":{"x":1.1568084090640696e-07,"y":-3.315204821774387e-07,"z":-0.0032314297277480364},"speed_mps":0.0005324459054270102,"speed_kph":0.0019168052595372367,"speed_limit_kph":30.0,"collisions_this_frame":[],"waypoint":{"x":-64.64469146728516,"y":24.504404067993164,"z":0.0},"lane_deviation_m":0.03344276547431946,"lane_width":3.5,"goal":{"x":22.88115692138672,"y":-60.89999771118164,"z":0.5999999642372131},"fault":{"name":"tire_pressure_imbalance","severity":1.0},"capture_flags":{"save_rgb":true,"save_depth":false,"video_rgb":true,"video_depth":false}}
{"frame":4776,"timestamp":{"delta_seconds":0.05000000074505806,"elapsed_seconds":53.261374993249774},"control":{"throttle":1.0,"steer":0.7200000286102295,"brake":0.0,"hand_brake":false,"reverse":false,"manual_gear_shift":false,"gear":0},"transform":{"location":{"x":-64.64484405517578,"y":24.471010208129883,"z":0.001823921105824411},"rotation":{"pitch":0.0,"yaw":0.15919795632362366,"roll":0.0}},"velocity":{"x":9.696226044297873e-10,"y":1.960746764950727e-08,"z":0.0003939247108064592},"angular_velocity":{"x":-1.0546474186412524e-05,"y":6.70667895974475e-06,"z":-1.1839442315420001e-08},"acceleration":{"x":-1.0105928538450826e-07,"y":6.260888767428696e-07,"z":-0.0027704238891601562},"speed_mps":0.00039392471129563,"speed_kph":0.001418128960664268,"speed_limit_kph":30.0,"collisions_this_frame":[],"waypoint":{"x":-64.64469146728516,"y":24.504404067993164,"z":0.0},"lane_deviation_m":0.03344397991895676,"lane_width":3.5,"goal":{"x":22.88115692138672,"y":-60.89999771118164,"z":0.5999999642372131},"fault":{"name":"tire_pressure_imbalance","severity":1.0},"capture_flags":{"save_rgb":true,"save_depth":false,"video_rgb":true,"video_depth":false}}
{"frame":4777,"timestamp":{"delta_seconds":0.05000000074505806,"elapsed_seconds":53.31137499399483},"control":{"throttle":1.0,"steer":0.6940000057220459,"brake":0.0,"hand_brake":false,"reverse":false,"manual_gear_shift":false,"gear":0},"transform":{"location":{"x":-64.63935852050781,"y":24.472925186157227,"z":0.0017995834350585938},"rotation":{"pitch":0.007007773499935865,"yaw":0.2624061703681946,"roll":-0.013122559525072575}},"velocity":{"x":0.3082370162010193,"y":0.14029787480831146,"z":0.0002868652227334678},"angular_velocity":{"x":0.6738501787185669,"y":-0.3530042767524719,"z":5.844784736633301},"acceleration":{"x":6.164740562438965,"y":2.805957317352295,"z":-0.0021411897614598274},"speed_mps":0.3386644860682798,"speed_kph":1.2191921498458074,"speed_limit_kph":30.0,"collisions_this_frame":[],"waypoint":{"x":-64.63922119140625,"y":24.504419326782227,"z":0.0},"lane_deviation_m":0.031545814126729965,"lane_width":3.5,"goal":{"x":22.88115692138672,"y":-60.89999771118164,"z":0.5999999642372131},"fault":{"name":"tire_pressure_imbalance","severity":1.0},"capture_flags":{"save_rgb":true,"save_depth":false,"video_rgb":true,"video_depth":false}}
{"frame":4778,"timestamp":{"delta_seconds":0.05000000074505806,"elapsed_seconds":53.36137499473989},"control":{"throttle":1.0,"steer":0.656000018119812,"brake":0.0,"hand_brake":false,"reverse":false,"manual_gear_shift":false,"gear":0},"transform":{"location":{"x":-64.59974670410156,"y":24.486242294311523,"z":0.0016329573700204492},"rotation":{"pitch":0.037429433315992355,"yaw":0.8801128268241882,"roll":-0.056365951895713806}},"velocity":{"x":1.057999610900879,"y":0.449929803609848,"z":0.00020051955652888864},"angular_velocity":{"x":0.9056650996208191,"y":-0.6386860013008118,"z":15.64246940612793},"acceleration":{"x":14.995251655578613,"y":6.192638874053955,"z":-0.0017269132658839226},"speed_mps":1.1496956314829156,"speed_kph":4.138904273338497,"speed_limit_kph":30.0,"collisions_this_frame":[],"waypoint":{"x":-64.59972381591797,"y":24.504528045654297,"z":0.0},"lane_deviation_m":0.018358534201979637,"lane_width":3.5,"goal":{"x":22.88115692138672,"y":-60.89999771118164,"z":0.5999999642372131},"fault":{"name":"tire_pressure_imbalance","severity":1.0},"capture_flags":{"save_rgb":true,"save_depth":false,"video_rgb":true,"video_depth":false}}
{"frame":4779,"timestamp":{"delta_seconds":0.05000000074505806,"elapsed_seconds":53.41137499548495},"control":{"throttle":1.0,"steer":1.0,"brake":0.0,"hand_brake":false,"reverse":false,"manual_gear_shift":false,"gear":0},"transform":{"location":{"x":-64.53207397460938,"y":24.512374877929688,"z":0.0014914321945980191},"rotation":{"pitch":0.06302215158939362,"yaw":1.9660935401916504,"roll":-0.1000366136431694}},"velocity":{"x":1.5329525470733643,"y":0.788473904132843,"z":0.00013231276534497738},"angular_velocity":{"x":0.8785520792007446,"y":-0.38918158411979675,"z":26.064332962036133},"acceleration":{"x":9.499058723449707,"y":6.7708821296691895,"z":-0.0013641358818858862},"speed_mps":1.723842981998033,"speed_kph":6.205834735192919,"speed_limit_kph":30.0,"collisions_this_frame":[],"waypoint":{"x":-64.53205108642578,"y":24.504718780517578,"z":0.0},"lane_deviation_m":0.007800046354532242,"lane_width":3.5,"goal":{"x":22.88115692138672,"y":-60.89999771118164,"z":0.5999999642372131},"fault":{"name":"tire_pressure_imbalance","severity":1.0},"capture_flags":{"save_rgb":true,"save_depth":false,"video_rgb":true,"video_depth":false}}
{"frame":4780,"timestamp":{"delta_seconds":0.05000000074505806,"elapsed_seconds":53.461374996230006},"control":{"throttle":1.0,"steer":0.859000027179718,"brake":0.0,"hand_brake":false,"reverse":false,"manual_gear_shift":false,"gear":0},"transform":{"location":{"x":-64.44466400146484,"y":24.55415153503418,"z":0.0014179610880091786},"rotation":{"pitch":0.07653909921646118,"yaw":3.6069250106811523,"roll":-0.142669677734375}},"velocity":{"x":1.8575271368026733,"y":1.1695911884307861,"z":8.481025724904612e-05},"angular_velocity":{"x":0.7682387828826904,"y":-0.1363547444343567,"z":36.88642883300781},"acceleration":{"x":6.491491794586182,"y":7.622345924377441,"z":-0.0009500501910224557},"speed_mps":2.195074171686701,"speed_kph":7.9022670180721235,"speed_limit_kph":30.0,"collisions_this_frame":[],"waypoint":{"x":-64.44452667236328,"y":24.504961013793945,"z":0.0},"lane_deviation_m":0.04921114817261696,"lane_width":3.5,"goal":{"x":22.88115692138672,"y":-60.89999771118164,"z":0.5999999642372131},"fault":{"name":"tire_pressure_imbalance","severity":1.0},"capture_flags":{"save_rgb":true,"save_depth":false,"video_rgb":true,"video_depth":false}}
{"frame":4781,"timestamp":{"delta_seconds":0.05000000074505806,"elapsed_seconds":53.511374996975064},"control":{"throttle":1.0,"steer":0.4090000092983246,"brake":0.0,"hand_brake":false,"reverse":false,"manual_gear_shift":false,"gear":0},"transform":{"location":{"x":-64.33731842041016,"y":24.60719871520996,"z":0.0013648986350744963},"rotation":{"pitch":0.08619014918804169,"yaw":5.477307319641113,"roll":-0.14935302734375}},"velocity":{"x":2.3370871543884277,"y":1.3090630769729614,"z":5.859374869032763e-05},"angular_velocity":{"x":-0.30559930205345154,"y":-0.24299027025699615,"z":36.12148666381836},"acceleration":{"x":9.59119987487793,"y":2.789437770843506,"z":-0.000524330185726285},"speed_mps":2.678735244501506,"speed_kph":9.64344688020542,"speed_limit_kph":30.0,"collisions_this_frame":[],"waypoint":{"x":-64.3370361328125,"y":24.505260467529297,"z":0.0},"lane_deviation_m":0.10194777697324753,"lane_width":3.5,"goal":{"x":22.88115692138672,"y":-60.89999771118164,"z":0.5999999642372131},"fault":{"name":"tire_pressure_imbalance","severity":1.0},"capture_flags":{"save_rgb":true,"save_depth":false,"video_rgb":true,"video_depth":false}}
{"frame":4782,"timestamp":{"delta_seconds":0.05000000074505806,"elapsed_seconds":53.56137499772012},"control":{"throttle":1.0,"steer":0.6069999933242798,"brake":0.0,"hand_brake":false,"reverse":false,"manual_gear_shift":false,"gear":0},"transform":{"location":{"x":-64.20610809326172,"y":24.665788650512695,"z":0.0013215255457907915},"rotation":{"pitch":0.09398339688777924,"yaw":7.313388824462891,"roll":-0.1336059421300888}},"velocity":{"x":2.750474691390991,"y":1.4608010053634644,"z":4.465103120310232e-05},"angular_velocity":{"x":-0.1765231341123581,"y":-0.12443958222866058,"z":37.908634185791016},"acceleration":{"x":8.26775074005127,"y":3.0347585678100586,"z":-0.00027885433519259095},"speed_mps":3.11432988092896,"speed_kph":11.211587571344257,"speed_limit_kph":30.0,"collisions_this_frame":[],"waypoint":{"x":-64.2056655883789,"y":24.505624771118164,"z":0.0},"lane_deviation_m":0.16016994416713715,"lane_width":3.5,"goal":{"x":22.88115692138672,"y":-60.89999771118164,"z":0.5999999642372131},"fault":{"name":"tire_pressure_imbalance","severity":1.0},"capture_flags":{"save_rgb":true,"save_depth":false,"video_rgb":true,"video_depth":false}}
{"frame":4783,"timestamp":{"delta_seconds":0.05000000074505806,"elapsed_seconds":53.61137499846518},"control":{"throttle":1.0,"steer":0.7250000238418579,"brake":0.0,"hand_brake":false,"reverse":false,"manual_gear_shift":false,"gear":0},"transform":{"location":{"x":-64.06031799316406,"y":24.736101150512695,"z":0.001328163081780076},"rotation":{"pitch":0.09317060559988022,"yaw":9.45337963104248,"roll":-0.14508056640625}},"velocity":{"x":2.9428012371063232,"y":1.8001599311828613,"z":2.86102294921875e-05},"angular_velocity":{"x":0.44768738746643066,"y":0.15896767377853394,"z":46.54397964477539},"acceleration":{"x":3.8465309143066406,"y":6.7871785163879395,"z":-0.0003208160342182964},"speed_mps":3.449732583805495,"speed_kph":12.419037301699783,"speed_limit_kph":30.0,"collisions_this_frame":[],"waypoint":{"x":-64.05967712402344,"y":24.506031036376953,"z":0.0},"lane_deviation_m":0.23007483780384064,"lane_width":3.5,"goal":{"x":22.88115692138672,"y":-60.89999771118164,"z":0.5999999642372131},"fault":{"name":"tire_pressure_imbalance","severity":1.0},"capture_flags":{"save_rgb":true,"save_depth":false,"video_rgb":true,"video_depth":false}}
{"frame":4784,"timestamp":{"delta_seconds":0.05000000074505806,"elapsed_seconds":53.66137499921024},"control":{"throttle":1.0,"steer":0.3930000066757202,"brake":0.0,"hand_brake":false,"reverse":false,"manual_gear_shift":false,"gear":0},"transform":{"location":{"x":-63.900047302246094,"y":24.81841468811035,"z":0.0013341521844267845},"rotation":{"pitch":0.09233049303293228,"yaw":11.713762283325195,"roll":-0.1418761909008026}},"velocity":{"x":3.3364601135253906,"y":1.9312231540679932,"z":1.9989012798760086e-05},"angular_velocity":{"x":-0.49974313378334045,"y":-0.13951663672924042,"z":42.25820541381836},"acceleration":{"x":7.873177528381348,"y":2.6212644577026367,"z":-0.00017242433386854827},"speed_mps":3.8550731459148415,"speed_kph":13.87826332529343,"speed_limit_kph":30.0,"collisions_this_frame":[],"waypoint":{"x":-63.8991813659668,"y":24.50647735595703,"z":0.0},"lane_deviation_m":0.31194138526916504,"lane_width":3.5,"goal":{"x":22.88115692138672,"y":-60.89999771118164,"z":0.5999999642372131},"fault":{"name":"tire_pressure_imbalance","severity":1.0},"capture_flags":{"save_rgb":true,"save_depth":false,"video_rgb":true,"video_depth":false}}
{"frame":4785,"timestamp":{"delta_seconds":0.05000000074505806,"elapsed_seconds":53.7113749999553},"control":{"throttle":1.0,"steer":0.8130000233650208,"brake":0.0,"hand_brake":false,"reverse":false,"manual_gear_shift":false,"gear":0},"transform":{"location":{"x":-63.72208023071289,"y":24.909278869628906,"z":0.0013400268508121371},"rotation":{"pitch":0.09149721264839172,"yaw":13.90242862701416,"roll":-0.134735107421875}},"velocity":{"x":3.5740694999694824,"y":2.1994876861572266,"z":1.8606186131364666e-05},"angular_velocity":{"x":0.19077850878238678,"y":0.1184975877404213,"z":46.55223083496094},"acceleration":{"x":4.752187728881836,"y":5.365290641784668,"z":-2.7656533347908407e-05},"speed_mps":4.196631848579949,"speed_kph":15.107874654887818,"speed_limit_kph":30.0,"collisions_this_frame":[],"waypoint":{"x":-63.72096252441406,"y":24.50697135925293,"z":0.0},"lane_deviation_m":0.4023112952709198,"lane_width":3.5,"goal":{"x":22.88115692138672,"y":-60.89999771118164,"z":0.5999999642372131},"fault":{"name":"tire_pressure_imbalance","severity":1.0},"capture_flags":{"save_rgb":true,"save_depth":false,"video_rgb":true,"video_depth":false}}
{"frame":4786,"timestamp":{"delta_seconds":0.05000000074505806,"elapsed_seconds":53.761375000700355},"control":{"throttle":1.0,"steer":0.3230000138282776,"brake":0.0,"hand_brake":false,"reverse":false,"manual_gear_shift":false,"gear":0},"transform":{"location":{"x":-63.529476165771484,"y":25.011249542236328,"z":0.0013443755451589823},"rotation":{"pitch":0.09080736339092255,"yaw":16.086408615112305,"roll":-0.1218871995806694}},"velocity":{"x":3.960886240005493,"y":2.3001761436462402,"z":1.3847350601281505e-05},"angular_velocity":{"x":-0.6500167846679688,"y":-0.21424181759357452,"z":39.59912109375},"acceleration":{"x":7.736334800720215,"y":2.0137691497802734,"z":-9.517671423964202e-05},"speed_mps":4.580330784807566,"speed_kph":16.489190825307237,"speed_limit_kph":30.0,"collisions_this_frame":[],"waypoint":{"x":-63.528076171875,"y":24.50750732421875,"z":0.0},"lane_deviation_m":0.503745973110199,"lane_width":3.5,"goal":{"x":22.88115692138672,"y":-60.89999771118164,"z":0.5999999642372131},"fault":{"name":"tire_pressure_imbalance","severity":1.0},"capture_flags":{"save_rgb":true,"save_depth":false,"video_rgb":true,"video_depth":false}}
{"frame":4787,"timestamp":{"delta_seconds":0.05000000074505806,"elapsed_seconds":53.81137500144541},"control":{"throttle":1.0,"steer":-0.10899999737739563,"brake":0.0,"hand_brake":false,"reverse":false,"manual_gear_shift":false,"gear":0},"transform":{"location":{"x":-63.31391906738281,"y":25.112873077392578,"z":0.0013315582182258368},"rotation":{"pitch":0.09302717447280884,"yaw":17.580453872680664,"roll":-0.05899045988917351}},"velocity":{"x":4.458046913146973,"y":2.1169188022613525,"z":1.6727446563891135e-05},"angular_velocity":{"x":-1.4754116535186768,"y":-0.504894495010376,"z":22.60265350341797},"acceleration":{"x":9.94321346282959,"y":-3.665146827697754,"z":5.76019192521926e-05},"speed_mps":4.935131963328509,"speed_kph":17.766475067982633,"speed_limit_kph":30.0,"collisions_this_frame":[],"waypoint":{"x":-63.31224060058594,"y":24.508108139038086,"z":0.0},"lane_deviation_m":0.6047687530517578,"lane_width":3.5,"goal":{"x":22.88115692138672,"y":-60.89999771118164,"z":0.5999999642372131},"fault":{"name":"tire_pressure_imbalance","severity":1.0},"capture_flags":{"save_rgb":true,"save_depth":false,"video_rgb":true,"video_depth":false}}
{"frame":4788,"timestamp":{"delta_seconds":0.05000000074505806,"elapsed_seconds":53.86137500219047},"control":{"throttle":1.0,"steer":-0.057999998331069946,"brake":0.0,"hand_brake":false,"reverse":false,"manual_gear_shift":false,"gear":0},"transform":{"location":{"x":-63.07551193237305,"y":25.204626083374023,"z":0.00150890345685184},"rotation":{"pitch":0.092972531914711,"yaw":18.093008041381836,"roll":0.040327951312065125}},"velocity":{"x":4.928806781768799,"y":1.7696305513381958,"z":0.0047646332532167435},"angular_velocity":{"x":-1.7998154163360596,"y":-0.5621122717857361,"z":2.7662298679351807},"acceleration":{"x":9.415197372436523,"y":-6.945765018463135,"z":0.0949581116437912},"speed_mps":5.236864642318881,"speed_kph":18.852712712347973,"speed_limit_kph":30.0,"collisions_this_frame":[],"waypoint":{"x":-63.073577880859375,"y":24.508771896362305,"z":0.0},"lane_deviation_m":0.6958585381507874,"lane_width":3.5,"goal":{"x":22.88115692138672,"y":-60.89999771118164,"z":0.5999999642372131},"fault":{"name":"tire_pressure_imbalance","severity":1.0},"capture_flags":{"save_rgb":true,"save_depth":false,"video_rgb":true,"video_depth":false}}
{"frame":4789,"timestamp":{"delta_seconds":0.05000000074505806,"elapsed_seconds":53.91137500293553},"control":{"throttle":1.0,"steer":-1.0,"brake":0.0,"hand_brake":false,"reverse":false,"manual_gear_shift":false,"gear":0},"transform":{"location":{"x":-62.81700134277344,"y":25.28496742248535,"z":0.0016502761282026768},"rotation":{"pitch":0.09041804075241089,"yaw":17.771501541137695,"roll":0.11401999741792679}},"velocity":{"x":5.3398027420043945,"y":1.4511795043945312,"z":0.0013890551635995507},"angular_velocity":{"x":-1.244922161102295,"y":-0.3297892212867737,"z":-12.525076866149902},"acceleration":{"x":8.219919204711914,"y":-6.369020938873291,"z":-0.06751156598329544},"speed_mps":5.533481472542097,"speed_kph":19.92053330115155,"speed_limit_kph":30.0,"collisions_this_frame":[],"waypoint":{"x":-62.81484603881836,"y":24.509489059448242,"z":0.0},"lane_deviation_m":0.7754831314086914,"lane_width":3.5,"goal":{"x":22.88115692138672,"y":-60.89999771118164,"z":0.5999999642372131},"fault":{"name":"tire_pressure_imbalance","severity":1.0},"capture_flags":{"save_rgb":true,"save_depth":false,"video_rgb":true,"video_depth":false}}
{"frame":4790,"timestamp":{"delta_seconds":0.05000000074505806,"elapsed_seconds":53.96137500368059},"control":{"throttle":1.0,"steer":-1.0,"brake":0.0,"hand_brake":false,"reverse":false,"manual_gear_shift":false,"gear":0},"transform":{"location":{"x":-62.5446891784668,"y":25.351877212524414,"z":0.0017293548444285989},"rotation":{"pitch":0.080896757543087,"yaw":16.7514591217041,"roll":0.1661926954984665}},"velocity":{"x":5.534210205078125,"y":1.0870696306228638,"z":-1.3160705520931515e-06},"angular_velocity":{"x":-0.8661542534828186,"y":0.0320560447871685,"z":-25.320192337036133},"acceleration":{"x":3.8881492614746094,"y":-7.28219747543335,"z":-0.02780742570757866},"speed_mps":5.639964802710662,"speed_kph":20.303873289758386,"speed_limit_kph":30.0,"collisions_this_frame":[],"waypoint":{"x":-62.54235076904297,"y":24.51024627685547,"z":0.0},"lane_deviation_m":0.8416359424591064,"lane_width":3.5,"goal":{"x":22.88115692138672,"y":-60.89999771118164,"z":0.5999999642372131},"fault":{"name":"tire_pressure_imbalance","severity":1.0},"capture_flags":{"save_rgb":true,"save_depth":false,"video_rgb":true,"video_depth":false}}
{"frame":4791,"timestamp":{"delta_seconds":0.05000000074505806,"elapsed_seconds":54.011375004425645},"control":{"throttle":1.0,"steer":-1.0,"brake":0.0,"hand_brake":false,"reverse":false,"manual_gear_shift":false,"gear":0},"transform":{"location":{"x":-62.26545715332031,"y":25.40308952331543,"z":0.0017946242587640882},"rotation":{"pitch":0.06701098382472992,"yaw":15.172558784484863,"roll":0.2056775540113449}},"velocity":{"x":5.720069885253906,"y":0.6896854043006897,"z":-0.0004870796110481024},"angular_velocity":{"x":-0.7914780974388123,"y":0.027341974899172783,"z":-35.12984848022461},"acceleration":{"x":3.717193603515625,"y":-7.947684288024902,"z":-0.00971527025103569},"speed_mps":5.761498562556497,"speed_kph":20.74139482520339,"speed_limit_kph":30.0,"collisions_this_frame":[],"waypoint":{"x":-62.262977600097656,"y":24.511022567749023,"z":0.0},"lane_deviation_m":0.8920722007751465,"lane_width":3.5,"goal":{"x":22.88115692138672,"y":-60.89999771118164,"z":0.5999999642372131},"fault":{"name":"tire_pressure_imbalance","severity":1.0},"capture_flags":{"save_rgb":true,"save_depth":false,"video_rgb":true,"video_depth":false}}
{"frame":4792,"timestamp":{"delta_seconds":0.05000000074505806,"elapsed_seconds":54.0613750051707},"control":{"throttle":1.0,"steer":-0.5870000123977661,"brake":0.0,"hand_brake":false,"reverse":false,"manual_gear_shift":false,"gear":0},"transform":{"location":{"x":-61.97655487060547,"y":25.43494987487793,"z":0.0018267821287736297},"rotation":{"pitch":0.05690913274884224,"yaw":12.928001403808594,"roll":0.2525199055671692}},"velocity":{"x":5.925844192504883,"y":0.19477681815624237,"z":-0.0005893420893698931},"angular_velocity":{"x":-0.8862722516059875,"y":-0.03988952562212944,"z":-50.42253875732422},"acceleration":{"x":4.115486145019531,"y":-9.898171424865723,"z":-0.002045249566435814},"speed_mps":5.929044421326172,"speed_kph":21.34455991677422,"speed_limit_kph":30.0,"collisions_this_frame":[],"waypoint":{"x":-61.97399139404297,"y":24.511825561523438,"z":0.0},"lane_deviation_m":0.923129677772522,"lane_width":3.5,"goal":{"x":22.88115692138672,"y":-60.89999771118164,"z":0.5999999642372131},"fault":{"name":"tire_pressure_imbalance","severity":1.0},"capture_flags":{"save_rgb":true,"save_depth":false,"video_rgb":true,"video_depth":false}}
{"frame":4793,"timestamp":{"delta_seconds":0.05000000074505806,"elapsed_seconds":54.11137500591576},"control":{"throttle":1.0,"steer":1.0,"brake":0.0,"hand_brake":false,"reverse":false,"manual_gear_shift":false,"gear":0},"transform":{"location":{"x":-61.675174713134766,"y":25.451313018798828,"z":0.0018162536434829235},"rotation":{"pitch":0.05389701947569847,"yaw":10.437650680541992,"roll":0.25630202889442444}},"velocity":{"x":6.204694747924805,"y":0.021955201402306557,"z":-0.0005309009575285017},"angular_velocity":{"x":0.6096785068511963,"y":0.10453394800424576,"z":-46.98731994628906},"acceleration":{"x":5.5770111083984375,"y":-3.456432342529297,"z":0.0011688226368278265},"speed_mps":6.204733614559943,"speed_kph":22.337041012415796,"speed_limit_kph":30.0,"collisions_this_frame":[],"waypoint":{"x":-61.67256546020508,"y":24.512662887573242,"z":0.0},"lane_deviation_m":0.9386554956436157,"lane_width":3.5,"goal":{"x":22.88115692138672,"y":-60.89999771118164,"z":0.5999999642372131},"fault":{"name":"tire_pressure_imbalance","severity":1.0},"capture_flags":{"save_rgb":true,"save_depth":false,"video_rgb":true,"video_depth":false}}
{"frame":4794,"timestamp":{"delta_seconds":0.05000000074505806,"elapsed_seconds":54.16137500666082},"control":{"throttle":1.0,"steer":0.20900000631809235,"brake":0.0,"hand_brake":false,"reverse":false,"manual_gear_shift":false,"gear":0},"transform":{"location":{"x":-61.35422134399414,"y":25.47126579284668,"z":0.00174713134765625},"rotation":{"pitch":0.06150585040450096,"yaw":8.683804512023926,"roll":0.17849671840667725}},"velocity":{"x":6.615336894989014,"y":0.33499470353126526,"z":-0.0003917789435945451},"angular_velocity":{"x":2.0054492950439453,"y":0.10800677537918091,"z":-27.093015670776367},"acceleration":{"x":8.21284294128418,"y":6.2607903480529785,"z":0.0027824402786791325},"speed_mps":6.623813391022397,"speed_kph":23.84572820768063,"speed_limit_kph":30.0,"collisions_this_frame":[],"waypoint":{"x":-61.351558685302734,"y":24.5135555267334,"z":0.0},"lane_deviation_m":0.9577155709266663,"lane_width":3.5,"goal":{"x":22.88115692138672,"y":-60.89999771118164,"z":0.5999999642372131},"fault":{"name":"tire_pressure_imbalance","severity":1.0},"capture_flags":{"save_rgb":true,"save_depth":false,"video_rgb":true,"video_depth":false}}
{"frame":4795,"timestamp":{"delta_seconds":0.05000000074505806,"elapsed_seconds":54.21137500740588},"control":{"throttle":1.0,"steer":0.06400000303983688,"brake":0.0,"hand_brake":false,"reverse":false,"manual_gear_shift":false,"gear":0},"transform":{"location":{"x":-61.01723861694336,"y":25.506591796875,"z":0.0016987990820780396},"rotation":{"pitch":0.06670362502336502,"yaw":8.042388916015625,"roll":0.06822285056114197}},"velocity":{"x":6.84834623336792,"y":0.7903933525085449,"z":-0.0002837848733179271},"angular_velocity":{"x":2.008934497833252,"y":0.20815135538578033,"z":-4.461521625518799},"acceleration":{"x":4.660186767578125,"y":9.107973098754883,"z":0.00215988140553236},"speed_mps":6.893806485847143,"speed_kph":24.817703349049715,"speed_limit_kph":30.0,"collisions_this_frame":[],"waypoint":{"x":-61.01448059082031,"y":24.51449203491211,"z":0.0},"lane_deviation_m":0.9921050667762756,"lane_width":3.5,"goal":{"x":22.88115692138672,"y":-60.89999771118164,"z":0.5999999642372131},"fault":{"name":"tire_pressure_imbalance","severity":1.0},"capture_flags":{"save_rgb":true,"save_depth":false,"video_rgb":true,"video_depth":false}}
{"frame":4796,"timestamp":{"delta_seconds":0.05000000074505806,"elapsed_seconds":54.261375008150935},"control":{"throttle":1.0,"steer":-1.0,"brake":0.0,"hand_brake":false,"reverse":false,"manual_gear_shift":false,"gear":0},"transform":{"location":{"x":-60.6656379699707,"y":25.548166275024414,"z":0.0016684341244399548},"rotation":{"pitch":0.06979086995124817,"yaw":7.708395481109619,"roll":0.041618406772613525}},"velocity":{"x":7.164401054382324,"y":0.7263798117637634,"z":-0.00021856307284906507},"angular_velocity":{"x":-0.2787337601184845,"y":-0.08479191362857819,"z":-10.575244903564453},"acceleration":{"x":6.321096420288086,"y":-1.2802708148956299,"z":0.0013044360093772411},"speed_mps":7.201129782662046,"speed_kph":25.924067217583367,"speed_limit_kph":30.0,"collisions_this_frame":[],"waypoint":{"x":-60.66276931762695,"y":24.51546859741211,"z":0.0},"lane_deviation_m":1.0327030420303345,"lane_width":3.5,"goal":{"x":22.88115692138672,"y":-60.89999771118164,"z":0.5999999642372131},"fault":{"name":"tire_pressure_imbalance","severity":1.0},"capture_flags":{"save_rgb":true,"save_depth":false,"video_rgb":true,"video_depth":false}}
{"frame":4797,"timestamp":{"delta_seconds":0.05000000074505806,"elapsed_seconds":54.31137500889599},"control":{"throttle":1.0,"steer":-0.5429999828338623,"brake":0.0,"hand_brake":false,"reverse":false,"manual_gear_shift":false,"gear":0},"transform":{"location":{"x":-60.29759979248047,"y":25.579042434692383,"z":0.0016478347824886441},"rotation":{"pitch":0.07177845388650894,"yaw":6.807779788970947,"roll":0.09034591913223267}},"velocity":{"x":7.504271507263184,"y":0.3578549921512604,"z":-0.00017280578322242945},"angular_velocity":{"x":-1.240891933441162,"y":-0.1770360916852951,"z":-23.61943244934082},"acceleration":{"x":6.7974090576171875,"y":-7.3704962730407715,"z":0.0009151457925327122},"speed_mps":7.512799150782048,"speed_kph":27.046076942815375,"speed_limit_kph":30.0,"collisions_this_frame":[],"waypoint":{"x":-60.294647216796875,"y":24.51649284362793,"z":0.0},"lane_deviation_m":1.062554955482483,"lane_width":3.5,"goal":{"x":22.88115692138672,"y":-60.89999771118164,"z":0.5999999642372131},"fault":{"name":"tire_pressure_imbalance","severity":1.0},"capture_flags":{"save_rgb":true,"save_depth":false,"video_rgb":true,"video_depth":false}}
{"frame":4798,"timestamp":{"delta_seconds":0.05000000074505806,"elapsed_seconds":54.36137500964105},"control":{"throttle":1.0,"steer":-0.6700000166893005,"brake":0.0,"hand_brake":false,"reverse":false,"manual_gear_shift":false,"gear":0},"transform":{"location":{"x":-59.91427993774414,"y":25.590543746948242,"z":0.0016403578920289874},"rotation":{"pitch":0.07193554937839508,"yaw":5.088146686553955,"roll":0.1659969687461853}},"velocity":{"x":7.798547744750977,"y":-0.19134899973869324,"z":-0.00014058113447390497},"angular_velocity":{"x":-1.6198078393936157,"y":-0.13358697295188904,"z":-41.46028518676758},"acceleration":{"x":5.885524749755859,"y":-10.984079360961914,"z":0.0006444929749704897},"speed_mps":7.800894909343709,"speed_kph":28.083221673637354,"speed_limit_kph":30.0,"collisions_this_frame":[],"waypoint":{"x":-59.91129684448242,"y":24.51755714416504,"z":0.0},"lane_deviation_m":1.072991967201233,"lane_width":3.5,"goal":{"x":22.88115692138672,"y":-60.89999771118164,"z":0.5999999642372131},"fault":{"name":"tire_pressure_imbalance","severity":1.0},"capture_flags":{"save_rgb":true,"save_depth":false,"video_rgb":true,"video_depth":false}}
