{"frame":5694,"timestamp":{"delta_seconds":0.05000000074505806,"elapsed_seconds":56.498189265839756},"control":{"throttle":0.75,"steer":0.0,"brake":0.0,"hand_brake":false,"reverse":false,"manual_gear_shift":false,"gear":0},"transform":{"location":{"x":-87.6230239868164,"y":12.967159271240234,"z":0.48239994049072266},"rotation":{"pitch":0.0,"yaw":-179.84078979492188,"roll":0.0}},"velocity":{"x":0.0,"y":0.0,"z":-1.470000147819519},"angular_velocity":{"x":0.0,"y":0.0,"z":0.0},"acceleration":{"x":0.0,"y":0.0,"z":-9.80000114440918},"speed_mps":1.470000147819519,"speed_kph":5.2920005321502686,"speed_limit_kph":30.0,"collisions_this_frame":[],"waypoint":{"x":-87.62295532226562,"y":12.94051742553711,"z":0.0},"lane_deviation_m":0.48313507437705994,"lane_width":3.5,"goal":{"x":79.05529022216797,"y":69.8227767944336,"z":0.5999999642372131},"fault":{"name":"tire_pressure_imbalance","severity":1.0},"capture_flags":{"save_rgb":true,"save_depth":false,"video_rgb":true,"video_depth":false}}
{"frame":5695,"timestamp":{"delta_seconds":0.05000000074505806,"elapsed_seconds":56.548189266584814},"control":{"throttle":0.75,"steer":0.0,"brake":0.0,"hand_brake":false,"reverse":false,"manual_gear_shift":false,"gear":0},"transform":{"location":{"x":-87.6230239868164,"y":12.967159271240234,"z":0.394199937582016},"rotation":{"pitch":0.0,"yaw":-179.84078979492188,"roll":0.0}},"velocity":{"x":0.0,"y":0.0,"z":-1.9600002765655518},"angular_velocity":{"x":0.0,"y":0.0,"z":0.0},"acceleration":{"x":0.0,"y":0.0,"z":-9.800003051757812},"speed_mps":1.9600002765655518,"speed_kph":7.056000995635986,"speed_limit_kph":30.0,"collisions_this_frame":[],"waypoint":{"x":-87.62295532226562,"y":12.94051742553711,"z":0.0},"lane_deviation_m":0.3950991928577423,"lane_width":3.5,"goal":{"x":79.05529022216797,"y":69.8227767944336,"z":0.5999999642372131},"fault":{"name":"tire_pressure_imbalance","severity":1.0},"capture_flags":{"save_rgb":true,"save_depth":false,"video_rgb":true,"video_depth":false}}
{"frame":5696,"timestamp":{"delta_seconds":0.05000000074505806,"elapsed_seconds":56.59818926732987},"control":{"throttle":0.75,"steer":0.0,"brake":0.0,"hand_brake":false,"reverse":false,"manual_gear_shift":false,"gear":0},"transform":{"location":{"x":-87.6230239868164,"y":12.967159271240234,"z":0.281499981880188},"rotation":{"pitch":0.0,"yaw":-179.84078979492188,"roll":0.0}},"velocity":{"x":0.0,"y":0.0,"z":-2.450000286102295},"angular_velocity":{"x":0.0,"y":0.0,"z":0.0},"acceleration":{"x":0.0,"y":0.0,"z":-9.800000190734863},"speed_mps":2.450000286102295,"speed_kph":8.820001029968262,"speed_limit_kph":30.0,"collisions_this_frame":[],"waypoint":{"x":-87.62295532226562,"y":12.94051742553711,"z":0.0},"lane_deviation_m":0.2827579081058502,"lane_width":3.5,"goal":{"x":79.05529022216797,"y":69.8227767944336,"z":0.5999999642372131},"fault":{"name":"tire_pressure_imbalance","severity":1.0},"capture_flags":{"save_rgb":true,"save_depth":false,"video_rgb":true,"video_depth":false}}
{"frame":5697,"timestamp":{"delta_seconds":0.05000000074505806,"elapsed_seconds":56.64818926807493},"control":{"throttle":0.75,"steer":0.0,"brake":0.0,"hand_brake":false,"reverse":false,"manual_gear_shift":false,"gear":0},"transform":{"location":{"x":-87.6230239868164,"y":12.967159271240234,"z":0.14429987967014313},"rotation":{"pitch":0.0,"yaw":-179.84078979492188,"roll":0.0}},"velocity":{"x":0.0,"y":0.0,"z":-2.93999981880188},"angular_velocity":{"x":0.0,"y":0.0,"z":0.0},"acceleration":{"x":0.0,"y":0.0,"z":-9.7999906539917},"speed_mps":2.93999981880188,"speed_kph":10.583999347686769,"speed_limit_kph":30.0,"collisions_this_frame":[],"waypoint":{"x":-87.62295532226562,"y":12.94051742553711,"z":0.0},"lane_deviation_m":0.1467387080192566,"lane_width":3.5,"goal":{"x":79.05529022216797,"y":69.8227767944336,"z":0.5999999642372131},"fault":{"name":"tire_pressure_imbalance","severity":1.0},"capture_flags":{"save_rgb":true,"save_depth":false,"video_rgb":true,"video_depth":false}}
{"frame":5698,"timestamp":{"delta_seconds":0.05000000074505806,"elapsed_seconds":56.69818926881999},"control":{"throttle":0.75,"steer":0.0,"brake":0.0,"hand_brake":false,"reverse":false,"manual_gear_shift":false,"gear":0},"transform":{"location":{"x":-87.62357330322266,"y":12.96517276763916,"z":0.009365997277200222},"rotation":{"pitch":0.07286445051431656,"yaw":-179.8075408935547,"roll":-0.1875305026769638}},"velocity":{"x":0.0027095067780464888,"y":-0.022531399503350258,"z":-2.008272886276245},"angular_velocity":{"x":-5.179205417633057,"y":2.2222490310668945,"z":0.21223808825016022},"acceleration":{"x":0.05419013649225235,"y":-0.45062798261642456,"z":18.634538650512695},"speed_mps":2.0084011031521767,"speed_kph":7.230243971347837,"speed_limit_kph":30.0,"collisions_this_frame":[],"waypoint":{"x":-87.62350463867188,"y":12.940515518188477,"z":0.0},"lane_deviation_m":0.026376251131296158,"lane_width":3.5,"goal":{"x":79.05529022216797,"y":69.8227767944336,"z":0.5999999642372131},"fault":{"name":"tire_pressure_imbalance","severity":1.0},"capture_flags":{"save_rgb":true,"save_depth":false,"video_rgb":true,"video_depth":false}}
{"frame":5699,"timestamp":{"delta_seconds":0.05000000074505806,"elapsed_seconds":56.748189269565046},"control":{"throttle":0.75,"steer":0.0,"brake":0.0,"hand_brake":false,"reverse":false,"manual_gear_shift":false,"gear":0},"transform":{"location":{"x":-87.62406921386719,"y":12.96351146697998,"z":-0.04846011847257614},"rotation":{"pitch":0.15083788335323334,"yaw":-179.8032989501953,"roll":-0.33303821086883545}},"velocity":{"x":-0.0006389307673089206,"y":-0.006589831784367561,"z":-0.7027705311775208},"angular_velocity":{"x":-1.4378985166549683,"y":1.0056092739105225,"z":-0.048369329422712326},"acceleration":{"x":-0.06696875393390656,"y":0.31883135437965393,"z":26.110048294067383},"speed_mps":0.702801717134361,"speed_kph":2.5300861816837,"speed_limit_kph":30.0,"collisions_this_frame":[],"waypoint":{"x":-87.62400817871094,"y":12.940513610839844,"z":0.0},"lane_deviation_m":0.05364036187529564,"lane_width":3.5,"goal":{"x":79.05529022216797,"y":69.8227767944336,"z":0.5999999642372131},"fault":{"name":"tire_pressure_imbalance","severity":1.0},"capture_flags":{"save_rgb":true,"save_depth":false,"video_rgb":true,"video_depth":false}}
{"frame":5700,"timestamp":{"delta_seconds":0.05000000074505806,"elapsed_seconds":56.798189270310104},"control":{"throttle":0.75,"steer":0.0,"brake":0.0,"hand_brake":false,"reverse":false,"manual_gear_shift":false,"gear":0},"transform":{"location":{"x":-87.62419128417969,"y":12.963289260864258,"z":-0.06371334195137024},"rotation":{"pitch":0.17248958349227905,"yaw":-179.8021240234375,"roll":-0.34954833984375}},"velocity":{"x":0.0011277806479483843,"y":-0.00022247667948249727,"z":-0.1011342778801918},"angular_velocity":{"x":0.21106195449829102,"y":0.11070902645587921,"z":0.06372814625501633},"acceleration":{"x":0.035334229469299316,"y":0.12734709680080414,"z":12.032724380493164},"speed_mps":0.10114081049413562,"speed_kph":0.36410691777888826,"speed_limit_kph":30.0,"collisions_this_frame":[],"waypoint":{"x":-87.62413024902344,"y":12.940513610839844,"z":0.0},"lane_deviation_m":0.0676618367433548,"lane_width":3.5,"goal":{"x":79.05529022216797,"y":69.8227767944336,"z":0.5999999642372131},"fault":{"name":"tire_pressure_imbalance","severity":1.0},"capture_flags":{"save_rgb":true,"save_depth":false,"video_rgb":true,"video_depth":false}}
{"frame":5701,"timestamp":{"delta_seconds":0.05000000074505806,"elapsed_seconds":56.84818927105516},"control":{"throttle":0.75,"steer":0.0,"brake":0.0,"hand_brake":false,"reverse":false,"manual_gear_shift":false,"gear":0},"transform":{"location":{"x":-87.62409973144531,"y":12.96371078491211,"z":-0.06023666262626648},"rotation":{"pitch":0.15232686698436737,"yaw":-179.80409240722656,"roll":-0.29660025238990784}},"velocity":{"x":-0.001690506935119629,"y":0.0026213484816253185,"z":0.14474524557590485},"angular_velocity":{"x":1.149038314819336,"y":-0.4998834431171417,"z":-0.0935584306716919},"acceleration":{"x":-0.05636575073003769,"y":0.05687650293111801,"z":4.917590618133545},"speed_mps":0.1447788499691471,"speed_kph":0.5212038598889296,"speed_limit_kph":30.0,"collisions_this_frame":[],"waypoint":{"x":-87.62403869628906,"y":12.940513610839844,"z":0.0},"lane_deviation_m":0.06454896181821823,"lane_width":3.5,"goal":{"x":79.05529022216797,"y":69.8227767944336,"z":0.5999999642372131},"fault":{"name":"tire_pressure_imbalance","severity":1.0},"capture_flags":{"save_rgb":true,"save_depth":false,"video_rgb":true,"video_depth":false}}
{"frame":5702,"timestamp":{"delta_seconds":0.05000000074505806,"elapsed_seconds":56.89818927180022},"control":{"throttle":0.75,"steer":0.0,"brake":0.0,"hand_brake":false,"reverse":false,"manual_gear_shift":false,"gear":0},"transform":{"location":{"x":-87.62395477294922,"y":12.964290618896484,"z":-0.050149381160736084},"rotation":{"pitch":0.12685710191726685,"yaw":-179.8055877685547,"roll":-0.245391845703125}},"velocity":{"x":5.244612566457363e-06,"y":0.005225048400461674,"z":0.2200310230255127},"angular_velocity":{"x":0.9269015789031982,"y":-0.49148479104042053,"z":-6.928906077519059e-05},"acceleration":{"x":0.03391503170132637,"y":0.05207400023937225,"z":1.5057156085968018},"speed_mps":0.22009305362038764,"speed_kph":0.7923349930333955,"speed_limit_kph":30.0,"collisions_this_frame":[],"waypoint":{"x":-87.62389373779297,"y":12.940513610839844,"z":0.0},"lane_deviation_m":0.05550054460763931,"lane_width":3.5,"goal":{"x":79.05529022216797,"y":69.8227767944336,"z":0.5999999642372131},"fault":{"name":"tire_pressure_imbalance","severity":1.0},"capture_flags":{"save_rgb":true,"save_depth":false,"video_rgb":true,"video_depth":false}}
{"frame":5703,"timestamp":{"delta_seconds":0.05000000074505806,"elapsed_seconds":56.94818927254528},"control":{"throttle":0.75,"steer":0.0,"brake":0.0,"hand_brake":false,"reverse":false,"manual_gear_shift":false,"gear":0},"transform":{"location":{"x":-87.62382507324219,"y":12.964905738830566,"z":-0.03888813033699989},"rotation":{"pitch":0.10226842015981674,"yaw":-179.80819702148438,"roll":-0.1998290717601776}},"velocity":{"x":-0.001454890938475728,"y":0.0064743999391794205,"z":0.21779030561447144},"angular_velocity":{"x":0.8898360133171082,"y":-0.47551146149635315,"z":-0.08678608387708664},"acceleration":{"x":-0.029202710837125778,"y":0.024987030774354935,"z":-0.044814348220825195},"speed_mps":0.2178913761071332,"speed_kph":0.7844089539856794,"speed_limit_kph":30.0,"collisions_this_frame":[],"waypoint":{"x":-87.62376403808594,"y":12.940513610839844,"z":0.0},"lane_deviation_m":0.0459049716591835,"lane_width":3.5,"goal":{"x":79.05529022216797,"y":69.8227767944336,"z":0.5999999642372131},"fault":{"name":"tire_pressure_imbalance","severity":1.0},"capture_flags":{"save_rgb":true,"save_depth":false,"video_rgb":true,"video_depth":false}}
{"frame":5704,"timestamp":{"delta_seconds":0.05000000074505806,"elapsed_seconds":56.998189273290336},"control":{"throttle":0.75,"steer":0.0,"brake":0.0,"hand_brake":false,"reverse":false,"manual_gear_shift":false,"gear":0},"transform":{"location":{"x":-87.6353988647461,"y":12.965546607971191,"z":-0.02891639620065689},"rotation":{"pitch":0.08981698006391525,"yaw":-179.81588745117188,"roll":-0.1486816257238388}},"velocity":{"x":-0.5586385726928711,"y":0.005193727556616068,"z":0.1845855712890625},"angular_velocity":{"x":0.7965388894081116,"y":0.13306739926338196,"z":0.09199506789445877},"acceleration":{"x":-11.14367389678955,"y":-0.02561344765126705,"z":-0.6640946865081787},"speed_mps":0.5883671156976485,"speed_kph":2.1181216165115346,"speed_limit_kph":30.0,"collisions_this_frame":[],"waypoint":{"x":-87.63533020019531,"y":12.940483093261719,"z":0.0},"lane_deviation_m":0.038266729563474655,"lane_width":3.5,"goal":{"x":79.05529022216797,"y":69.8227767944336,"z":0.5999999642372131},"fault":{"name":"tire_pressure_imbalance","severity":1.0},"capture_flags":{"save_rgb":true,"save_depth":false,"video_rgb":true,"video_depth":false}}
{"frame":5705,"timestamp":{"delta_seconds":0.05000000074505806,"elapsed_seconds":57.048189274035394},"control":{"throttle":0.75,"steer":0.0,"brake":0.0,"hand_brake":false,"reverse":false,"manual_gear_shift":false,"gear":0},"transform":{"location":{"x":-87.68722534179688,"y":12.965476989746094,"z":-0.02046249434351921},"rotation":{"pitch":0.1298418939113617,"yaw":-179.82127380371094,"roll":-0.1773376166820526}},"velocity":{"x":-1.3169410228729248,"y":0.0038132392801344395,"z":0.17031094431877136},"angular_velocity":{"x":-1.7949984073638916,"y":1.3242930173873901,"z":-0.05425053462386131},"acceleration":{"x":-15.166049003601074,"y":-0.02760976552963257,"z":-0.28549253940582275},"speed_mps":1.327913406918593,"speed_kph":4.780488264906935,"speed_limit_kph":30.0,"collisions_this_frame":[],"waypoint":{"x":-87.6871566772461,"y":12.940338134765625,"z":0.0},"lane_deviation_m":0.03241420164704323,"lane_width":3.5,"goal":{"x":79.05529022216797,"y":69.8227767944336,"z":0.5999999642372131},"fault":{"name":"tire_pressure_imbalance","severity":1.0},"capture_flags":{"save_rgb":true,"save_depth":false,"video_rgb":true,"video_depth":false}}
{"frame":5706,"timestamp":{"delta_seconds":0.05000000074505806,"elapsed_seconds":57.09818927478045},"control":{"throttle":0.75,"steer":0.05336565524339676,"brake":0.0,"hand_brake":false,"reverse":false,"manual_gear_shift":false,"gear":0},"transform":{"location":{"x":-87.76888275146484,"y":12.963991165161133,"z":-0.013331451453268528},"rotation":{"pitch":0.18293294310569763,"yaw":-179.74794006347656,"roll":-0.242156982421875}},"velocity":{"x":-1.8333230018615723,"y":-0.04624767601490021,"z":0.126874178647995},"angular_velocity":{"x":-0.20037084817886353,"y":0.585538387298584,"z":1.763012409210205},"acceleration":{"x":-10.32763957977295,"y":-1.001218318939209,"z":-0.8687353134155273},"speed_mps":1.838289730673353,"speed_kph":6.617843030424071,"speed_limit_kph":30.0,"collisions_this_frame":[],"waypoint":{"x":-87.7688217163086,"y":12.94011116027832,"z":0.0},"lane_deviation_m":0.027349332347512245,"lane_width":3.5,"goal":{"x":79.05529022216797,"y":69.8227767944336,"z":0.5999999642372131},"fault":{"name":"tire_pressure_imbalance","severity":1.0},"capture_flags":{"save_rgb":true,"save_depth":false,"video_rgb":true,"video_depth":false}}
{"frame":5707,"timestamp":{"delta_seconds":0.05000000074505806,"elapsed_seconds":57.14818927552551},"control":{"throttle":0.75,"steer":0.05336565524339676,"brake":0.0,"hand_brake":false,"reverse":false,"manual_gear_shift":false,"gear":0},"transform":{"location":{"x":-87.8724365234375,"y":12.961344718933105,"z":-0.008231467567384243},"rotation":{"pitch":0.19776128232479095,"yaw":-179.64324951171875,"roll":-0.2439880073070526}},"velocity":{"x":-2.2229299545288086,"y":-0.07693290710449219,"z":0.09759807586669922},"angular_velocity":{"x":-0.9293661713600159,"y":0.5011678338050842,"z":2.0617241859436035},"acceleration":{"x":-7.792139053344727,"y":-0.6137046217918396,"z":-0.5855220556259155},"speed_mps":2.2264010508778247,"speed_kph":8.01504378316017,"speed_limit_kph":30.0,"collisions_this_frame":[],"waypoint":{"x":-87.87238311767578,"y":12.939823150634766,"z":0.0},"lane_deviation_m":0.023042088374495506,"lane_width":3.5,"goal":{"x":79.05529022216797,"y":69.8227767944336,"z":0.5999999642372131},"fault":{"name":"tire_pressure_imbalance","severity":1.0},"capture_flags":{"save_rgb":true,"save_depth":false,"video_rgb":true,"video_depth":false}}
{"frame":5708,"timestamp":{"delta_seconds":0.05000000074505806,"elapsed_seconds":57.19818927627057},"control":{"throttle":0.75,"steer":0.0757233276963234,"brake":0.0,"hand_brake":false,"reverse":false,"manual_gear_shift":false,"gear":0},"transform":{"location":{"x":-87.99392700195312,"y":12.956395149230957,"z":-0.004288292024284601},"rotation":{"pitch":0.2138054072856903,"yaw":-179.4580535888672,"roll":-0.27435302734375}},"velocity":{"x":-2.563086986541748,"y":-0.1361144483089447,"z":0.06936338543891907},"angular_velocity":{"x":-0.2767125070095062,"y":0.16923214495182037,"z":3.4769797325134277},"acceleration":{"x":-6.803140640258789,"y":-1.1836308240890503,"z":-0.564693808555603},"speed_mps":2.567635745750876,"speed_kph":9.243488684703154,"speed_limit_kph":30.0,"collisions_this_frame":[],"waypoint":{"x":-87.99388122558594,"y":12.939485549926758,"z":0.0},"lane_deviation_m":0.017444944009184837,"lane_width":3.5,"goal":{"x":79.05529022216797,"y":69.8227767944336,"z":0.5999999642372131},"fault":{"name":"tire_pressure_imbalance","severity":1.0},"capture_flags":{"save_rgb":true,"save_depth":false,"video_rgb":true,"video_depth":false}}
{"frame":5709,"timestamp":{"delta_seconds":0.05000000074505806,"elapsed_seconds":57.248189277015626},"control":{"throttle":0.75,"steer":0.0757233276963234,"brake":0.0,"hand_brake":false,"reverse":false,"manual_gear_shift":false,"gear":0},"transform":{"location":{"x":-88.130615234375,"y":12.95058536529541,"z":-0.002308006165549159},"rotation":{"pitch":0.1687193214893341,"yaw":-179.2342071533203,"roll":-0.1554565578699112}},"velocity":{"x":-2.8656044006347656,"y":-0.19305984675884247,"z":-0.010768337175250053},"angular_velocity":{"x":6.023819923400879,"y":-2.405660390853882,"z":4.693571090698242},"acceleration":{"x":-6.050348281860352,"y":-1.1389079093933105,"z":-1.6026344299316406},"speed_mps":2.8721205828539653,"speed_kph":10.339634098274276,"speed_limit_kph":30.0,"collisions_this_frame":[],"waypoint":{"x":-88.13058471679688,"y":12.939105987548828,"z":0.0},"lane_deviation_m":0.011709138751029968,"lane_width":3.5,"goal":{"x":79.05529022216797,"y":69.8227767944336,"z":0.5999999642372131},"fault":{"name":"tire_pressure_imbalance","severity":1.0},"capture_flags":{"save_rgb":true,"save_depth":false,"video_rgb":true,"video_depth":false}}
{"frame":5710,"timestamp":{"delta_seconds":0.05000000074505806,"elapsed_seconds":57.298189277760684},"control":{"throttle":0.75,"steer":0.08322818577289581,"brake":0.0,"hand_brake":false,"reverse":false,"manual_gear_shift":false,"gear":0},"transform":{"location":{"x":-88.28130340576172,"y":12.942008972167969,"z":-0.001911163330078125},"rotation":{"pitch":0.09908554702997208,"yaw":-178.97169494628906,"roll":-0.029937738552689552}},"velocity":{"x":-3.130668878555298,"y":-0.22993408143520355,"z":0.00498340604826808},"angular_velocity":{"x":1.2081485986709595,"y":-0.855207085609436,"z":5.51738166809082},"acceleration":{"x":-5.3012895584106445,"y":-0.7374846935272217,"z":0.3150348663330078},"speed_mps":3.1391053093669825,"speed_kph":11.300779113721138,"speed_limit_kph":30.0,"collisions_this_frame":[],"waypoint":{"x":-88.28129577636719,"y":12.938688278198242,"z":0.0},"lane_deviation_m":0.003831398207694292,"lane_width":3.5,"goal":{"x":79.05529022216797,"y":69.8227767944336,"z":0.5999999642372131},"fault":{"name":"tire_pressure_imbalance","severity":1.0},"capture_flags":{"save_rgb":true,"save_depth":false,"video_rgb":true,"video_depth":false}}
{"frame":5711,"timestamp":{"delta_seconds":0.05000000074505806,"elapsed_seconds":57.34818927850574},"control":{"throttle":0.75,"steer":0.08322818577289581,"brake":0.0,"hand_brake":false,"reverse":false,"manual_gear_shift":false,"gear":0},"transform":{"location":{"x":-88.44611358642578,"y":12.931669235229492,"z":-0.0013311004731804132},"rotation":{"pitch":0.07546675950288773,"yaw":-178.67758178710938,"roll":-0.006530761253088713}},"velocity":{"x":-3.4108030796051025,"y":-0.25546738505363464,"z":0.010490846820175648},"angular_velocity":{"x":0.18725049495697021,"y":-0.27736520767211914,"z":6.088014125823975},"acceleration":{"x":-5.602684020996094,"y":-0.5106660723686218,"z":0.11014881730079651},"speed_mps":3.420372975354705,"speed_kph":12.313342711276938,"speed_limit_kph":30.0,"collisions_this_frame":[],"waypoint":{"x":-88.44613647460938,"y":12.938228607177734,"z":0.0},"lane_deviation_m":0.006693109404295683,"lane_width":3.5,"goal":{"x":79.05529022216797,"y":69.8227767944336,"z":0.5999999642372131},"fault":{"name":"tire_pressure_imbalance","severity":1.0},"capture_flags":{"save_rgb":true,"save_depth":false,"video_rgb":true,"video_depth":false}}
{"frame":5712,"timestamp":{"delta_seconds":0.05000000074505806,"elapsed_seconds":57.3981892792508},"control":{"throttle":0.0,"steer":0.09464527666568756,"brake":0.0,"hand_brake":false,"reverse":false,"manual_gear_shift":false,"gear":0},"transform":{"location":{"x":-88.62395477294922,"y":12.919245719909668,"z":-0.0007252883515320718},"rotation":{"pitch":0.06731151044368744,"yaw":-178.3316192626953,"roll":-0.00775146484375}},"velocity":{"x":-3.6442997455596924,"y":-0.30756983160972595,"z":0.011205138638615608},"angular_velocity":{"x":-0.07295408844947815,"y":-0.1230979710817337,"z":7.27908992767334},"acceleration":{"x":-4.669933319091797,"y":-1.0420489311218262,"z":0.01428583636879921},"speed_mps":3.6572729446863526,"speed_kph":13.166182600870869,"speed_limit_kph":30.0,"collisions_this_frame":[],"waypoint":{"x":-88.62400817871094,"y":12.937734603881836,"z":0.0},"lane_deviation_m":0.018503181636333466,"lane_width":3.5,"goal":{"x":79.05529022216797,"y":69.8227767944336,"z":0.5999999642372131},"fault":{"name":"tire_pressure_imbalance","severity":1.0},"capture_flags":{"save_rgb":true,"save_depth":false,"video_rgb":true,"video_depth":false}}
{"frame":5713,"timestamp":{"delta_seconds":0.05000000074505806,"elapsed_seconds":57.44818927999586},"control":{"throttle":0.0,"steer":0.09464527666568756,"brake":0.0,"hand_brake":false,"reverse":false,"manual_gear_shift":false,"gear":0},"transform":{"location":{"x":-88.81057739257812,"y":12.90487003326416,"z":-0.00016075134044513106},"rotation":{"pitch":0.060836490243673325,"yaw":-177.9579620361328,"roll":-0.011810301803052425}},"velocity":{"x":-3.7735369205474854,"y":-0.3448733687400818,"z":0.009936323389410973},"angular_velocity":{"x":-0.07169651985168457,"y":-0.15312246978282928,"z":7.590032577514648},"acceleration":{"x":-2.5847434997558594,"y":-0.7460707426071167,"z":-0.025376304984092712},"speed_mps":3.7892766145695447,"speed_kph":13.64139581245036,"speed_limit_kph":30.0,"collisions_this_frame":[],"waypoint":{"x":-88.81095123291016,"y":12.937213897705078,"z":0.0},"lane_deviation_m":0.03234642371535301,"lane_width":3.5,"goal":{"x":79.05529022216797,"y":69.8227767944336,"z":0.5999999642372131},"fault":{"name":"tire_pressure_imbalance","severity":1.0},"capture_flags":{"save_rgb":true,"save_depth":false,"video_rgb":true,"video_depth":false}}
{"frame":5714,"timestamp":{"delta_seconds":0.05000000074505806,"elapsed_seconds":57.49818928074092},"control":{"throttle":0.0,"steer":-0.006105225067585707,"brake":1.0,"hand_brake":false,"reverse":false,"manual_gear_shift":false,"gear":0},"transform":{"location":{"x":-89.0,"y":12.893681526184082,"z":0.00034023282933048904},"rotation":{"pitch":0.05065951123833656,"yaw":-177.80165100097656,"roll":0.0072168041951954365}},"velocity":{"x":-3.7826955318450928,"y":-0.19039981067180634,"z":0.00805632583796978},"angular_velocity":{"x":0.4325789511203766,"y":-0.22382482886314392,"z":0.9775844216346741},"acceleration":{"x":-0.18317222595214844,"y":3.0894711017608643,"z":-0.03759995102882385},"speed_mps":3.787492901502351,"speed_kph":13.634974445408464,"speed_limit_kph":30.0,"collisions_this_frame":[],"waypoint":{"x":-89.00049591064453,"y":12.936687469482422,"z":0.0},"lane_deviation_m":0.04301014542579651,"lane_width":3.5,"goal":{"x":79.05529022216797,"y":69.8227767944336,"z":0.5999999642372131},"fault":{"name":"tire_pressure_imbalance","severity":1.0},"capture_flags":{"save_rgb":true,"save_depth":false,"video_rgb":true,"video_depth":false}}
{"frame":5715,"timestamp":{"delta_seconds":0.05000000074505806,"elapsed_seconds":57.548189281485975},"control":{"throttle":0.0,"steer":-0.006105225067585707,"brake":1.0,"hand_brake":false,"reverse":false,"manual_gear_shift":false,"gear":0},"transform":{"location":{"x":-89.18677520751953,"y":12.885909080505371,"z":0.0007677840767428279},"rotation":{"pitch":0.0367669053375721,"yaw":-177.79945373535156,"roll":0.018988287076354027}},"velocity":{"x":-3.696924924850464,"y":-0.14297842979431152,"z":0.00619690865278244},"angular_velocity":{"x":0.13162706792354584,"y":-0.29195481538772583,"z":-0.2758285701274872},"acceleration":{"x":1.7154121398925781,"y":0.9484276175498962,"z":-0.037188343703746796},"speed_mps":3.699693924238045,"speed_kph":13.318898127256963,"speed_limit_kph":30.0,"collisions_this_frame":[],"waypoint":{"x":-89.18734741210938,"y":12.93616771697998,"z":0.0},"lane_deviation_m":0.05026775598526001,"lane_width":3.5,"goal":{"x":79.05529022216797,"y":69.8227767944336,"z":0.5999999642372131},"fault":{"name":"tire_pressure_imbalance","severity":1.0},"capture_flags":{"save_rgb":true,"save_depth":false,"video_rgb":true,"video_depth":false}}
{"frame":5716,"timestamp":{"delta_seconds":0.05000000074505806,"elapsed_seconds":57.59818928223103},"control":{"throttle":0.0,"steer":0.004028905648738146,"brake":1.0,"hand_brake":false,"reverse":false,"manual_gear_shift":false,"gear":0},"transform":{"location":{"x":-89.36674499511719,"y":12.878737449645996,"z":0.0011219024891033769},"rotation":{"pitch":0.02085256576538086,"yaw":-177.7948760986328,"roll":0.017657408490777016}},"velocity":{"x":-3.5293221473693848,"y":-0.1427442729473114,"z":0.004605512600392103},"angular_velocity":{"x":-0.05538279935717583,"y":-0.33196720480918884,"z":0.21546362340450287},"acceleration":{"x":3.352055549621582,"y":0.004683136940002441,"z":-0.03182791918516159},"speed_mps":3.5322106333169905,"speed_kph":12.715958279941166,"speed_limit_kph":30.0,"collisions_this_frame":[],"waypoint":{"x":-89.36738586425781,"y":12.935667991638184,"z":0.0},"lane_deviation_m":0.05694520100951195,"lane_width":3.5,"goal":{"x":79.05529022216797,"y":69.8227767944336,"z":0.5999999642372131},"fault":{"name":"tire_pressure_imbalance","severity":1.0},"capture_flags":{"save_rgb":true,"save_depth":false,"video_rgb":true,"video_depth":false}}
{"frame":5717,"timestamp":{"delta_seconds":0.05000000074505806,"elapsed_seconds":57.64818928297609},"control":{"throttle":0.0,"steer":0.004028905648738146,"brake":1.0,"hand_brake":false,"reverse":false,"manual_gear_shift":false,"gear":0},"transform":{"location":{"x":-89.53704071044922,"y":12.871840476989746,"z":0.001407089177519083},"rotation":{"pitch":0.004808452911674976,"yaw":-177.7815704345703,"roll":0.013831965625286102}},"velocity":{"x":-3.3255913257598877,"y":-0.136288121342659,"z":0.0033393476624041796},"angular_velocity":{"x":-0.06354966014623642,"y":-0.3091669976711273,"z":0.2804652154445648},"acceleration":{"x":4.074616432189941,"y":0.1291230320930481,"z":-0.025323297828435898},"speed_mps":3.328384483383993,"speed_kph":11.982184140182376,"speed_limit_kph":30.0,"collisions_this_frame":[],"waypoint":{"x":-89.53775024414062,"y":12.935194969177246,"z":0.0},"lane_deviation_m":0.06337408721446991,"lane_width":3.5,"goal":{"x":79.05529022216797,"y":69.8227767944336,"z":0.5999999642372131},"fault":{"name":"tire_pressure_imbalance","severity":1.0},"capture_flags":{"save_rgb":true,"save_depth":false,"video_rgb":true,"video_depth":false}}
{"frame":5718,"timestamp":{"delta_seconds":0.05000000074505806,"elapsed_seconds":57.69818928372115},"control":{"throttle":0.0,"steer":0.004028905648738146,"brake":1.0,"hand_brake":false,"reverse":false,"manual_gear_shift":false,"gear":0},"transform":{"location":{"x":-89.696533203125,"y":12.86533260345459,"z":0.0016273879446089268},"rotation":{"pitch":-0.009432490915060043,"yaw":-177.767822265625,"roll":0.010518122464418411}},"velocity":{"x":-3.1017165184020996,"y":-0.12799806892871857,"z":0.002373390132561326},"angular_velocity":{"x":-0.049218181520700455,"y":-0.2709035277366638,"z":0.2681266665458679},"acceleration":{"x":4.477496147155762,"y":0.1658010482788086,"z":-0.01931915059685707},"speed_mps":3.1043573407645333,"speed_kph":11.17568642675232,"speed_limit_kph":30.0,"collisions_this_frame":[],"waypoint":{"x":-89.69731140136719,"y":12.934751510620117,"z":0.0},"lane_deviation_m":0.06944233924150467,"lane_width":3.5,"goal":{"x":79.05529022216797,"y":69.8227767944336,"z":0.5999999642372131},"fault":{"name":"tire_pressure_imbalance","severity":1.0},"capture_flags":{"save_rgb":true,"save_depth":false,"video_rgb":true,"video_depth":false}}
{"frame":5719,"timestamp":{"delta_seconds":0.05000000074505806,"elapsed_seconds":57.74818928446621},"control":{"throttle":0.0,"steer":0.004028905648738146,"brake":1.0,"hand_brake":false,"reverse":false,"manual_gear_shift":false,"gear":0},"transform":{"location":{"x":-89.8451919555664,"y":12.85922622680664,"z":0.0017903136322274804},"rotation":{"pitch":-0.02075694315135479,"yaw":-177.75469970703125,"roll":0.007932208478450775}},"velocity":{"x":-2.890512228012085,"y":-0.1202332004904747,"z":0.0016630362952128053},"angular_velocity":{"x":-0.038986075669527054,"y":-0.19952987134456635,"z":0.2581847012042999},"acceleration":{"x":4.224085807800293,"y":0.15529736876487732,"z":-0.014207076281309128},"speed_mps":2.8930122240456035,"speed_kph":10.414844006564174,"speed_limit_kph":30.0,"collisions_this_frame":[],"waypoint":{"x":-89.84603118896484,"y":12.934337615966797,"z":0.0},"lane_deviation_m":0.07513740658760071,"lane_width":3.5,"goal":{"x":79.05529022216797,"y":69.8227767944336,"z":0.5999999642372131},"fault":{"name":"tire_pressure_imbalance","severity":1.0},"capture_flags":{"save_rgb":true,"save_depth":false,"video_rgb":true,"video_depth":false}}
{"frame":5720,"timestamp":{"delta_seconds":0.05000000074505806,"elapsed_seconds":57.798189285211265},"control":{"throttle":0.0,"steer":0.004028905648738146,"brake":1.0,"hand_brake":false,"reverse":false,"manual_gear_shift":false,"gear":0},"transform":{"location":{"x":-89.9828872680664,"y":12.853537559509277,"z":0.00190929404925555},"rotation":{"pitch":-0.029574718326330185,"yaw":-177.74258422851562,"roll":0.005985355004668236}},"velocity":{"x":-2.66444730758667,"y":-0.11139979958534241,"z":0.001152687007561326},"angular_velocity":{"x":-0.027539938688278198,"y":-0.16560468077659607,"z":0.23304829001426697},"acceleration":{"x":4.521298408508301,"y":0.17666801810264587,"z":-0.010206986218690872},"speed_mps":2.666775337170502,"speed_kph":9.600391213813808,"speed_limit_kph":30.0,"collisions_this_frame":[],"waypoint":{"x":-89.98377990722656,"y":12.933955192565918,"z":0.0},"lane_deviation_m":0.08044524490833282,"lane_width":3.5,"goal":{"x":79.05529022216797,"y":69.8227767944336,"z":0.5999999642372131},"fault":{"name":"tire_pressure_imbalance","severity":1.0},"capture_flags":{"save_rgb":true,"save_depth":false,"video_rgb":true,"video_depth":false}}
{"frame":5721,"timestamp":{"delta_seconds":0.05000000074505806,"elapsed_seconds":57.84818928595632},"control":{"throttle":0.0,"steer":0.004028905648738146,"brake":1.0,"hand_brake":false,"reverse":false,"manual_gear_shift":false,"gear":0},"transform":{"location":{"x":-90.10984802246094,"y":12.84826374053955,"z":0.0019931793212890625},"rotation":{"pitch":-0.035981435328722,"yaw":-177.73123168945312,"roll":0.004509579855948687}},"velocity":{"x":-2.457813262939453,"y":-0.10350555926561356,"z":0.000791845319326967},"angular_velocity":{"x":-0.02267676405608654,"y":-0.10525348782539368,"z":0.2224365919828415},"acceleration":{"x":4.132680892944336,"y":0.15788480639457703,"z":-0.007216833531856537},"speed_mps":2.4599918827709533,"speed_kph":8.855970777975433,"speed_limit_kph":30.0,"collisions_this_frame":[],"waypoint":{"x":-90.11079406738281,"y":12.933602333068848,"z":0.0},"lane_deviation_m":0.0853671059012413,"lane_width":3.5,"goal":{"x":79.05529022216797,"y":69.8227767944336,"z":0.5999999642372131},"fault":{"name":"tire_pressure_imbalance","severity":1.0},"capture_flags":{"save_rgb":true,"save_depth":false,"video_rgb":true,"video_depth":false}}
{"frame":5722,"timestamp":{"delta_seconds":0.05000000074505806,"elapsed_seconds":57.89818928670138},"control":{"throttle":0.05624999850988388,"steer":0.1694914549589157,"brake":0.0,"hand_brake":false,"reverse":false,"manual_gear_shift":false,"gear":0},"transform":{"location":{"x":-90.22660064697266,"y":12.841240882873535,"z":0.002048835624009371},"rotation":{"pitch":-0.040038567036390305,"yaw":-177.61427307128906,"roll":-0.007690428290516138}},"velocity":{"x":-2.261765956878662,"y":-0.1972440630197525,"z":0.0005386733682826161},"angular_velocity":{"x":-0.3515555262565613,"y":-0.07386921346187592,"z":4.103701114654541},"acceleration":{"x":3.9209461212158203,"y":-1.8747700452804565,"z":-0.005063438788056374},"speed_mps":2.270350359363239,"speed_kph":8.17326129370766,"speed_limit_kph":30.0,"collisions_this_frame":[],"waypoint":{"x":-90.22762298583984,"y":12.93327808380127,"z":0.0},"lane_deviation_m":0.09206567704677582,"lane_width":3.5,"goal":{"x":79.05529022216797,"y":69.8227767944336,"z":0.5999999642372131},"fault":{"name":"tire_pressure_imbalance","severity":1.0},"capture_flags":{"save_rgb":true,"save_depth":false,"video_rgb":true,"video_depth":false}}
{"frame":5723,"timestamp":{"delta_seconds":0.05000000074505806,"elapsed_seconds":57.94818928744644},"control":{"throttle":0.05624999850988388,"steer":0.1694914549589157,"brake":0.0,"hand_brake":false,"reverse":false,"manual_gear_shift":false,"gear":0},"transform":{"location":{"x":-90.33605194091797,"y":12.829545974731445,"z":0.0020698164589703083},"rotation":{"pitch":-0.039977096021175385,"yaw":-177.2845916748047,"roll":-0.02624511905014515}},"velocity":{"x":-2.1516146659851074,"y":-0.30361872911453247,"z":0.00036436080699786544},"angular_velocity":{"x":-0.2910895049571991,"y":0.03221530094742775,"z":7.553628921508789},"acceleration":{"x":2.2030258178710938,"y":-2.127493381500244,"z":-0.003486251225695014},"speed_mps":2.1729312313808107,"speed_kph":7.822552432970919,"speed_limit_kph":30.0,"collisions_this_frame":[],"waypoint":{"x":-90.33720397949219,"y":12.93297290802002,"z":0.0},"lane_deviation_m":0.10345405340194702,"lane_width":3.5,"goal":{"x":79.05529022216797,"y":69.8227767944336,"z":0.5999999642372131},"fault":{"name":"tire_pressure_imbalance","severity":1.0},"capture_flags":{"save_rgb":true,"save_depth":false,"video_rgb":true,"video_depth":false}}
{"frame":5724,"timestamp":{"delta_seconds":0.05000000074505806,"elapsed_seconds":57.9981892881915},"control":{"throttle":0.75,"steer":0.14890973269939423,"brake":0.0,"hand_brake":false,"reverse":false,"manual_gear_shift":false,"gear":0},"transform":{"location":{"x":-90.44225311279297,"y":12.816350936889648,"z":0.0020594405941665173},"rotation":{"pitch":-0.0357423797249794,"yaw":-176.93406677246094,"roll":-0.028106683865189552}},"velocity":{"x":-2.1051974296569824,"y":-0.3061492145061493,"z":0.0002450179890729487},"angular_velocity":{"x":0.05223856121301651,"y":0.10562782734632492,"z":6.764324188232422},"acceleration":{"x":0.9283447265625,"y":-0.050609707832336426,"z":-0.002386856358498335},"speed_mps":2.1273419140821987,"speed_kph":7.658430890695915,"speed_limit_kph":30.0,"collisions_this_frame":[],"waypoint":{"x":-90.44355010986328,"y":12.93267822265625,"z":0.0},"lane_deviation_m":0.11635274440050125,"lane_width":3.5,"goal":{"x":79.05529022216797,"y":69.8227767944336,"z":0.5999999642372131},"fault":{"name":"tire_pressure_imbalance","severity":1.0},"capture_flags":{"save_rgb":true,"save_depth":false,"video_rgb":true,"video_depth":false}}
{"frame":5725,"timestamp":{"delta_seconds":0.05000000074505806,"elapsed_seconds":58.048189288936555},"control":{"throttle":0.75,"steer":0.14890973269939423,"brake":0.0,"hand_brake":false,"reverse":false,"manual_gear_shift":false,"gear":0},"transform":{"location":{"x":-90.5477294921875,"y":12.802483558654785,"z":0.0020293425768613815},"rotation":{"pitch":-0.028966831043362617,"yaw":-176.59010314941406,"roll":-0.02545165829360485}},"velocity":{"x":-2.11631441116333,"y":-0.32694339752197266,"z":0.00016418457380495965},"angular_velocity":{"x":0.026885224506258965,"y":0.16007159650325775,"z":6.9875922203063965},"acceleration":{"x":-0.22233963012695312,"y":-0.4158836603164673,"z":-0.0016166683053597808},"speed_mps":2.141419785805057,"speed_kph":7.709111228898205,"speed_limit_kph":30.0,"collisions_this_frame":[],"waypoint":{"x":-90.54918670654297,"y":12.932384490966797,"z":0.0},"lane_deviation_m":0.1299249529838562,"lane_width":3.5,"goal":{"x":79.05529022216797,"y":69.8227767944336,"z":0.5999999642372131},"fault":{"name":"tire_pressure_imbalance","severity":1.0},"capture_flags":{"save_rgb":true,"save_depth":false,"video_rgb":true,"video_depth":false}}
{"frame":5726,"timestamp":{"delta_seconds":0.05000000074505806,"elapsed_seconds":58.09818928968161},"control":{"throttle":0.75,"steer":0.15642330050468445,"brake":0.0,"hand_brake":false,"reverse":false,"manual_gear_shift":false,"gear":0},"transform":{"location":{"x":-90.65572357177734,"y":12.78741455078125,"z":0.001982460031285882},"rotation":{"pitch":-0.019869018346071243,"yaw":-176.2288818359375,"roll":-0.023895256221294403}},"velocity":{"x":-2.1929872035980225,"y":-0.3551997244358063,"z":0.00011054992501158267},"angular_velocity":{"x":0.0289328470826149,"y":0.20069508254528046,"z":7.335352897644043},"acceleration":{"x":-1.5334558486938477,"y":-0.5651265382766724,"z":-0.0010726929176598787},"speed_mps":2.221566954112622,"speed_kph":7.997641034805439,"speed_limit_kph":30.0,"collisions_this_frame":[],"waypoint":{"x":-90.6573486328125,"y":12.932084083557129,"z":0.0},"lane_deviation_m":0.14469224214553833,"lane_width":3.5,"goal":{"x":79.05529022216797,"y":69.8227767944336,"z":0.5999999642372131},"fault":{"name":"tire_pressure_imbalance","severity":1.0},"capture_flags":{"save_rgb":true,"save_depth":false,"video_rgb":true,"video_depth":false}}
{"frame":5727,"timestamp":{"delta_seconds":0.05000000074505806,"elapsed_seconds":58.14818929042667},"control":{"throttle":0.75,"steer":0.15642330050468445,"brake":0.0,"hand_brake":false,"reverse":false,"manual_gear_shift":false,"gear":0},"transform":{"location":{"x":-90.76985168457031,"y":12.770147323608398,"z":0.00304660783149302},"rotation":{"pitch":-0.05722332000732422,"yaw":-175.841796875,"roll":-0.11755368858575821}},"velocity":{"x":-2.3632266521453857,"y":-0.38576242327690125,"z":0.03918982297182083},"angular_velocity":{"x":-3.827305793762207,"y":-2.206106424331665,"z":8.053092002868652},"acceleration":{"x":-3.4047889709472656,"y":-0.6112539768218994,"z":0.7815854549407959},"speed_mps":2.3948254004931795,"speed_kph":8.621371441775446,"speed_limit_kph":30.0,"collisions_this_frame":[],"waypoint":{"x":-90.75770568847656,"y":12.912527084350586,"z":0.0},"lane_deviation_m":0.14292936027050018,"lane_width":3.5,"goal":{"x":79.05529022216797,"y":69.8227767944336,"z":0.5999999642372131},"fault":{"name":"tire_pressure_imbalance","severity":1.0},"capture_flags":{"save_rgb":true,"save_depth":false,"video_rgb":true,"video_depth":false}}
{"frame":5728,"timestamp":{"delta_seconds":0.05000000074505806,"elapsed_seconds":58.19818929117173},"control":{"throttle":0.75,"steer":0.17387792468070984,"brake":0.0,"hand_brake":false,"reverse":false,"manual_gear_shift":false,"gear":0},"transform":{"location":{"x":-90.89275360107422,"y":12.750593185424805,"z":0.004934883210808039},"rotation":{"pitch":-0.11795052886009216,"yaw":-175.4001007080078,"roll":-0.2331237941980362}},"velocity":{"x":-2.5361685752868652,"y":-0.4548054337501526,"z":0.0339927077293396},"angular_velocity":{"x":-2.6083717346191406,"y":-1.6133836507797241,"z":9.214165687561035},"acceleration":{"x":-3.45883846282959,"y":-1.3808602094650269,"z":-0.10394230484962463},"speed_mps":2.5768497296156103,"speed_kph":9.276659026616198,"speed_limit_kph":30.0,"collisions_this_frame":[],"waypoint":{"x":-90.86792755126953,"y":12.906044006347656,"z":0.0},"lane_deviation_m":0.1574980765581131,"lane_width":3.5,"goal":{"x":79.05529022216797,"y":69.8227767944336,"z":0.5999999642372131},"fault":{"name":"tire_pressure_imbalance","severity":1.0},"capture_flags":{"save_rgb":true,"save_depth":false,"video_rgb":true,"video_depth":false}}
{"frame":5729,"timestamp":{"delta_seconds":0.05000000074505806,"elapsed_seconds":58.24818929191679},"control":{"throttle":0.75,"steer":0.17387792468070984,"brake":0.0,"hand_brake":false,"reverse":false,"manual_gear_shift":false,"gear":0},"transform":{"location":{"x":-91.02654266357422,"y":12.728251457214355,"z":0.00531986216083169},"rotation":{"pitch":-0.11362019181251526,"yaw":-174.90093994140625,"roll":-0.23342891037464142}},"velocity":{"x":-2.7662529945373535,"y":-0.5353387594223022,"z":0.01826765015721321},"angular_velocity":{"x":-1.4897631406784058,"y":-0.7373846769332886,"z":10.267725944519043},"acceleration":{"x":-4.601688385009766,"y":-1.6106665134429932,"z":-0.31450116634368896},"speed_mps":2.8176367622830574,"speed_kph":10.143492344219007,"speed_limit_kph":30.0,"collisions_this_frame":[],"waypoint":{"x":-90.98792266845703,"y":12.89801025390625,"z":0.0},"lane_deviation_m":0.1741776466369629,"lane_width":3.5,"goal":{"x":79.05529022216797,"y":69.8227767944336,"z":0.5999999642372131},"fault":{"name":"tire_pressure_imbalance","severity":1.0},"capture_flags":{"save_rgb":true,"save_depth":false,"video_rgb":true,"video_depth":false}}
{"frame":5730,"timestamp":{"delta_seconds":0.05000000074505806,"elapsed_seconds":58.298189292661846},"control":{"throttle":0.75,"steer":0.18382996320724487,"brake":0.0,"hand_brake":false,"reverse":false,"manual_gear_shift":false,"gear":0},"transform":{"location":{"x":-91.1722183227539,"y":12.702576637268066,"z":0.003390350379049778},"rotation":{"pitch":-0.018912792205810547,"yaw":-174.3387451171875,"roll":-0.078125}},"velocity":{"x":-2.978480100631714,"y":-0.6430128812789917,"z":-0.03138730302453041},"angular_velocity":{"x":2.310284376144409,"y":2.059340476989746,"z":11.623235702514648},"acceleration":{"x":-4.244542121887207,"y":-2.153482437133789,"z":-0.9930990934371948},"speed_mps":3.0472601526848617,"speed_kph":10.970136549665503,"speed_limit_kph":30.0,"collisions_this_frame":[],"waypoint":{"x":-91.11858367919922,"y":12.888100624084473,"z":0.0},"lane_deviation_m":0.19315102696418762,"lane_width":3.5,"goal":{"x":79.05529022216797,"y":69.8227767944336,"z":0.5999999642372131},"fault":{"name":"tire_pressure_imbalance","severity":1.0},"capture_flags":{"save_rgb":true,"save_depth":false,"video_rgb":true,"video_depth":false}}
{"frame":5731,"timestamp":{"delta_seconds":0.05000000074505806,"elapsed_seconds":58.348189293406904},"control":{"throttle":0.75,"steer":0.18382996320724487,"brake":0.0,"hand_brake":false,"reverse":false,"manual_gear_shift":false,"gear":0},"transform":{"location":{"x":-91.32866668701172,"y":12.67197322845459,"z":0.0020610808860510588},"rotation":{"pitch":0.032279472798109055,"yaw":-173.7244110107422,"roll":-0.028106683865189552}},"velocity":{"x":-3.206665515899658,"y":-0.7208753228187561,"z":-0.014779957942664623},"angular_velocity":{"x":0.34198135137557983,"y":0.6948383450508118,"z":12.7064847946167},"acceleration":{"x":-4.563708305358887,"y":-1.557248830795288,"z":0.33214688301086426},"speed_mps":3.286728374701179,"speed_kph":11.832222148924245,"speed_limit_kph":30.0,"collisions_this_frame":[],"waypoint":{"x":-91.25898742675781,"y":12.876100540161133,"z":0.0},"lane_deviation_m":0.2157021313905716,"lane_width":3.5,"goal":{"x":79.05529022216797,"y":69.8227767944336,"z":0.5999999642372131},"fault":{"name":"tire_pressure_imbalance","severity":1.0},"capture_flags":{"save_rgb":true,"save_depth":false,"video_rgb":true,"video_depth":false}}
{"frame":5732,"timestamp":{"delta_seconds":0.05000000074505806,"elapsed_seconds":58.39818929415196},"control":{"throttle":0.0,"steer":-0.003951364662498236,"brake":1.0,"hand_brake":false,"reverse":false,"manual_gear_shift":false,"gear":0},"transform":{"location":{"x":-91.49668884277344,"y":12.643622398376465,"z":0.0014993285294622183},"rotation":{"pitch":0.050017472356557846,"yaw":-173.3646240234375,"roll":0.008457876741886139}},"velocity":{"x":-3.4343221187591553,"y":-0.5197054743766785,"z":-0.00617496483027935},"angular_velocity":{"x":0.8396442532539368,"y":0.2885257601737976,"z":3.034822463989258},"acceleration":{"x":-4.553132057189941,"y":4.023396968841553,"z":0.17209985852241516},"speed_mps":3.473427748735551,"speed_kph":12.504339895447984,"speed_limit_kph":30.0,"collisions_this_frame":[],"waypoint":{"x":-91.51806640625,"y":12.850269317626953,"z":0.0},"lane_deviation_m":0.20775513350963593,"lane_width":3.5,"goal":{"x":79.05529022216797,"y":69.8227767944336,"z":0.5999999642372131},"fault":{"name":"tire_pressure_imbalance","severity":1.0},"capture_flags":{"save_rgb":true,"save_depth":false,"video_rgb":true,"video_depth":false}}
{"frame":5733,"timestamp":{"delta_seconds":0.05000000074505806,"elapsed_seconds":58.44818929489702},"control":{"throttle":0.0,"steer":-0.003951364662498236,"brake":1.0,"hand_brake":false,"reverse":false,"manual_gear_shift":false,"gear":0},"transform":{"location":{"x":-91.6708984375,"y":12.621207237243652,"z":0.0013285827590152621},"rotation":{"pitch":0.050338491797447205,"yaw":-173.32028198242188,"roll":0.033955689519643784}},"velocity":{"x":-3.4933900833129883,"y":-0.43119674921035767,"z":-0.0019256019731983542},"angular_velocity":{"x":0.2829669713973999,"y":-0.06443777680397034,"z":0.1670359969139099},"acceleration":{"x":-1.1813592910766602,"y":1.770174503326416,"z":0.08498725295066833},"speed_mps":3.519901791053561,"speed_kph":12.671646447792819,"speed_limit_kph":30.0,"collisions_this_frame":[],"waypoint":{"x":-91.6734390258789,"y":12.832474708557129,"z":0.0},"lane_deviation_m":0.21128693222999573,"lane_width":3.5,"goal":{"x":79.05529022216797,"y":69.8227767944336,"z":0.5999999642372131},"fault":{"name":"tire_pressure_imbalance","severity":1.0},"capture_flags":{"save_rgb":true,"save_depth":false,"video_rgb":true,"video_depth":false}}
{"frame":5734,"timestamp":{"delta_seconds":0.05000000074505806,"elapsed_seconds":58.49818929564208},"control":{"throttle":0.0,"steer":0.014452653005719185,"brake":1.0,"hand_brake":false,"reverse":false,"manual_gear_shift":false,"gear":0},"transform":{"location":{"x":-91.84326934814453,"y":12.599812507629395,"z":0.0013581847306340933},"rotation":{"pitch":0.039922453463077545,"yaw":-173.28330993652344,"roll":0.032947640866041183}},"velocity":{"x":-3.404387950897217,"y":-0.42925113439559937,"z":2.2840498786536045e-05},"angular_velocity":{"x":-0.07691322267055511,"y":-0.279518723487854,"z":0.9230693578720093},"acceleration":{"x":1.7800426483154297,"y":0.038912296295166016,"z":0.038968849927186966},"speed_mps":3.4313428649897038,"speed_kph":12.352834313962934,"speed_limit_kph":30.0,"collisions_this_frame":[],"waypoint":{"x":-91.8268814086914,"y":12.813199043273926,"z":0.0},"lane_deviation_m":0.21401920914649963,"lane_width":3.5,"goal":{"x":79.05529022216797,"y":69.8227767944336,"z":0.5999999642372131},"fault":{"name":"tire_pressure_imbalance","severity":1.0},"capture_flags":{"save_rgb":true,"save_depth":false,"video_rgb":true,"video_depth":false}}
{"frame":5735,"timestamp":{"delta_seconds":0.05000000074505806,"elapsed_seconds":58.548189296387136},"control":{"throttle":0.0,"steer":0.014452653005719185,"brake":1.0,"hand_brake":false,"reverse":false,"manual_gear_shift":false,"gear":0},"transform":{"location":{"x":-92.00883483886719,"y":12.579055786132812,"z":0.0014764022780582309},"rotation":{"pitch":0.024445245042443275,"yaw":-173.2335662841797,"roll":0.026138458400964737}},"velocity":{"x":-3.2466847896575928,"y":-0.41334444284439087,"z":0.0007867526728659868},"angular_velocity":{"x":-0.10107969492673874,"y":-0.3354432284832001,"z":1.014042854309082},"acceleration":{"x":3.1540632247924805,"y":0.3181338310241699,"z":0.015278243459761143},"speed_mps":3.2728911333565733,"speed_kph":11.782408080083664,"speed_limit_kph":30.0,"collisions_this_frame":[],"waypoint":{"x":-91.97408294677734,"y":12.793110847473145,"z":0.0},"lane_deviation_m":0.2168627232313156,"lane_width":3.5,"goal":{"x":79.05529022216797,"y":69.8227767944336,"z":0.5999999642372131},"fault":{"name":"tire_pressure_imbalance","severity":1.0},"capture_flags":{"save_rgb":true,"save_depth":false,"video_rgb":true,"video_depth":false}}
{"frame":5736,"timestamp":{"delta_seconds":0.05000000074505806,"elapsed_seconds":58.598189297132194},"control":{"throttle":0.0,"steer":0.014452653005719185,"brake":1.0,"hand_brake":false,"reverse":false,"manual_gear_shift":false,"gear":0},"transform":{"location":{"x":-92.165283203125,"y":12.559305191040039,"z":0.0016170501476153731},"rotation":{"pitch":0.008414792828261852,"yaw":-173.18450927734375,"roll":0.019917424768209457}},"velocity":{"x":-3.050507068634033,"y":-0.39089998602867126,"z":0.000981340417638421},"angular_velocity":{"x":-0.07412365078926086,"y":-0.32598593831062317,"z":0.9536870718002319},"acceleration":{"x":3.9235544204711914,"y":0.4488891363143921,"z":0.0038917548954486847},"speed_mps":3.0754507210964106,"speed_kph":11.071622595947078,"speed_limit_kph":30.0,"collisions_this_frame":[],"waypoint":{"x":-92.11299133300781,"y":12.772712707519531,"z":0.0},"lane_deviation_m":0.21972671151161194,"lane_width":3.5,"goal":{"x":79.05529022216797,"y":69.8227767944336,"z":0.5999999642372131},"fault":{"name":"tire_pressure_imbalance","severity":1.0},"capture_flags":{"save_rgb":true,"save_depth":false,"video_rgb":true,"video_depth":false}}
{"frame":5737,"timestamp":{"delta_seconds":0.05000000074505806,"elapsed_seconds":58.64818929787725},"control":{"throttle":0.0,"steer":0.014452653005719185,"brake":1.0,"hand_brake":false,"reverse":false,"manual_gear_shift":false,"gear":0},"transform":{"location":{"x":-92.31190490722656,"y":12.54065990447998,"z":0.0017474364722147584},"rotation":{"pitch":-0.005614415276795626,"yaw":-173.13784790039062,"roll":0.014967584982514381}},"velocity":{"x":-2.855118989944458,"y":-0.3690331280231476,"z":0.0009230708819814026},"angular_velocity":{"x":-0.059496939182281494,"y":-0.26433295011520386,"z":0.9192792773246765},"acceleration":{"x":3.907761573791504,"y":0.43733716011047363,"z":-0.0011653907131403685},"speed_mps":2.8788696997918928,"speed_kph":10.363930919250814,"speed_limit_kph":30.0,"collisions_this_frame":[],"waypoint":{"x":-92.24300384521484,"y":12.752349853515625,"z":0.0},"lane_deviation_m":0.22262759506702423,"lane_width":3.5,"goal":{"x":79.05529022216797,"y":69.8227767944336,"z":0.5999999642372131},"fault":{"name":"tire_pressure_imbalance","severity":1.0},"capture_flags":{"save_rgb":true,"save_depth":false,"video_rgb":true,"video_depth":false}}
{"frame":5738,"timestamp":{"delta_seconds":0.05000000074505806,"elapsed_seconds":58.69818929862231},"control":{"throttle":0.060298509895801544,"steer":0.2471379190683365,"brake":0.0,"hand_brake":false,"reverse":false,"manual_gear_shift":false,"gear":0},"transform":{"location":{"x":-92.44850158691406,"y":12.520651817321777,"z":0.0018527983920648694},"rotation":{"pitch":-0.016508566215634346,"yaw":-172.97012329101562,"roll":-0.0017089846078306437}},"velocity":{"x":-2.65529727935791,"y":-0.4651564657688141,"z":0.0007686710450798273},"angular_velocity":{"x":-0.4351101815700531,"y":-0.24043571949005127,"z":5.420786380767822},"acceleration":{"x":3.996434211730957,"y":-1.92246675491333,"z":-0.0030879967380315065},"speed_mps":2.695732696367952,"speed_kph":9.704637706924629,"speed_limit_kph":30.0,"collisions_this_frame":[],"waypoint":{"x":-92.47122192382812,"y":12.713611602783203,"z":0.0},"lane_deviation_m":0.19430163502693176,"lane_width":3.5,"goal":{"x":79.05529022216797,"y":69.8227767944336,"z":0.5999999642372131},"fault":{"name":"tire_pressure_imbalance","severity":1.0},"capture_flags":{"save_rgb":true,"save_depth":false,"video_rgb":true,"video_depth":false}}
{"frame":5739,"timestamp":{"delta_seconds":0.05000000074505806,"elapsed_seconds":58.74818929936737},"control":{"throttle":0.060298509895801544,"steer":0.2471379190683365,"brake":0.0,"hand_brake":false,"reverse":false,"manual_gear_shift":false,"gear":0},"transform":{"location":{"x":-92.57697296142578,"y":12.494756698608398,"z":0.001921424875035882},"rotation":{"pitch":-0.022525962442159653,"yaw":-172.5072021484375,"roll":-0.03097533993422985}},"velocity":{"x":-2.5110485553741455,"y":-0.637219250202179,"z":0.0006009864737279713},"angular_velocity":{"x":-0.592056393623352,"y":-0.1529874950647354,"z":11.672711372375488},"acceleration":{"x":2.884974479675293,"y":-3.441255569458008,"z":-0.00335369142703712},"speed_mps":2.590639608563791,"speed_kph":9.326302590829647,"speed_limit_kph":30.0,"collisions_this_frame":[],"waypoint":{"x":-92.58601379394531,"y":12.692676544189453,"z":0.0},"lane_deviation_m":0.19813553988933563,"lane_width":3.5,"goal":{"x":79.05529022216797,"y":69.8227767944336,"z":0.5999999642372131},"fault":{"name":"tire_pressure_imbalance","severity":1.0},"capture_flags":{"save_rgb":true,"save_depth":false,"video_rgb":true,"video_depth":false}}
{"frame":5740,"timestamp":{"delta_seconds":0.05000000074505806,"elapsed_seconds":58.798189300112426},"control":{"throttle":0.75,"steer":0.22275769710540771,"brake":0.0,"hand_brake":false,"reverse":false,"manual_gear_shift":false,"gear":0},"transform":{"location":{"x":-92.70111083984375,"y":12.464853286743164,"z":0.0019507979741320014},"rotation":{"pitch":-0.02313384972512722,"yaw":-171.9187469482422,"roll":-0.0428466796875}},"velocity":{"x":-2.4551944732666016,"y":-0.678178071975708,"z":0.0004519462527241558},"angular_velocity":{"x":-0.06199059262871742,"y":0.011149692349135876,"z":11.707387924194336},"acceleration":{"x":1.117081642150879,"y":-0.819176435470581,"z":-0.0029808045364916325},"speed_mps":2.5471367460587917,"speed_kph":9.169692285811651,"speed_limit_kph":30.0,"collisions_this_frame":[],"waypoint":{"x":-92.69762420654297,"y":12.67138957977295,"z":0.0},"lane_deviation_m":0.2065749317407608,"lane_width":3.5,"goal":{"x":79.05529022216797,"y":69.8227767944336,"z":0.5999999642372131},"fault":{"name":"tire_pressure_imbalance","severity":1.0},"capture_flags":{"save_rgb":true,"save_depth":false,"video_rgb":true,"video_depth":false}}
{"frame":5741,"timestamp":{"delta_seconds":0.05000000074505806,"elapsed_seconds":58.848189300857484},"control":{"throttle":0.75,"steer":0.22275769710540771,"brake":0.0,"hand_brake":false,"reverse":false,"manual_gear_shift":false,"gear":0},"transform":{"location":{"x":-92.82427215576172,"y":12.433094024658203,"z":0.0019499969203025103},"rotation":{"pitch":-0.019773395732045174,"yaw":-171.32080078125,"roll":-0.0429687462747097}},"velocity":{"x":-2.459993600845337,"y":-0.7230198383331299,"z":0.00033108709612861276},"angular_velocity":{"x":-0.00725942337885499,"y":0.09803108870983124,"z":12.14377498626709},"acceleration":{"x":-0.09598255157470703,"y":-0.8968353271484375,"z":-0.0024171830154955387},"speed_mps":2.564044912329333,"speed_kph":9.230561684385599,"speed_limit_kph":30.0,"collisions_this_frame":[],"waypoint":{"x":-92.80852508544922,"y":12.649316787719727,"z":0.0},"lane_deviation_m":0.21680419147014618,"lane_width":3.5,"goal":{"x":79.05529022216797,"y":69.8227767944336,"z":0.5999999642372131},"fault":{"name":"tire_pressure_imbalance","severity":1.0},"capture_flags":{"save_rgb":true,"save_depth":false,"video_rgb":true,"video_depth":false}}
{"frame":5742,"timestamp":{"delta_seconds":0.05000000074505806,"elapsed_seconds":58.89818930160254},"control":{"throttle":0.75,"steer":0.21807588636875153,"brake":0.0,"hand_brake":false,"reverse":false,"manual_gear_shift":false,"gear":0},"transform":{"location":{"x":-92.94989013671875,"y":12.399383544921875,"z":0.0019237136002629995},"rotation":{"pitch":-0.01299784891307354,"yaw":-170.7200164794922,"roll":-0.0396423302590847}},"velocity":{"x":-2.537091016769409,"y":-0.7623662948608398,"z":0.00023834228341002017},"angular_velocity":{"x":0.056679628789424896,"y":0.17029818892478943,"z":12.040933609008789},"acceleration":{"x":-1.5419483184814453,"y":-0.7869291305541992,"z":-0.0018548963125795126},"speed_mps":2.649157083247221,"speed_kph":9.536965499689995,"speed_limit_kph":30.0,"collisions_this_frame":[],"waypoint":{"x":-92.92169189453125,"y":12.625845909118652,"z":0.0},"lane_deviation_m":0.22821928560733795,"lane_width":3.5,"goal":{"x":79.05529022216797,"y":69.8227767944336,"z":0.5999999642372131},"fault":{"name":"tire_pressure_imbalance","severity":1.0},"capture_flags":{"save_rgb":true,"save_depth":false,"video_rgb":true,"video_depth":false}}
{"frame":5743,"timestamp":{"delta_seconds":0.05000000074505806,"elapsed_seconds":58.9481893023476},"control":{"throttle":0.75,"steer":0.21807588636875153,"brake":0.0,"hand_brake":false,"reverse":false,"manual_gear_shift":false,"gear":0},"transform":{"location":{"x":-93.08155059814453,"y":12.362625122070312,"z":0.0018768310546875},"rotation":{"pitch":-0.003353622741997242,"yaw":-170.09071350097656,"roll":-0.038665760308504105}},"velocity":{"x":-2.680828809738159,"y":-0.840672492980957,"z":0.0001686477626208216},"angular_velocity":{"x":-0.055429454892873764,"y":0.2041272222995758,"z":12.972734451293945},"acceleration":{"x":-2.874755859375,"y":-1.5661239624023438,"z":-0.0013938904739916325},"speed_mps":2.809550386809071,"speed_kph":10.114381392512657,"speed_limit_kph":30.0,"collisions_this_frame":[],"waypoint":{"x":-93.04033660888672,"y":12.600207328796387,"z":0.0},"lane_deviation_m":0.2411377727985382,"lane_width":3.5,"goal":{"x":79.05529022216797,"y":69.8227767944336,"z":0.5999999642372131},"fault":{"name":"tire_pressure_imbalance","severity":1.0},"capture_flags":{"save_rgb":true,"save_depth":false,"video_rgb":true,"video_depth":false}}
{"frame":5744,"timestamp":{"delta_seconds":0.05000000074505806,"elapsed_seconds":58.99818930309266},"control":{"throttle":0.75,"steer":0.2246726155281067,"brake":0.0,"hand_brake":false,"reverse":false,"manual_gear_shift":false,"gear":0},"transform":{"location":{"x":-93.22135162353516,"y":12.321784019470215,"z":0.0018212890718132257},"rotation":{"pitch":0.007260490674525499,"yaw":-169.41220092773438,"roll":-0.0402221605181694}},"velocity":{"x":-2.851313352584839,"y":-0.931380033493042,"z":0.00011867522698594257},"angular_velocity":{"x":-0.059602316468954086,"y":0.2033294141292572,"z":13.910921096801758},"acceleration":{"x":-3.4096908569335938,"y":-1.8141508102416992,"z":-0.00099945068359375},"speed_mps":2.9995760726312484,"speed_kph":10.798473861472495,"speed_limit_kph":30.0,"collisions_this_frame":[],"waypoint":{"x":-93.2740707397461,"y":12.546581268310547,"z":0.0},"lane_deviation_m":0.2309034913778305,"lane_width":3.5,"goal":{"x":79.05529022216797,"y":69.8227767944336,"z":0.5999999642372131},"fault":{"name":"tire_pressure_imbalance","severity":1.0},"capture_flags":{"save_rgb":true,"save_depth":false,"video_rgb":true,"video_depth":false}}
{"frame":5745,"timestamp":{"delta_seconds":0.05000000074505806,"elapsed_seconds":59.04818930383772},"control":{"throttle":0.75,"steer":0.2246726155281067,"brake":0.0,"hand_brake":false,"reverse":false,"manual_gear_shift":false,"gear":0},"transform":{"location":{"x":-93.37078094482422,"y":12.276079177856445,"z":0.0017649078508839011},"rotation":{"pitch":0.01773116923868656,"yaw":-168.67974853515625,"roll":-0.0430603064596653}},"velocity":{"x":-3.052520275115967,"y":-1.043196439743042,"z":7.825851207599044e-05},"angular_velocity":{"x":-0.11576060205698013,"y":0.18700221180915833,"z":15.12381362915039},"acceleration":{"x":-4.024138450622559,"y":-2.236328125,"z":-0.0008083343273028731},"speed_mps":3.225854746886631,"speed_kph":11.613077088791872,"speed_limit_kph":30.0,"collisions_this_frame":[],"waypoint":{"x":-93.40917205810547,"y":12.513683319091797,"z":0.0},"lane_deviation_m":0.2406921684741974,"lane_width":3.5,"goal":{"x":79.05529022216797,"y":69.8227767944336,"z":0.5999999642372131},"fault":{"name":"tire_pressure_imbalance","severity":1.0},"capture_flags":{"save_rgb":true,"save_depth":false,"video_rgb":true,"video_depth":false}}
