{"frame":1294,"timestamp":{"delta_seconds":0.05000000074505806,"elapsed_seconds":16.4588355794549},"control":{"throttle":0.75,"steer":0.0,"brake":0.0,"hand_brake":false,"reverse":false,"manual_gear_shift":false,"gear":0},"transform":{"location":{"x":-64.64484405517578,"y":24.471010208129883,"z":0.48239994049072266},"rotation":{"pitch":0.0,"yaw":0.15919795632362366,"roll":0.0}},"velocity":{"x":0.0,"y":0.0,"z":-1.470000147819519},"angular_velocity":{"x":0.0,"y":0.0,"z":0.0},"acceleration":{"x":0.0,"y":0.0,"z":-9.80000114440918},"speed_mps":1.470000147819519,"speed_kph":5.2920005321502686,"speed_limit_kph":30.0,"collisions_this_frame":[],"waypoint":{"x":-64.64469146728516,"y":24.504404067993164,"z":0.0},"lane_deviation_m":0.4835544228553772,"lane_width":3.5,"goal":{"x":32.992610931396484,"y":-67.89999389648438,"z":0.5999999642372131},"fault":{"name":"tire_pressure_imbalance","severity":1.0},"capture_flags":{"save_rgb":true,"save_depth":false,"video_rgb":true,"video_depth":false}}
{"frame":1295,"timestamp":{"delta_seconds":0.05000000074505806,"elapsed_seconds":16.508835580199957},"control":{"throttle":0.75,"steer":0.0,"brake":0.0,"hand_brake":false,"reverse":false,"manual_gear_shift":false,"gear":0},"transform":{"location":{"x":-64.64484405517578,"y":24.471010208129883,"z":0.394199937582016},"rotation":{"pitch":0.0,"yaw":0.15919795632362366,"roll":0.0}},"velocity":{"x":0.0,"y":0.0,"z":-1.9600002765655518},"angular_velocity":{"x":0.0,"y":0.0,"z":0.0},"acceleration":{"x":0.0,"y":0.0,"z":-9.800003051757812},"speed_mps":1.9600002765655518,"speed_kph":7.056000995635986,"speed_limit_kph":30.0,"collisions_this_frame":[],"waypoint":{"x":-64.64469146728516,"y":24.504404067993164,"z":0.0},"lane_deviation_m":0.39561188220977783,"lane_width":3.5,"goal":{"x":32.992610931396484,"y":-67.89999389648438,"z":0.5999999642372131},"fault":{"name":"tire_pressure_imbalance","severity":1.0},"capture_flags":{"save_rgb":true,"save_depth":false,"video_rgb":true,"video_depth":false}}
{"frame":1296,"timestamp":{"delta_seconds":0.05000000074505806,"elapsed_seconds":16.558835580945015},"control":{"throttle":0.75,"steer":0.0,"brake":0.0,"hand_brake":false,"reverse":false,"manual_gear_shift":false,"gear":0},"transform":{"location":{"x":-64.64484405517578,"y":24.471010208129883,"z":0.28150004148483276},"rotation":{"pitch":0.0,"yaw":0.15919795632362366,"roll":0.0}},"velocity":{"x":0.0,"y":0.0,"z":-2.450000286102295},"angular_velocity":{"x":0.0,"y":0.0,"z":0.0},"acceleration":{"x":0.0,"y":0.0,"z":-9.800000190734863},"speed_mps":2.450000286102295,"speed_kph":8.820001029968262,"speed_limit_kph":30.0,"collisions_this_frame":[],"waypoint":{"x":-64.64469146728516,"y":24.504404067993164,"z":0.0},"lane_deviation_m":0.2834738790988922,"lane_width":3.5,"goal":{"x":32.992610931396484,"y":-67.89999389648438,"z":0.5999999642372131},"fault":{"name":"tire_pressure_imbalance","severity":1.0},"capture_flags":{"save_rgb":true,"save_depth":false,"video_rgb":true,"video_depth":false}}
{"frame":1297,"timestamp":{"delta_seconds":0.05000000074505806,"elapsed_seconds":16.608835581690073},"control":{"throttle":0.75,"steer":0.0,"brake":0.0,"hand_brake":false,"reverse":false,"manual_gear_shift":false,"gear":0},"transform":{"location":{"x":-64.64484405517578,"y":24.471010208129883,"z":0.1442999690771103},"rotation":{"pitch":0.0,"yaw":0.15919795632362366,"roll":0.0}},"velocity":{"x":0.0,"y":0.0,"z":-2.93999981880188},"angular_velocity":{"x":0.0,"y":0.0,"z":0.0},"acceleration":{"x":0.0,"y":0.0,"z":-9.7999906539917},"speed_mps":2.93999981880188,"speed_kph":10.583999347686769,"speed_limit_kph":30.0,"collisions_this_frame":[],"waypoint":{"x":-64.64469146728516,"y":24.504404067993164,"z":0.0},"lane_deviation_m":0.1481136530637741,"lane_width":3.5,"goal":{"x":32.992610931396484,"y":-67.89999389648438,"z":0.5999999642372131},"fault":{"name":"tire_pressure_imbalance","severity":1.0},"capture_flags":{"save_rgb":true,"save_depth":false,"video_rgb":true,"video_depth":false}}
{"frame":1298,"timestamp":{"delta_seconds":0.05000000074505806,"elapsed_seconds":16.65883558243513},"control":{"throttle":0.75,"steer":0.0,"brake":0.0,"hand_brake":false,"reverse":false,"manual_gear_shift":false,"gear":0},"transform":{"location":{"x":-64.64484405517578,"y":24.471010208129883,"z":0.008085555396974087},"rotation":{"pitch":0.0,"yaw":0.15919795632362366,"roll":0.0}},"velocity":{"x":-5.419469744083472e-07,"y":-8.412019269599114e-06,"z":-2.06459641456604},"angular_velocity":{"x":0.0008732697460800409,"y":-0.0008259261958301067,"z":-2.5191848607164502e-08},"acceleration":{"x":-1.0838939488166943e-05,"y":-0.00016824038175400347,"z":17.508068084716797},"speed_mps":2.064596414583248,"speed_kph":7.432547092499693,"speed_limit_kph":30.0,"collisions_this_frame":[],"waypoint":{"x":-64.64469146728516,"y":24.504404067993164,"z":0.0},"lane_deviation_m":0.034359123557806015,"lane_width":3.5,"goal":{"x":32.992610931396484,"y":-67.89999389648438,"z":0.5999999642372131},"fault":{"name":"tire_pressure_imbalance","severity":1.0},"capture_flags":{"save_rgb":true,"save_depth":false,"video_rgb":true,"video_depth":false}}
{"frame":1299,"timestamp":{"delta_seconds":0.05000000074505806,"elapsed_seconds":16.70883558318019},"control":{"throttle":0.75,"steer":0.0,"brake":0.0,"hand_brake":false,"reverse":false,"manual_gear_shift":false,"gear":0},"transform":{"location":{"x":-64.64484405517578,"y":24.471010208129883,"z":-0.05158817023038864},"rotation":{"pitch":0.0,"yaw":0.15919795632362366,"roll":0.0}},"velocity":{"x":-1.7941823671208113e-07,"y":-1.4597358131140936e-06,"z":-0.7380887269973755},"angular_velocity":{"x":0.00017217978893313557,"y":-0.0002615972189232707,"z":2.631870721359064e-09},"acceleration":{"x":7.250574526551645e-06,"y":0.0001390456745866686,"z":26.530153274536133},"speed_mps":0.7380887269988408,"speed_kph":2.657119417195827,"speed_limit_kph":30.0,"collisions_this_frame":[],"waypoint":{"x":-64.64469146728516,"y":24.504404067993164,"z":0.0},"lane_deviation_m":0.061453334987163544,"lane_width":3.5,"goal":{"x":32.992610931396484,"y":-67.89999389648438,"z":0.5999999642372131},"fault":{"name":"tire_pressure_imbalance","severity":1.0},"capture_flags":{"save_rgb":true,"save_depth":false,"video_rgb":true,"video_depth":false}}
{"frame":1300,"timestamp":{"delta_seconds":0.05000000074505806,"elapsed_seconds":16.758835583925247},"control":{"throttle":0.75,"steer":0.0,"brake":0.0,"hand_brake":false,"reverse":false,"manual_gear_shift":false,"gear":0},"transform":{"location":{"x":-64.64484405517578,"y":24.471010208129883,"z":-0.06773189455270767},"rotation":{"pitch":0.0,"yaw":0.15919795632362366,"roll":0.0}},"velocity":{"x":-3.280591798215937e-08,"y":1.2364070300918684e-07,"z":-0.1120968759059906},"angular_velocity":{"x":4.701039506471716e-05,"y":-4.777070353156887e-05,"z":-3.4607359200578003e-09},"acceleration":{"x":2.9322463888092898e-06,"y":3.166752867400646e-05,"z":12.51983642578125},"speed_mps":0.11209687590606358,"speed_kph":0.40354875326182893,"speed_limit_kph":30.0,"collisions_this_frame":[],"waypoint":{"x":-64.64469146728516,"y":24.504404067993164,"z":0.0},"lane_deviation_m":0.07551676779985428,"lane_width":3.5,"goal":{"x":32.992610931396484,"y":-67.89999389648438,"z":0.5999999642372131},"fault":{"name":"tire_pressure_imbalance","severity":1.0},"capture_flags":{"save_rgb":true,"save_depth":false,"video_rgb":true,"video_depth":false}}
{"frame":1301,"timestamp":{"delta_seconds":0.05000000074505806,"elapsed_seconds":16.808835584670305},"control":{"throttle":0.75,"steer":0.0,"brake":0.0,"hand_brake":false,"reverse":false,"manual_gear_shift":false,"gear":0},"transform":{"location":{"x":-64.64484405517578,"y":24.471010208129883,"z":-0.06445319950580597},"rotation":{"pitch":0.0,"yaw":0.15919795632362366,"roll":0.0}},"velocity":{"x":5.457875928982503e-09,"y":8.52586623523166e-08,"z":0.15056157112121582},"angular_velocity":{"x":-4.805379285244271e-05,"y":7.451097189914435e-06,"z":3.2838367580723116e-09},"acceleration":{"x":7.652758426957007e-07,"y":-7.676408131374046e-07,"z":5.253169059753418},"speed_mps":0.15056157112124005,"speed_kph":0.5420216560364642,"speed_limit_kph":30.0,"collisions_this_frame":[],"waypoint":{"x":-64.64469146728516,"y":24.504404067993164,"z":0.0},"lane_deviation_m":0.07259055227041245,"lane_width":3.5,"goal":{"x":32.992610931396484,"y":-67.89999389648438,"z":0.5999999642372131},"fault":{"name":"tire_pressure_imbalance","severity":1.0},"capture_flags":{"save_rgb":true,"save_depth":false,"video_rgb":true,"video_depth":false}}
{"frame":1302,"timestamp":{"delta_seconds":0.05000000074505806,"elapsed_seconds":16.858835585415363},"control":{"throttle":0.75,"steer":0.0,"brake":0.0,"hand_brake":false,"reverse":false,"manual_gear_shift":false,"gear":0},"transform":{"location":{"x":-64.64484405517578,"y":24.471010208129883,"z":-0.05396205931901932},"rotation":{"pitch":0.0,"yaw":0.15919795632362366,"roll":0.0}},"velocity":{"x":1.620716538752731e-08,"y":1.847302257829142e-07,"z":0.23337243497371674},"angular_velocity":{"x":-4.269638520781882e-05,"y":2.1952277165837586e-05,"z":5.017054549583122e-10},"acceleration":{"x":2.1498578917089617e-07,"y":1.989431211768533e-06,"z":1.656217336654663},"speed_mps":0.23337243497379043,"speed_kph":0.8401407659056456,"speed_limit_kph":30.0,"collisions_this_frame":[],"waypoint":{"x":-64.64469146728516,"y":24.504404067993164,"z":0.0},"lane_deviation_m":0.06345925480127335,"lane_width":3.5,"goal":{"x":32.992610931396484,"y":-67.89999389648438,"z":0.5999999642372131},"fault":{"name":"tire_pressure_imbalance","severity":1.0},"capture_flags":{"save_rgb":true,"save_depth":false,"video_rgb":true,"video_depth":false}}
{"frame":1303,"timestamp":{"delta_seconds":0.05000000074505806,"elapsed_seconds":16.90883558616042},"control":{"throttle":0.75,"steer":0.0,"brake":0.0,"hand_brake":false,"reverse":false,"manual_gear_shift":false,"gear":0},"transform":{"location":{"x":-64.64484405517578,"y":24.471010208129883,"z":-0.04207824543118477},"rotation":{"pitch":0.0,"yaw":0.15919795632362366,"roll":0.0}},"velocity":{"x":2.3526395054318527e-08,"y":1.8543867552622828e-09,"z":0.23370592296123505},"angular_velocity":{"x":-1.3488269360095728e-05,"y":3.167600152664818e-05,"z":2.7403021518601633e-10},"acceleration":{"x":1.4638459333582432e-07,"y":-3.6575167996488744e-06,"z":0.006669759750366211},"speed_mps":0.23370592296123624,"speed_kph":0.8413413226604505,"speed_limit_kph":30.0,"collisions_this_frame":[],"waypoint":{"x":-64.64469146728516,"y":24.504404067993164,"z":0.0},"lane_deviation_m":0.05371919646859169,"lane_width":3.5,"goal":{"x":32.992610931396484,"y":-67.89999389648438,"z":0.5999999642372131},"fault":{"name":"tire_pressure_imbalance","severity":1.0},"capture_flags":{"save_rgb":true,"save_depth":false,"video_rgb":true,"video_depth":false}}
{"frame":1304,"timestamp":{"delta_seconds":0.05000000074505806,"elapsed_seconds":16.95883558690548},"control":{"throttle":0.75,"steer":0.0,"brake":0.0,"hand_brake":false,"reverse":false,"manual_gear_shift":false,"gear":0},"transform":{"location":{"x":-64.63247680664062,"y":24.471046447753906,"z":-0.031377408653497696},"rotation":{"pitch":0.014541472308337688,"yaw":0.15892018377780914,"roll":-6.103515261202119e-05}},"velocity":{"x":0.6032189130783081,"y":0.0016932974103838205,"z":0.2014356553554535},"angular_velocity":{"x":0.0018380200490355492,"y":-0.6498922109603882,"z":0.0004675326053984463},"acceleration":{"x":12.06437873840332,"y":0.03386591002345085,"z":-0.6454053521156311},"speed_mps":0.6359656025289233,"speed_kph":2.289476169104124,"speed_limit_kph":30.0,"collisions_this_frame":[],"waypoint":{"x":-64.63232421875,"y":24.504438400268555,"z":0.0},"lane_deviation_m":0.045821256935596466,"lane_width":3.5,"goal":{"x":32.992610931396484,"y":-67.89999389648438,"z":0.5999999642372131},"fault":{"name":"tire_pressure_imbalance","severity":1.0},"capture_flags":{"save_rgb":true,"save_depth":false,"video_rgb":true,"video_depth":false}}
{"frame":1305,"timestamp":{"delta_seconds":0.05000000074505806,"elapsed_seconds":17.008835587650537},"control":{"throttle":0.75,"steer":0.0,"brake":0.0,"hand_brake":false,"reverse":false,"manual_gear_shift":false,"gear":0},"transform":{"location":{"x":-64.58267974853516,"y":24.47118377685547,"z":-0.022708091884851456},"rotation":{"pitch":0.04654773697257042,"yaw":0.15889814496040344,"roll":-6.103514533606358e-05}},"velocity":{"x":1.2323728799819946,"y":0.0034191813319921494,"z":0.16076454520225525},"angular_velocity":{"x":0.0015348426532000303,"y":-0.5740026831626892,"z":0.0001668730255914852},"acceleration":{"x":12.58307933807373,"y":0.03451767936348915,"z":-0.8134222030639648},"speed_mps":1.242819313138553,"speed_kph":4.474149527298791,"speed_limit_kph":30.0,"collisions_this_frame":[],"waypoint":{"x":-64.58252716064453,"y":24.504575729370117,"z":0.0},"lane_deviation_m":0.04038196802139282,"lane_width":3.5,"goal":{"x":32.992610931396484,"y":-67.89999389648438,"z":0.5999999642372131},"fault":{"name":"tire_pressure_imbalance","severity":1.0},"capture_flags":{"save_rgb":true,"save_depth":false,"video_rgb":true,"video_depth":false}}
{"frame":1306,"timestamp":{"delta_seconds":0.05000000074505806,"elapsed_seconds":17.058835588395596},"control":{"throttle":0.75,"steer":0.0015694254543632269,"brake":0.0,"hand_brake":false,"reverse":false,"manual_gear_shift":false,"gear":0},"transform":{"location":{"x":-64.50173950195312,"y":24.471460342407227,"z":-0.01599578745663166},"rotation":{"pitch":0.07300788909196854,"yaw":0.16131675243377686,"roll":-0.000274658203125}},"velocity":{"x":1.7995421886444092,"y":0.006771662272512913,"z":0.12241862714290619},"angular_velocity":{"x":0.00490373931825161,"y":-0.3831014931201935,"z":0.06340794265270233},"acceleration":{"x":11.343385696411133,"y":0.06704962253570557,"z":-0.7669183611869812},"speed_mps":1.8037140195697867,"speed_kph":6.493370470451232,"speed_limit_kph":30.0,"collisions_this_frame":[],"waypoint":{"x":-64.50159454345703,"y":24.50480079650879,"z":0.0},"lane_deviation_m":0.036979347467422485,"lane_width":3.5,"goal":{"x":32.992610931396484,"y":-67.89999389648438,"z":0.5999999642372131},"fault":{"name":"tire_pressure_imbalance","severity":1.0},"capture_flags":{"save_rgb":true,"save_depth":false,"video_rgb":true,"video_depth":false}}
{"frame":1307,"timestamp":{"delta_seconds":0.05000000074505806,"elapsed_seconds":17.108835589140654},"control":{"throttle":0.75,"steer":0.0015694254543632269,"brake":0.0,"hand_brake":false,"reverse":false,"manual_gear_shift":false,"gear":0},"transform":{"location":{"x":-64.39684295654297,"y":24.471839904785156,"z":-0.010952414944767952},"rotation":{"pitch":0.08774743229150772,"yaw":0.16498686373233795,"roll":-0.00039672848652116954}},"velocity":{"x":2.243053674697876,"y":0.008659704588353634,"z":0.09030696749687195},"angular_velocity":{"x":0.001617195550352335,"y":-0.1798502504825592,"z":0.07756754010915756},"acceleration":{"x":8.870229721069336,"y":0.03776084631681442,"z":-0.6422331929206848},"speed_mps":2.2448875531833847,"speed_kph":8.081595191460185,"speed_limit_kph":30.0,"collisions_this_frame":[],"waypoint":{"x":-64.3967056274414,"y":24.50509262084961,"z":0.0},"lane_deviation_m":0.03501024842262268,"lane_width":3.5,"goal":{"x":32.992610931396484,"y":-67.89999389648438,"z":0.5999999642372131},"fault":{"name":"tire_pressure_imbalance","severity":1.0},"capture_flags":{"save_rgb":true,"save_depth":false,"video_rgb":true,"video_depth":false}}
{"frame":1308,"timestamp":{"delta_seconds":0.05000000074505806,"elapsed_seconds":17.15883558988571},"control":{"throttle":0.75,"steer":0.005013475194573402,"brake":0.0,"hand_brake":false,"reverse":false,"manual_gear_shift":false,"gear":0},"transform":{"location":{"x":-64.2746353149414,"y":24.47243881225586,"z":-0.007242278661578894},"rotation":{"pitch":0.09162697941064835,"yaw":0.17601260542869568,"roll":-0.001068115234375}},"velocity":{"x":2.5746068954467773,"y":0.015260166488587856,"z":0.06511127203702927},"angular_velocity":{"x":0.012303756549954414,"y":-0.027564726769924164,"z":0.263317734003067},"acceleration":{"x":6.631064414978027,"y":0.13200923800468445,"z":-0.5039138793945312},"speed_mps":2.5754752991456997,"speed_kph":9.27171107692452,"speed_limit_kph":30.0,"collisions_this_frame":[],"waypoint":{"x":-64.2745132446289,"y":24.50543212890625,"z":0.0},"lane_deviation_m":0.03377905115485191,"lane_width":3.5,"goal":{"x":32.992610931396484,"y":-67.89999389648438,"z":0.5999999642372131},"fault":{"name":"tire_pressure_imbalance","severity":1.0},"capture_flags":{"save_rgb":true,"save_depth":false,"video_rgb":true,"video_depth":false}}
{"frame":1309,"timestamp":{"delta_seconds":0.05000000074505806,"elapsed_seconds":17.20883559063077},"control":{"throttle":0.75,"steer":0.005013475194573402,"brake":0.0,"hand_brake":false,"reverse":false,"manual_gear_shift":false,"gear":0},"transform":{"location":{"x":-64.13702392578125,"y":24.473209381103516,"z":-0.004572105128318071},"rotation":{"pitch":0.09048634022474289,"yaw":0.19111022353172302,"roll":-0.0013732911320403218}},"velocity":{"x":2.868356227874756,"y":0.018312763422727585,"z":0.04613689333200455},"angular_velocity":{"x":0.003056993940845132,"y":0.048159461468458176,"z":0.3151262402534485},"acceleration":{"x":5.87498664855957,"y":0.06105193868279457,"z":-0.3794875741004944},"speed_mps":2.868785704826766,"speed_kph":10.32762853737636,"speed_limit_kph":30.0,"collisions_this_frame":[],"waypoint":{"x":-64.13691711425781,"y":24.505815505981445,"z":0.0},"lane_deviation_m":0.03292529284954071,"lane_width":3.5,"goal":{"x":32.992610931396484,"y":-67.89999389648438,"z":0.5999999642372131},"fault":{"name":"tire_pressure_imbalance","severity":1.0},"capture_flags":{"save_rgb":true,"save_depth":false,"video_rgb":true,"video_depth":false}}
{"frame":1310,"timestamp":{"delta_seconds":0.05000000074505806,"elapsed_seconds":17.258835591375828},"control":{"throttle":0.75,"steer":0.006240393500775099,"brake":0.0,"hand_brake":false,"reverse":false,"manual_gear_shift":false,"gear":0},"transform":{"location":{"x":-63.984886169433594,"y":24.474178314208984,"z":-0.0026822281070053577},"rotation":{"pitch":0.08747422695159912,"yaw":0.21078629791736603,"roll":-0.0017395018367096782}},"velocity":{"x":3.158330202102661,"y":0.023387368768453598,"z":0.032249849289655685},"angular_velocity":{"x":0.006079625803977251,"y":0.06400758028030396,"z":0.42639556527137756},"acceleration":{"x":5.7994794845581055,"y":0.10149210691452026,"z":-0.2777408957481384},"speed_mps":3.1585814359156474,"speed_kph":11.37089316929633,"speed_limit_kph":30.0,"collisions_this_frame":[],"waypoint":{"x":-63.974037170410156,"y":24.505924224853516,"z":0.0},"lane_deviation_m":0.03365557640790939,"lane_width":3.5,"goal":{"x":32.992610931396484,"y":-67.89999389648438,"z":0.5999999642372131},"fault":{"name":"tire_pressure_imbalance","severity":1.0},"capture_flags":{"save_rgb":true,"save_depth":false,"video_rgb":true,"video_depth":false}}
{"frame":1311,"timestamp":{"delta_seconds":0.05000000074505806,"elapsed_seconds":17.308835592120886},"control":{"throttle":0.75,"steer":0.006240393500775099,"brake":0.0,"hand_brake":false,"reverse":false,"manual_gear_shift":false,"gear":0},"transform":{"location":{"x":-63.818782806396484,"y":24.47532081604004,"z":-0.001361846923828125},"rotation":{"pitch":0.08402498066425323,"yaw":0.23333515226840973,"roll":-0.0018920892616733909}},"velocity":{"x":3.4323415756225586,"y":0.02696121670305729,"z":0.022294512018561363},"angular_velocity":{"x":0.0015956780407577753,"y":0.0701417401432991,"z":0.46699175238609314},"acceleration":{"x":5.480227470397949,"y":0.07147695869207382,"z":-0.19910675287246704},"speed_mps":3.43251986800068,"speed_kph":12.357071524802448,"speed_limit_kph":30.0,"collisions_this_frame":[],"waypoint":{"x":-63.81871795654297,"y":24.506698608398438,"z":0.0},"lane_deviation_m":0.031407397240400314,"lane_width":3.5,"goal":{"x":32.992610931396484,"y":-67.89999389648438,"z":0.5999999642372131},"fault":{"name":"tire_pressure_imbalance","severity":1.0},"capture_flags":{"save_rgb":true,"save_depth":false,"video_rgb":true,"video_depth":false}}
{"frame":1312,"timestamp":{"delta_seconds":0.05000000074505806,"elapsed_seconds":17.358835592865944},"control":{"throttle":0.75,"steer":0.00807190127670765,"brake":0.0,"hand_brake":false,"reverse":false,"manual_gear_shift":false,"gear":0},"transform":{"location":{"x":-63.63899230957031,"y":24.476741790771484,"z":-0.00044815061846747994},"rotation":{"pitch":0.08071917295455933,"yaw":0.26270854473114014,"roll":-0.002410888671875}},"velocity":{"x":3.7018370628356934,"y":0.034296851605176926,"z":0.015276698395609856},"angular_velocity":{"x":0.00885092280805111,"y":0.06608542799949646,"z":0.6309173703193665},"acceleration":{"x":5.389909744262695,"y":0.14671269059181213,"z":-0.14035627245903015},"speed_mps":3.702027456857646,"speed_kph":13.327298844687526,"speed_limit_kph":30.0,"collisions_this_frame":[],"waypoint":{"x":-63.638938903808594,"y":24.507198333740234,"z":0.0},"lane_deviation_m":0.03045988641679287,"lane_width":3.5,"goal":{"x":32.992610931396484,"y":-67.89999389648438,"z":0.5999999642372131},"fault":{"name":"tire_pressure_imbalance","severity":1.0},"capture_flags":{"save_rgb":true,"save_depth":false,"video_rgb":true,"video_depth":false}}
{"frame":1313,"timestamp":{"delta_seconds":0.05000000074505806,"elapsed_seconds":17.408835593611002},"control":{"throttle":0.75,"steer":0.00807190127670765,"brake":0.0,"hand_brake":false,"reverse":false,"manual_gear_shift":false,"gear":0},"transform":{"location":{"x":-63.4463996887207,"y":24.47841453552246,"z":0.0001819992030505091},"rotation":{"pitch":0.07725626230239868,"yaw":0.2961925268173218,"roll":-0.0026855466421693563}},"velocity":{"x":3.951629161834717,"y":0.039304014295339584,"z":0.010385389439761639},"angular_velocity":{"x":0.003003370715305209,"y":0.06962446123361588,"z":0.6907835006713867},"acceleration":{"x":4.995841979980469,"y":0.10014325380325317,"z":-0.09782618284225464},"speed_mps":3.951838267757942,"speed_kph":14.22661776392859,"speed_limit_kph":30.0,"collisions_this_frame":[],"waypoint":{"x":-63.44635772705078,"y":24.507734298706055,"z":0.0},"lane_deviation_m":0.029320357367396355,"lane_width":3.5,"goal":{"x":32.992610931396484,"y":-67.89999389648438,"z":0.5999999642372131},"fault":{"name":"tire_pressure_imbalance","severity":1.0},"capture_flags":{"save_rgb":true,"save_depth":false,"video_rgb":true,"video_depth":false}}
{"frame":1314,"timestamp":{"delta_seconds":0.05000000074505806,"elapsed_seconds":17.45883559435606},"control":{"throttle":0.75,"steer":0.0020352937281131744,"brake":0.0,"hand_brake":false,"reverse":false,"manual_gear_shift":false,"gear":0},"transform":{"location":{"x":-63.24159622192383,"y":24.47995376586914,"z":0.0006152724963612854},"rotation":{"pitch":0.07384800165891647,"yaw":0.31428834795951843,"roll":-0.00115966796875}},"velocity":{"x":4.192099094390869,"y":0.031086087226867676,"z":0.007018213160336018},"angular_velocity":{"x":-0.029060639441013336,"y":0.06686321645975113,"z":0.25565022230148315},"acceleration":{"x":4.809398651123047,"y":-0.16435854136943817,"z":-0.06734352558851242},"speed_mps":4.192220225289672,"speed_kph":15.09199281104282,"speed_limit_kph":30.0,"collisions_this_frame":[],"waypoint":{"x":-63.2415657043457,"y":24.508302688598633,"z":0.0},"lane_deviation_m":0.028355615213513374,"lane_width":3.5,"goal":{"x":32.992610931396484,"y":-67.89999389648438,"z":0.5999999642372131},"fault":{"name":"tire_pressure_imbalance","severity":1.0},"capture_flags":{"save_rgb":true,"save_depth":false,"video_rgb":true,"video_depth":false}}
{"frame":1315,"timestamp":{"delta_seconds":0.05000000074505806,"elapsed_seconds":17.508835595101118},"control":{"throttle":0.75,"steer":0.0020352937281131744,"brake":0.0,"hand_brake":false,"reverse":false,"manual_gear_shift":false,"gear":0},"transform":{"location":{"x":-63.02499008178711,"y":24.481428146362305,"z":0.0009119796450249851},"rotation":{"pitch":0.0706651359796524,"yaw":0.3250959515571594,"roll":-0.0003356933011673391}},"velocity":{"x":4.425535678863525,"y":0.031147122383117676,"z":0.00471186637878418},"angular_velocity":{"x":-0.009583424776792526,"y":0.06082533299922943,"z":0.20433484017848969},"acceleration":{"x":4.668731689453125,"y":0.001220703125,"z":-0.04612693563103676},"speed_mps":4.425647793240167,"speed_kph":15.932332055664602,"speed_limit_kph":30.0,"collisions_this_frame":[],"waypoint":{"x":-63.02497100830078,"y":24.50890350341797,"z":0.0},"lane_deviation_m":0.027490494772791862,"lane_width":3.5,"goal":{"x":32.992610931396484,"y":-67.89999389648438,"z":0.5999999642372131},"fault":{"name":"tire_pressure_imbalance","severity":1.0},"capture_flags":{"save_rgb":true,"save_depth":false,"video_rgb":true,"video_depth":false}}
{"frame":1316,"timestamp":{"delta_seconds":0.05000000074505806,"elapsed_seconds":17.558835595846176},"control":{"throttle":0.75,"steer":0.00041289132786914706,"brake":0.0,"hand_brake":false,"reverse":false,"manual_gear_shift":false,"gear":0},"transform":{"location":{"x":-62.79684829711914,"y":24.48287010192871,"z":0.0011148452758789062},"rotation":{"pitch":0.06785792857408524,"yaw":0.3302622139453888,"roll":0.0002838592045009136}},"velocity":{"x":4.654359817504883,"y":0.02915232628583908,"z":0.0031502151396125555},"angular_velocity":{"x":-0.009539068676531315,"y":0.05292963981628418,"z":0.06813905388116837},"acceleration":{"x":4.576482772827148,"y":-0.0398959219455719,"z":-0.03123302385210991},"speed_mps":4.654452179664905,"speed_kph":16.75602784679366,"speed_limit_kph":30.0,"collisions_this_frame":[],"waypoint":{"x":-62.77684783935547,"y":24.508277893066406,"z":0.0},"lane_deviation_m":0.032354552298784256,"lane_width":3.5,"goal":{"x":32.992610931396484,"y":-67.89999389648438,"z":0.5999999642372131},"fault":{"name":"tire_pressure_imbalance","severity":1.0},"capture_flags":{"save_rgb":true,"save_depth":false,"video_rgb":true,"video_depth":false}}
{"frame":1317,"timestamp":{"delta_seconds":0.05000000074505806,"elapsed_seconds":17.608835596591234},"control":{"throttle":0.75,"steer":0.00041289132786914706,"brake":0.0,"hand_brake":false,"reverse":false,"manual_gear_shift":false,"gear":0},"transform":{"location":{"x":-62.556888580322266,"y":24.48466682434082,"z":0.0026343155186623335},"rotation":{"pitch":0.13787418603897095,"yaw":0.32790350914001465,"roll":-0.1666259616613388}},"velocity":{"x":4.879336357116699,"y":0.0030739973299205303,"z":0.02794165536761284},"angular_velocity":{"x":1.3796268701553345,"y":-0.7843019366264343,"z":-0.19909563660621643},"acceleration":{"x":4.499530792236328,"y":-0.5215665698051453,"z":0.4958288073539734},"speed_mps":4.8794173290921865,"speed_kph":17.56590238473187,"speed_limit_kph":30.0,"collisions_this_frame":[],"waypoint":{"x":-62.5141716003418,"y":24.504297256469727,"z":0.0},"lane_deviation_m":0.04708538576960564,"lane_width":3.5,"goal":{"x":32.992610931396484,"y":-67.89999389648438,"z":0.5999999642372131},"fault":{"name":"tire_pressure_imbalance","severity":1.0},"capture_flags":{"save_rgb":true,"save_depth":false,"video_rgb":true,"video_depth":false}}
{"frame":1318,"timestamp":{"delta_seconds":0.05000000074505806,"elapsed_seconds":17.658835597336292},"control":{"throttle":0.48494085669517517,"steer":0.007585430517792702,"brake":0.0,"hand_brake":false,"reverse":false,"manual_gear_shift":false,"gear":0},"transform":{"location":{"x":-62.30651092529297,"y":24.48578643798828,"z":0.0035252762027084827},"rotation":{"pitch":0.15421883761882782,"yaw":0.3359159827232361,"roll":-0.19003291428089142}},"velocity":{"x":5.0812530517578125,"y":0.029970860108733177,"z":0.017687072977423668},"angular_velocity":{"x":0.14930777251720428,"y":-0.11322902888059616,"z":0.34051603078842163},"acceleration":{"x":4.038333892822266,"y":0.5379372239112854,"z":-0.205091655254364},"speed_mps":5.081372222245114,"speed_kph":18.29294000008241,"speed_limit_kph":30.0,"collisions_this_frame":[],"waypoint":{"x":-62.24016189575195,"y":24.496501922607422,"z":0.0},"lane_deviation_m":0.06730113923549652,"lane_width":3.5,"goal":{"x":32.992610931396484,"y":-67.89999389648438,"z":0.5999999642372131},"fault":{"name":"tire_pressure_imbalance","severity":1.0},"capture_flags":{"save_rgb":true,"save_depth":false,"video_rgb":true,"video_depth":false}}
{"frame":1319,"timestamp":{"delta_seconds":0.05000000074505806,"elapsed_seconds":17.70883559808135},"control":{"throttle":0.48494085669517517,"steer":0.007585430517792702,"brake":0.0,"hand_brake":false,"reverse":false,"manual_gear_shift":false,"gear":0},"transform":{"location":{"x":-62.04795837402344,"y":24.48702049255371,"z":0.0034859084989875555},"rotation":{"pitch":0.11741777509450912,"yaw":0.372297078371048,"roll":-0.0902709811925888}},"velocity":{"x":5.238565444946289,"y":0.05980783328413963,"z":-0.04069709777832031},"angular_velocity":{"x":-5.380369186401367,"y":2.1302545070648193,"z":0.9692632555961609},"acceleration":{"x":3.1462478637695312,"y":0.5967394709587097,"z":-1.167683482170105},"speed_mps":5.239064911954712,"speed_kph":18.860633683036962,"speed_limit_kph":30.0,"collisions_this_frame":[],"waypoint":{"x":-61.95735168457031,"y":24.48455047607422,"z":0.0},"lane_deviation_m":0.09070736169815063,"lane_width":3.5,"goal":{"x":32.992610931396484,"y":-67.89999389648438,"z":0.5999999642372131},"fault":{"name":"tire_pressure_imbalance","severity":1.0},"capture_flags":{"save_rgb":true,"save_depth":false,"video_rgb":true,"video_depth":false}}
{"frame":1320,"timestamp":{"delta_seconds":0.05000000074505806,"elapsed_seconds":17.75883559882641},"control":{"throttle":0.10645277053117752,"steer":0.0011722738854587078,"brake":0.0,"hand_brake":false,"reverse":false,"manual_gear_shift":false,"gear":0},"transform":{"location":{"x":-61.78828430175781,"y":24.489286422729492,"z":0.0025368118658661842},"rotation":{"pitch":0.05649932101368904,"yaw":0.4027175009250641,"roll":-0.006042479071766138}},"velocity":{"x":5.179769039154053,"y":0.05790465697646141,"z":-0.018536485731601715},"angular_velocity":{"x":-0.5873318314552307,"y":0.7910984754562378,"z":-0.2026033103466034},"acceleration":{"x":-1.1759281158447266,"y":-0.03806352615356445,"z":0.44321224093437195},"speed_mps":5.180125852677881,"speed_kph":18.64845306964037,"speed_limit_kph":30.0,"collisions_this_frame":[],"waypoint":{"x":-61.714866638183594,"y":24.471139907836914,"z":0.0},"lane_deviation_m":0.07566957920789719,"lane_width":3.5,"goal":{"x":32.992610931396484,"y":-67.89999389648438,"z":0.5999999642372131},"fault":{"name":"tire_pressure_imbalance","severity":1.0},"capture_flags":{"save_rgb":true,"save_depth":false,"video_rgb":true,"video_depth":false}}
{"frame":1321,"timestamp":{"delta_seconds":0.05000000074505806,"elapsed_seconds":17.808835599571466},"control":{"throttle":0.10645277053117752,"steer":0.0011722738854587078,"brake":0.0,"hand_brake":false,"reverse":false,"manual_gear_shift":false,"gear":0},"transform":{"location":{"x":-61.53136444091797,"y":24.491788864135742,"z":0.0021061706356704235},"rotation":{"pitch":0.03105003759264946,"yaw":0.41208165884017944,"roll":0.003544810926541686}},"velocity":{"x":5.117404460906982,"y":0.04941031336784363,"z":-0.008015641942620277},"angular_velocity":{"x":-0.07008924335241318,"y":0.37697291374206543,"z":0.471333771944046},"acceleration":{"x":-1.2472915649414062,"y":-0.16988687217235565,"z":0.21041688323020935},"speed_mps":5.117649269546863,"speed_kph":18.42353737036871,"speed_limit_kph":30.0,"collisions_this_frame":[],"waypoint":{"x":-61.53142547607422,"y":24.5130558013916,"z":0.0},"lane_deviation_m":0.021371060982346535,"lane_width":3.5,"goal":{"x":32.992610931396484,"y":-67.89999389648438,"z":0.5999999642372131},"fault":{"name":"tire_pressure_imbalance","severity":1.0},"capture_flags":{"save_rgb":true,"save_depth":false,"video_rgb":true,"video_depth":false}}
{"frame":1322,"timestamp":{"delta_seconds":0.05000000074505806,"elapsed_seconds":17.858835600316525},"control":{"throttle":0.10645277053117752,"steer":0.008544288575649261,"brake":0.0,"hand_brake":false,"reverse":false,"manual_gear_shift":false,"gear":0},"transform":{"location":{"x":-61.27757263183594,"y":24.494428634643555,"z":0.0019483184441924095},"rotation":{"pitch":0.017191585153341293,"yaw":0.4298332929611206,"roll":0.00269276462495327}},"velocity":{"x":5.050726890563965,"y":0.057412564754486084,"z":-0.003132038051262498},"angular_velocity":{"x":0.03196997940540314,"y":0.2284848839044571,"z":0.20964890718460083},"acceleration":{"x":-1.3335514068603516,"y":0.16004502773284912,"z":0.09767208248376846},"speed_mps":5.051054160798514,"speed_kph":18.18379497887465,"speed_limit_kph":30.0,"collisions_this_frame":[],"waypoint":{"x":-61.277626037597656,"y":24.513761520385742,"z":0.0},"lane_deviation_m":0.01943088509142399,"lane_width":3.5,"goal":{"x":32.992610931396484,"y":-67.89999389648438,"z":0.5999999642372131},"fault":{"name":"tire_pressure_imbalance","severity":1.0},"capture_flags":{"save_rgb":true,"save_depth":false,"video_rgb":true,"video_depth":false}}
{"frame":1323,"timestamp":{"delta_seconds":0.05000000074505806,"elapsed_seconds":17.908835601061583},"control":{"throttle":0.10645277053117752,"steer":0.008544288575649261,"brake":0.0,"hand_brake":false,"reverse":false,"manual_gear_shift":false,"gear":0},"transform":{"location":{"x":-61.02674102783203,"y":24.497228622436523,"z":0.0018515014089643955},"rotation":{"pitch":0.00898169819265604,"yaw":0.4680057764053345,"roll":0.0011792132863774896}},"velocity":{"x":5.026910781860352,"y":0.06255224347114563,"z":-0.007035493850708008},"angular_velocity":{"x":0.024076350033283234,"y":0.06152788922190666,"z":0.9415928721427917},"acceleration":{"x":-0.4763221740722656,"y":0.10279357433319092,"z":-0.07806911319494247},"speed_mps":5.027304873400941,"speed_kph":18.098297544243387,"speed_limit_kph":30.0,"collisions_this_frame":[],"waypoint":{"x":-61.026790618896484,"y":24.51445770263672,"z":0.0},"lane_deviation_m":0.017328349873423576,"lane_width":3.5,"goal":{"x":32.992610931396484,"y":-67.89999389648438,"z":0.5999999642372131},"fault":{"name":"tire_pressure_imbalance","severity":1.0},"capture_flags":{"save_rgb":true,"save_depth":false,"video_rgb":true,"video_depth":false}}
{"frame":1324,"timestamp":{"delta_seconds":0.05000000074505806,"elapsed_seconds":17.95883560180664},"control":{"throttle":0.10645277053117752,"steer":0.006769918370991945,"brake":0.0,"hand_brake":false,"reverse":false,"manual_gear_shift":false,"gear":0},"transform":{"location":{"x":-60.77569580078125,"y":24.50033187866211,"z":0.0018962478497996926},"rotation":{"pitch":0.005272905807942152,"yaw":0.47599002718925476,"roll":0.0004921135841868818}},"velocity":{"x":4.986145496368408,"y":0.062206871807575226,"z":0.0005083179567009211},"angular_velocity":{"x":-0.000559927080757916,"y":0.11087816953659058,"z":-3.1656839847564697},"acceleration":{"x":-0.8153057098388672,"y":-0.006907433271408081,"z":0.1508762240409851},"speed_mps":4.986533551901781,"speed_kph":17.951520786846412,"speed_limit_kph":30.0,"collisions_this_frame":[],"waypoint":{"x":-60.77573776245117,"y":24.515155792236328,"z":0.0},"lane_deviation_m":0.014944761991500854,"lane_width":3.5,"goal":{"x":32.992610931396484,"y":-67.89999389648438,"z":0.5999999642372131},"fault":{"name":"tire_pressure_imbalance","severity":1.0},"capture_flags":{"save_rgb":true,"save_depth":false,"video_rgb":true,"video_depth":false}}
{"frame":1325,"timestamp":{"delta_seconds":0.05000000074505806,"elapsed_seconds":18.0088356025517},"control":{"throttle":0.10645277053117752,"steer":0.006769918370991945,"brake":0.0,"hand_brake":false,"reverse":false,"manual_gear_shift":false,"gear":0},"transform":{"location":{"x":-60.52550506591797,"y":24.50337028503418,"z":0.0018437957623973489},"rotation":{"pitch":0.003169207600876689,"yaw":0.49788326025009155,"roll":0.00020045001292601228}},"velocity":{"x":4.998625755310059,"y":0.06367719173431396,"z":-0.005158281419426203},"angular_velocity":{"x":0.004706914536654949,"y":0.026249755173921585,"z":0.7823662161827087},"acceleration":{"x":0.2496051788330078,"y":0.02940639853477478,"z":-0.11333198845386505},"speed_mps":4.999033990108831,"speed_kph":17.996522364391794,"speed_limit_kph":30.0,"collisions_this_frame":[],"waypoint":{"x":-60.52553939819336,"y":24.515850067138672,"z":0.0},"lane_deviation_m":0.012615296989679337,"lane_width":3.5,"goal":{"x":32.992610931396484,"y":-67.89999389648438,"z":0.5999999642372131},"fault":{"name":"tire_pressure_imbalance","severity":1.0},"capture_flags":{"save_rgb":true,"save_depth":false,"video_rgb":true,"video_depth":false}}
{"frame":1326,"timestamp":{"delta_seconds":0.05000000074505806,"elapsed_seconds":18.058835603296757},"control":{"throttle":0.09918411076068878,"steer":0.02635958604514599,"brake":0.0,"hand_brake":false,"reverse":false,"manual_gear_shift":false,"gear":0},"transform":{"location":{"x":-60.2758903503418,"y":24.507747650146484,"z":0.001876144320704043},"rotation":{"pitch":0.001434339676052332,"yaw":0.5858384966850281,"roll":-0.006561279296875}},"velocity":{"x":4.961541175842285,"y":0.11060068011283875,"z":0.002849159063771367},"angular_velocity":{"x":0.11429979652166367,"y":0.08273511379957199,"z":0.9914945363998413},"acceleration":{"x":-0.7416915893554688,"y":0.9384697675704956,"z":0.16014881432056427},"speed_mps":4.962774573535175,"speed_kph":17.86598846472663,"speed_limit_kph":30.0,"collisions_this_frame":[],"waypoint":{"x":-60.275917053222656,"y":24.516544342041016,"z":0.0},"lane_deviation_m":0.008994577452540398,"lane_width":3.5,"goal":{"x":32.992610931396484,"y":-67.89999389648438,"z":0.5999999642372131},"fault":{"name":"tire_pressure_imbalance","severity":1.0},"capture_flags":{"save_rgb":true,"save_depth":false,"video_rgb":true,"video_depth":false}}
{"frame":1327,"timestamp":{"delta_seconds":0.05000000074505806,"elapsed_seconds":18.108835604041815},"control":{"throttle":0.09918411076068878,"steer":0.02635958604514599,"brake":0.0,"hand_brake":false,"reverse":false,"manual_gear_shift":false,"gear":0},"transform":{"location":{"x":-60.027347564697266,"y":24.51323890686035,"z":0.0017441558884456754},"rotation":{"pitch":6.147169915493578e-05,"yaw":0.714754045009613,"roll":-0.009521484375}},"velocity":{"x":4.96055793762207,"y":0.13169120252132416,"z":-0.001718826242722571},"angular_velocity":{"x":0.039580944925546646,"y":0.030752724036574364,"z":2.663588047027588},"acceleration":{"x":-0.019664764404296875,"y":0.42181044816970825,"z":-0.0913597047328949},"speed_mps":4.962305974009512,"speed_kph":17.864301506434245,"speed_limit_kph":30.0,"collisions_this_frame":[],"waypoint":{"x":-60.02735900878906,"y":24.517234802246094,"z":0.0},"lane_deviation_m":0.004359975922852755,"lane_width":3.5,"goal":{"x":32.992610931396484,"y":-67.89999389648438,"z":0.5999999642372131},"fault":{"name":"tire_pressure_imbalance","severity":1.0},"capture_flags":{"save_rgb":true,"save_depth":false,"video_rgb":true,"video_depth":false}}
{"frame":1328,"timestamp":{"delta_seconds":0.05000000074505806,"elapsed_seconds":18.158835604786873},"control":{"throttle":0.2991057336330414,"steer":0.025437666103243828,"brake":0.0,"hand_brake":false,"reverse":false,"manual_gear_shift":false,"gear":0},"transform":{"location":{"x":-59.78019332885742,"y":24.519393920898438,"z":0.0017165374010801315},"rotation":{"pitch":-0.0014684905763715506,"yaw":0.8476451635360718,"roll":-0.01025390625}},"velocity":{"x":4.933651924133301,"y":0.14317765831947327,"z":-0.00023529052850790322},"angular_velocity":{"x":0.004363249521702528,"y":0.026405641809105873,"z":2.651258707046509},"acceleration":{"x":-0.5381202697753906,"y":0.22972911596298218,"z":0.02967071533203125},"speed_mps":4.935729045005175,"speed_kph":17.76862456201863,"speed_limit_kph":30.0,"collisions_this_frame":[],"waypoint":{"x":-59.780189514160156,"y":24.517921447753906,"z":0.0},"lane_deviation_m":0.002261568559333682,"lane_width":3.5,"goal":{"x":32.992610931396484,"y":-67.89999389648438,"z":0.5999999642372131},"fault":{"name":"tire_pressure_imbalance","severity":1.0},"capture_flags":{"save_rgb":true,"save_depth":false,"video_rgb":true,"video_depth":false}}
{"frame":1329,"timestamp":{"delta_seconds":0.05000000074505806,"elapsed_seconds":18.20883560553193},"control":{"throttle":0.2991057336330414,"steer":0.025437666103243828,"brake":0.0,"hand_brake":false,"reverse":false,"manual_gear_shift":false,"gear":0},"transform":{"location":{"x":-59.53432083129883,"y":24.526384353637695,"z":0.00366630544885993},"rotation":{"pitch":-0.0815114751458168,"yaw":0.9835727214813232,"roll":-0.1477660983800888}},"velocity":{"x":4.92786169052124,"y":0.1341540664434433,"z":0.022189531475305557},"angular_velocity":{"x":1.1706286668777466,"y":0.9766777157783508,"z":2.8471012115478516},"acceleration":{"x":-0.11580467224121094,"y":-0.18047183752059937,"z":0.4484964609146118},"speed_mps":4.929737369247703,"speed_kph":17.74705452929173,"speed_limit_kph":30.0,"collisions_this_frame":[],"waypoint":{"x":-59.534297943115234,"y":24.518604278564453,"z":0.0},"lane_deviation_m":0.008600691333413124,"lane_width":3.5,"goal":{"x":32.992610931396484,"y":-67.89999389648438,"z":0.5999999642372131},"fault":{"name":"tire_pressure_imbalance","severity":1.0},"capture_flags":{"save_rgb":true,"save_depth":false,"video_rgb":true,"video_depth":false}}
{"frame":1330,"timestamp":{"delta_seconds":0.05000000074505806,"elapsed_seconds":18.25883560627699},"control":{"throttle":0.4680922329425812,"steer":0.014664219692349434,"brake":0.0,"hand_brake":false,"reverse":false,"manual_gear_shift":false,"gear":0},"transform":{"location":{"x":-59.28770065307617,"y":24.53220558166504,"z":0.00443546287715435},"rotation":{"pitch":-0.10153758525848389,"yaw":1.097704529762268,"roll":-0.1619567573070526}},"velocity":{"x":4.944820404052734,"y":0.1285930871963501,"z":0.008280000649392605},"angular_velocity":{"x":-0.0033356084022670984,"y":0.15050050616264343,"z":2.0571467876434326},"acceleration":{"x":0.3391742706298828,"y":-0.11121958494186401,"z":-0.27819061279296875},"speed_mps":4.946499122492765,"speed_kph":17.807396840973954,"speed_limit_kph":30.0,"collisions_this_frame":[],"waypoint":{"x":-59.28766632080078,"y":24.519290924072266,"z":0.0},"lane_deviation_m":0.013655140995979309,"lane_width":3.5,"goal":{"x":32.992610931396484,"y":-67.89999389648438,"z":0.5999999642372131},"fault":{"name":"tire_pressure_imbalance","severity":1.0},"capture_flags":{"save_rgb":true,"save_depth":false,"video_rgb":true,"video_depth":false}}
{"frame":1331,"timestamp":{"delta_seconds":0.05000000074505806,"elapsed_seconds":18.308835607022047},"control":{"throttle":0.4680922329425812,"steer":0.014664219692349434,"brake":0.0,"hand_brake":false,"reverse":false,"manual_gear_shift":false,"gear":0},"transform":{"location":{"x":-59.039031982421875,"y":24.5382080078125,"z":0.0040145874954760075},"rotation":{"pitch":-0.07263223081827164,"yaw":1.1883925199508667,"roll":-0.10101318359375}},"velocity":{"x":4.988035678863525,"y":0.15373574197292328,"z":-0.03154200315475464},"angular_velocity":{"x":-3.8439478874206543,"y":-2.1479430198669434,"z":1.6530108451843262},"acceleration":{"x":0.8643054962158203,"y":0.5028530955314636,"z":-0.7964401245117188},"speed_mps":4.990503933465887,"speed_kph":17.965814160477194,"speed_limit_kph":30.0,"collisions_this_frame":[],"waypoint":{"x":-59.03898239135742,"y":24.519981384277344,"z":0.0},"lane_deviation_m":0.018663577735424042,"lane_width":3.5,"goal":{"x":32.992610931396484,"y":-67.89999389648438,"z":0.5999999642372131},"fault":{"name":"tire_pressure_imbalance","severity":1.0},"capture_flags":{"save_rgb":true,"save_depth":false,"video_rgb":true,"video_depth":false}}
{"frame":1332,"timestamp":{"delta_seconds":0.05000000074505806,"elapsed_seconds":18.358835607767105},"control":{"throttle":0.11529746651649475,"steer":0.02641274966299534,"brake":0.0,"hand_brake":false,"reverse":false,"manual_gear_shift":false,"gear":0},"transform":{"location":{"x":-58.78771209716797,"y":24.546100616455078,"z":0.0027158355806022882},"rotation":{"pitch":-0.009582755155861378,"yaw":1.3081241846084595,"roll":-0.0145263671875}},"velocity":{"x":5.028754234313965,"y":0.19512224197387695,"z":-0.012715139426290989},"angular_velocity":{"x":-0.6099206805229187,"y":-0.7423790097236633,"z":2.8427317142486572},"acceleration":{"x":0.8143711090087891,"y":0.8277300000190735,"z":0.3765372931957245},"speed_mps":5.032554372603855,"speed_kph":18.117195741373877,"speed_limit_kph":30.0,"collisions_this_frame":[],"waypoint":{"x":-58.78764343261719,"y":24.520679473876953,"z":0.0},"lane_deviation_m":0.025565894320607185,"lane_width":3.5,"goal":{"x":32.992610931396484,"y":-67.89999389648438,"z":0.5999999642372131},"fault":{"name":"tire_pressure_imbalance","severity":1.0},"capture_flags":{"save_rgb":true,"save_depth":false,"video_rgb":true,"video_depth":false}}
{"frame":1333,"timestamp":{"delta_seconds":0.05000000074505806,"elapsed_seconds":18.408835608512163},"control":{"throttle":0.11529746651649475,"steer":0.02641274966299534,"brake":0.0,"hand_brake":false,"reverse":false,"manual_gear_shift":false,"gear":0},"transform":{"location":{"x":-58.53805160522461,"y":24.55531120300293,"z":0.0021350861061364412},"rotation":{"pitch":0.003599509596824646,"yaw":1.416835904121399,"roll":-0.00518798828125}},"velocity":{"x":4.976068019866943,"y":0.2003927230834961,"z":-0.010315980762243271},"angular_velocity":{"x":-0.04889415577054024,"y":-0.10095976293087006,"z":1.9150948524475098},"acceleration":{"x":-1.0537242889404297,"y":0.10540962219238281,"z":0.04798317328095436},"speed_mps":4.980112107299035,"speed_kph":17.928403586276524,"speed_limit_kph":30.0,"collisions_this_frame":[],"waypoint":{"x":-58.53795623779297,"y":24.521373748779297,"z":0.0},"lane_deviation_m":0.034004684537649155,"lane_width":3.5,"goal":{"x":32.992610931396484,"y":-67.89999389648438,"z":0.5999999642372131},"fault":{"name":"tire_pressure_imbalance","severity":1.0},"capture_flags":{"save_rgb":true,"save_depth":false,"video_rgb":true,"video_depth":false}}
{"frame":1334,"timestamp":{"delta_seconds":0.05000000074505806,"elapsed_seconds":18.45883560925722},"control":{"throttle":0.22894252836704254,"steer":0.03226536884903908,"brake":0.0,"hand_brake":false,"reverse":false,"manual_gear_shift":false,"gear":0},"transform":{"location":{"x":-58.288978576660156,"y":24.565250396728516,"z":0.0018013763474300504},"rotation":{"pitch":0.005730528384447098,"yaw":1.5573385953903198,"roll":-0.006225585471838713}},"velocity":{"x":4.982278347015381,"y":0.22315680980682373,"z":-0.004360523074865341},"angular_velocity":{"x":0.035546962171792984,"y":-0.014071826823055744,"z":3.1307032108306885},"acceleration":{"x":0.12420654296875,"y":0.45528173446655273,"z":0.1191091537475586},"speed_mps":4.987275358656564,"speed_kph":17.95419129116363,"speed_limit_kph":30.0,"collisions_this_frame":[],"waypoint":{"x":-58.288856506347656,"y":24.522066116333008,"z":0.0},"lane_deviation_m":0.043222006410360336,"lane_width":3.5,"goal":{"x":32.992610931396484,"y":-67.89999389648438,"z":0.5999999642372131},"fault":{"name":"tire_pressure_imbalance","severity":1.0},"capture_flags":{"save_rgb":true,"save_depth":false,"video_rgb":true,"video_depth":false}}
{"frame":1335,"timestamp":{"delta_seconds":0.05000000074505806,"elapsed_seconds":18.50883561000228},"control":{"throttle":0.22894252836704254,"steer":0.03226536884903908,"brake":0.0,"hand_brake":false,"reverse":false,"manual_gear_shift":false,"gear":0},"transform":{"location":{"x":-58.03986358642578,"y":24.575946807861328,"z":0.0016824339982122183},"rotation":{"pitch":0.0054163397289812565,"yaw":1.721268892288208,"roll":-0.007812499534338713}},"velocity":{"x":4.9810285568237305,"y":0.2391444891691208,"z":-0.0014050292083993554},"angular_velocity":{"x":0.026913823559880257,"y":0.01689348928630352,"z":3.3326666355133057},"acceleration":{"x":-0.024995803833007812,"y":0.31975358724594116,"z":0.0591098815202713},"speed_mps":4.986766241232942,"speed_kph":17.952358468438593,"speed_limit_kph":30.0,"collisions_this_frame":[],"waypoint":{"x":-58.03971862792969,"y":24.52275848388672,"z":0.0},"lane_deviation_m":0.05321512371301651,"lane_width":3.5,"goal":{"x":32.992610931396484,"y":-67.89999389648438,"z":0.5999999642372131},"fault":{"name":"tire_pressure_imbalance","severity":1.0},"capture_flags":{"save_rgb":true,"save_depth":false,"video_rgb":true,"video_depth":false}}
{"frame":1336,"timestamp":{"delta_seconds":0.05000000074505806,"elapsed_seconds":18.558835610747337},"control":{"throttle":0.1682598888874054,"steer":0.021726323291659355,"brake":0.0,"hand_brake":false,"reverse":false,"manual_gear_shift":false,"gear":0},"transform":{"location":{"x":-57.79102325439453,"y":24.586679458618164,"z":0.001665038987994194},"rotation":{"pitch":0.004152754787355661,"yaw":1.8560311794281006,"roll":-0.005798339378088713}},"velocity":{"x":4.971002101898193,"y":0.22875206172466278,"z":-4.364967389847152e-05},"angular_velocity":{"x":-0.041719432920217514,"y":0.029570071026682854,"z":2.460421323776245},"acceleration":{"x":-0.2005290985107422,"y":-0.20784854888916016,"z":0.02722758986055851},"speed_mps":4.976262594028257,"speed_kph":17.914545338501725,"speed_limit_kph":30.0,"collisions_this_frame":[],"waypoint":{"x":-57.79084777832031,"y":24.523448944091797,"z":0.0},"lane_deviation_m":0.06325268000364304,"lane_width":3.5,"goal":{"x":32.992610931396484,"y":-67.89999389648438,"z":0.5999999642372131},"fault":{"name":"tire_pressure_imbalance","severity":1.0},"capture_flags":{"save_rgb":true,"save_depth":false,"video_rgb":true,"video_depth":false}}
{"frame":1337,"timestamp":{"delta_seconds":0.05000000074505806,"elapsed_seconds":18.608835611492395},"control":{"throttle":0.1682598888874054,"steer":0.021726323291659355,"brake":0.0,"hand_brake":false,"reverse":false,"manual_gear_shift":false,"gear":0},"transform":{"location":{"x":-57.54308319091797,"y":24.59752082824707,"z":0.0016919326735660434},"rotation":{"pitch":0.0023495848290622234,"yaw":1.9732338190078735,"roll":-0.004791259299963713}},"velocity":{"x":4.949420928955078,"y":0.23283962905406952,"z":0.0005024432903155684},"angular_velocity":{"x":-0.009411592036485672,"y":0.03802063688635826,"z":2.2997238636016846},"acceleration":{"x":-0.4316234588623047,"y":0.08175134658813477,"z":0.010921860113739967},"speed_mps":4.954894759456133,"speed_kph":17.83762113404208,"speed_limit_kph":30.0,"collisions_this_frame":[],"waypoint":{"x":-57.542877197265625,"y":24.524137496948242,"z":0.0},"lane_deviation_m":0.07340312004089355,"lane_width":3.5,"goal":{"x":32.992610931396484,"y":-67.89999389648438,"z":0.5999999642372131},"fault":{"name":"tire_pressure_imbalance","severity":1.0},"capture_flags":{"save_rgb":true,"save_depth":false,"video_rgb":true,"video_depth":false}}
{"frame":1338,"timestamp":{"delta_seconds":0.05000000074505806,"elapsed_seconds":18.658835612237453},"control":{"throttle":0.33844637870788574,"steer":0.02050849050283432,"brake":0.0,"hand_brake":false,"reverse":false,"manual_gear_shift":false,"gear":0},"transform":{"location":{"x":-57.296165466308594,"y":24.608642578125,"z":0.0017321014311164618},"rotation":{"pitch":0.0006898490828461945,"yaw":2.0832011699676514,"roll":-0.004547119140625}},"velocity":{"x":4.933883190155029,"y":0.23777107894420624,"z":0.0006453609094023705},"angular_velocity":{"x":-0.0003418847336433828,"y":0.025502262637019157,"z":2.1628940105438232},"acceleration":{"x":-0.31075477600097656,"y":0.09862899780273438,"z":0.00285835238173604},"speed_mps":4.939609178524893,"speed_kph":17.782593042689612,"speed_limit_kph":30.0,"collisions_this_frame":[],"waypoint":{"x":-57.29593276977539,"y":24.524824142456055,"z":0.0},"lane_deviation_m":0.08383665233850479,"lane_width":3.5,"goal":{"x":32.992610931396484,"y":-67.89999389648438,"z":0.5999999642372131},"fault":{"name":"tire_pressure_imbalance","severity":1.0},"capture_flags":{"save_rgb":true,"save_depth":false,"video_rgb":true,"video_depth":false}}
{"frame":1339,"timestamp":{"delta_seconds":0.05000000074505806,"elapsed_seconds":18.70883561298251},"control":{"throttle":0.33844637870788574,"steer":0.02050849050283432,"brake":0.0,"hand_brake":false,"reverse":false,"manual_gear_shift":false,"gear":0},"transform":{"location":{"x":-57.04932403564453,"y":24.620153427124023,"z":0.0017668914515525103},"rotation":{"pitch":0.00019807547505479306,"yaw":2.190586805343628,"roll":-0.004882812034338713}},"velocity":{"x":4.94040584564209,"y":0.24638999998569489,"z":0.0006127929664216936},"angular_velocity":{"x":0.00901360809803009,"y":0.0003614343877416104,"z":2.143587112426758},"acceleration":{"x":0.13045310974121094,"y":0.17237842082977295,"z":-0.0006513588596135378},"speed_mps":4.946546100792219,"speed_kph":17.80756596285199,"speed_limit_kph":30.0,"collisions_this_frame":[],"waypoint":{"x":-57.0490608215332,"y":24.525510787963867,"z":0.0},"lane_deviation_m":0.09465949982404709,"lane_width":3.5,"goal":{"x":32.992610931396484,"y":-67.89999389648438,"z":0.5999999642372131},"fault":{"name":"tire_pressure_imbalance","severity":1.0},"capture_flags":{"save_rgb":true,"save_depth":false,"video_rgb":true,"video_depth":false}}
{"frame":1340,"timestamp":{"delta_seconds":0.05000000074505806,"elapsed_seconds":18.75883561372757},"control":{"throttle":0.34433016180992126,"steer":0.022265108302235603,"brake":0.0,"hand_brake":false,"reverse":false,"manual_gear_shift":false,"gear":0},"transform":{"location":{"x":-56.80172348022461,"y":24.63225746154785,"z":0.0017913436749950051},"rotation":{"pitch":0.0007581509416922927,"yaw":2.303403377532959,"roll":-0.005889892578125}},"velocity":{"x":4.960243225097656,"y":0.26052629947662354,"z":0.000517616281285882},"angular_velocity":{"x":0.0213346928358078,"y":-0.01673705503344536,"z":2.2994048595428467},"acceleration":{"x":0.3967475891113281,"y":0.282725989818573,"z":-0.0019035337027162313},"speed_mps":4.967080336855123,"speed_kph":17.881489212678442,"speed_limit_kph":30.0,"collisions_this_frame":[],"waypoint":{"x":-56.801429748535156,"y":24.526199340820312,"z":0.0},"lane_deviation_m":0.10607365518808365,"lane_width":3.5,"goal":{"x":32.992610931396484,"y":-67.89999389648438,"z":0.5999999642372131},"fault":{"name":"tire_pressure_imbalance","severity":1.0},"capture_flags":{"save_rgb":true,"save_depth":false,"video_rgb":true,"video_depth":false}}
{"frame":1341,"timestamp":{"delta_seconds":0.05000000074505806,"elapsed_seconds":18.808835614472628},"control":{"throttle":0.34433016180992126,"steer":0.022265108302235603,"brake":0.0,"hand_brake":false,"reverse":false,"manual_gear_shift":false,"gear":0},"transform":{"location":{"x":-56.55286407470703,"y":24.64498519897461,"z":0.0018069457728415728},"rotation":{"pitch":0.001912452862598002,"yaw":2.4196674823760986,"roll":-0.006713866721838713}},"velocity":{"x":4.988153457641602,"y":0.27283746004104614,"z":0.0004066562687512487},"angular_velocity":{"x":0.014436106197535992,"y":-0.02501222863793373,"z":2.3371992111206055},"acceleration":{"x":0.5582046508789062,"y":0.24622321128845215,"z":-0.0022192001342773438},"speed_mps":4.995609608641655,"speed_kph":17.984194591109958,"speed_limit_kph":30.0,"collisions_this_frame":[],"waypoint":{"x":-56.55253601074219,"y":24.52688980102539,"z":0.0},"lane_deviation_m":0.11810968071222305,"lane_width":3.5,"goal":{"x":32.992610931396484,"y":-67.89999389648438,"z":0.5999999642372131},"fault":{"name":"tire_pressure_imbalance","severity":1.0},"capture_flags":{"save_rgb":true,"save_depth":false,"video_rgb":true,"video_depth":false}}
{"frame":1342,"timestamp":{"delta_seconds":0.05000000074505806,"elapsed_seconds":18.858835615217686},"control":{"throttle":0.0694279596209526,"steer":0.022589292377233505,"brake":0.0,"hand_brake":false,"reverse":false,"manual_gear_shift":false,"gear":0},"transform":{"location":{"x":-56.30290222167969,"y":24.658308029174805,"z":0.0020354080479592085},"rotation":{"pitch":0.0027798868250101805,"yaw":2.5381357669830322,"roll":-0.007385253440588713}},"velocity":{"x":4.9954962730407715,"y":0.28450214862823486,"z":0.004161024000495672},"angular_velocity":{"x":0.009306428022682667,"y":0.004466359969228506,"z":2.3920705318450928},"acceleration":{"x":0.14685630798339844,"y":0.23329377174377441,"z":0.07508735358715057},"speed_mps":5.003592889180639,"speed_kph":18.0129344010503,"speed_limit_kph":30.0,"collisions_this_frame":[],"waypoint":{"x":-56.30253982543945,"y":24.527584075927734,"z":0.0},"lane_deviation_m":0.13074029982089996,"lane_width":3.5,"goal":{"x":32.992610931396484,"y":-67.89999389648438,"z":0.5999999642372131},"fault":{"name":"tire_pressure_imbalance","severity":1.0},"capture_flags":{"save_rgb":true,"save_depth":false,"video_rgb":true,"video_depth":false}}
{"frame":1343,"timestamp":{"delta_seconds":0.05000000074505806,"elapsed_seconds":18.908835615962744},"control":{"throttle":0.0694279596209526,"steer":0.022589292377233505,"brake":0.0,"hand_brake":false,"reverse":false,"manual_gear_shift":false,"gear":0},"transform":{"location":{"x":-56.05381774902344,"y":24.672101974487305,"z":0.001989173935726285},"rotation":{"pitch":0.0016050944104790688,"yaw":2.658576011657715,"roll":-0.007629394065588713}},"velocity":{"x":4.968613624572754,"y":0.29350733757019043,"z":-0.0032502650283277035},"angular_velocity":{"x":0.0023917153012007475,"y":0.03257674351334572,"z":2.308070182800293},"acceleration":{"x":-0.5376529693603516,"y":0.18010377883911133,"z":-0.1482257843017578},"speed_mps":4.97727621010933,"speed_kph":17.918194356393588,"speed_limit_kph":30.0,"collisions_this_frame":[],"waypoint":{"x":-56.05341720581055,"y":24.528276443481445,"z":0.0},"lane_deviation_m":0.14383983612060547,"lane_width":3.5,"goal":{"x":32.992610931396484,"y":-67.89999389648438,"z":0.5999999642372131},"fault":{"name":"tire_pressure_imbalance","severity":1.0},"capture_flags":{"save_rgb":true,"save_depth":false,"video_rgb":true,"video_depth":false}}
{"frame":1344,"timestamp":{"delta_seconds":0.05000000074505806,"elapsed_seconds":18.958835616707802},"control":{"throttle":0.20433098077774048,"steer":0.006634470075368881,"brake":0.0,"hand_brake":false,"reverse":false,"manual_gear_shift":false,"gear":0},"transform":{"location":{"x":-55.806400299072266,"y":24.685302734375,"z":0.001896400353871286},"rotation":{"pitch":-0.00036883019492961466,"yaw":2.7268242835998535,"roll":-0.0031433103140443563}},"velocity":{"x":4.935324192047119,"y":0.2644606828689575,"z":-0.001460924162529409},"angular_velocity":{"x":-0.08837953209877014,"y":0.0354493148624897,"z":1.0018106698989868},"acceleration":{"x":-0.6657886505126953,"y":-0.5809330940246582,"z":0.03578681871294975},"speed_mps":4.942404927531583,"speed_kph":17.7926577391137,"speed_limit_kph":30.0,"collisions_this_frame":[],"waypoint":{"x":-55.805965423583984,"y":24.52896499633789,"z":0.0},"lane_deviation_m":0.15634985268115997,"lane_width":3.5,"goal":{"x":32.992610931396484,"y":-67.89999389648438,"z":0.5999999642372131},"fault":{"name":"tire_pressure_imbalance","severity":1.0},"capture_flags":{"save_rgb":true,"save_depth":false,"video_rgb":true,"video_depth":false}}
{"frame":1345,"timestamp":{"delta_seconds":0.05000000074505806,"elapsed_seconds":19.00883561745286},"control":{"throttle":0.20433098077774048,"steer":0.006634470075368881,"brake":0.0,"hand_brake":false,"reverse":false,"manual_gear_shift":false,"gear":0},"transform":{"location":{"x":-55.56048583984375,"y":24.69805335998535,"z":0.0018630599370226264},"rotation":{"pitch":-0.0020763773936778307,"yaw":2.7670681476593018,"roll":-0.0006103515042923391}},"velocity":{"x":4.907536506652832,"y":0.2585541903972626,"z":-0.0005555343232117593},"angular_velocity":{"x":-0.03066766820847988,"y":0.02817867137491703,"z":0.7349029779434204},"acceleration":{"x":-0.5557537078857422,"y":-0.11812984943389893,"z":0.01810779608786106},"speed_mps":4.914342798596843,"speed_kph":17.691634074948638,"speed_limit_kph":30.0,"collisions_this_frame":[],"waypoint":{"x":-55.560020446777344,"y":24.529647827148438,"z":0.0},"lane_deviation_m":0.16841647028923035,"lane_width":3.5,"goal":{"x":32.992610931396484,"y":-67.89999389648438,"z":0.5999999642372131},"fault":{"name":"tire_pressure_imbalance","severity":1.0},"capture_flags":{"save_rgb":true,"save_depth":false,"video_rgb":true,"video_depth":false}}
