{"frame":86286,"timestamp":{"delta_seconds":0.05000000074505806,"elapsed_seconds":1168.6340048611164},"control":{"throttle":0.75,"steer":0.0,"brake":0.0,"hand_brake":false,"reverse":false,"manual_gear_shift":false,"gear":0},"transform":{"location":{"x":-87.27606201171875,"y":24.441530227661133,"z":0.48239994049072266},"rotation":{"pitch":0.0,"yaw":0.15919795632362366,"roll":0.0}},"velocity":{"x":0.0,"y":0.0,"z":-1.470000147819519},"angular_velocity":{"x":0.0,"y":0.0,"z":0.0},"acceleration":{"x":0.0,"y":0.0,"z":-9.80000114440918},"speed_mps":1.470000147819519,"speed_kph":5.2920005321502686,"speed_limit_kph":30.0,"collisions_this_frame":[],"waypoint":{"x":-87.27606201171875,"y":24.4415225982666,"z":0.0},"lane_deviation_m":0.48239994049072266,"lane_width":3.5,"goal":{"x":7.4111151695251465,"y":-60.89999771118164,"z":0.5999999642372131},"fault":{"name":"camera_blackout","severity":1.0},"capture_flags":{"save_rgb":true,"save_depth":false,"video_rgb":true,"video_depth":false}}
{"frame":86287,"timestamp":{"delta_seconds":0.05000000074505806,"elapsed_seconds":1168.6840048618615},"control":{"throttle":0.75,"steer":0.0,"brake":0.0,"hand_brake":false,"reverse":false,"manual_gear_shift":false,"gear":0},"transform":{"location":{"x":-87.27606201171875,"y":24.441530227661133,"z":0.394199937582016},"rotation":{"pitch":0.0,"yaw":0.15919795632362366,"roll":0.0}},"velocity":{"x":0.0,"y":0.0,"z":-1.9600002765655518},"angular_velocity":{"x":0.0,"y":0.0,"z":0.0},"acceleration":{"x":0.0,"y":0.0,"z":-9.800003051757812},"speed_mps":1.9600002765655518,"speed_kph":7.056000995635986,"speed_limit_kph":30.0,"collisions_this_frame":[],"waypoint":{"x":-87.27606201171875,"y":24.4415225982666,"z":0.0},"lane_deviation_m":0.394199937582016,"lane_width":3.5,"goal":{"x":7.4111151695251465,"y":-60.89999771118164,"z":0.5999999642372131},"fault":{"name":"camera_blackout","severity":1.0},"capture_flags":{"save_rgb":true,"save_depth":false,"video_rgb":true,"video_depth":false}}
{"frame":86288,"timestamp":{"delta_seconds":0.05000000074505806,"elapsed_seconds":1168.7340048626065},"control":{"throttle":0.75,"steer":0.0,"brake":0.0,"hand_brake":false,"reverse":false,"manual_gear_shift":false,"gear":0},"transform":{"location":{"x":-87.27606201171875,"y":24.441530227661133,"z":0.28150004148483276},"rotation":{"pitch":0.0,"yaw":0.15919795632362366,"roll":0.0}},"velocity":{"x":0.0,"y":0.0,"z":-2.450000286102295},"angular_velocity":{"x":0.0,"y":0.0,"z":0.0},"acceleration":{"x":0.0,"y":0.0,"z":-9.800000190734863},"speed_mps":2.450000286102295,"speed_kph":8.820001029968262,"speed_limit_kph":30.0,"collisions_this_frame":[],"waypoint":{"x":-87.27606201171875,"y":24.4415225982666,"z":0.0},"lane_deviation_m":0.28150004148483276,"lane_width":3.5,"goal":{"x":7.4111151695251465,"y":-60.89999771118164,"z":0.5999999642372131},"fault":{"name":"camera_blackout","severity":1.0},"capture_flags":{"save_rgb":true,"save_depth":false,"video_rgb":true,"video_depth":false}}
{"frame":86289,"timestamp":{"delta_seconds":0.05000000074505806,"elapsed_seconds":1168.7840048633516},"control":{"throttle":0.75,"steer":0.0,"brake":0.0,"hand_brake":false,"reverse":false,"manual_gear_shift":false,"gear":0},"transform":{"location":{"x":-87.27606201171875,"y":24.441530227661133,"z":0.1442999690771103},"rotation":{"pitch":0.0,"yaw":0.15919795632362366,"roll":0.0}},"velocity":{"x":0.0,"y":0.0,"z":-2.93999981880188},"angular_velocity":{"x":0.0,"y":0.0,"z":0.0},"acceleration":{"x":0.0,"y":0.0,"z":-9.7999906539917},"speed_mps":2.93999981880188,"speed_kph":10.583999347686769,"speed_limit_kph":30.0,"collisions_this_frame":[],"waypoint":{"x":-87.27606201171875,"y":24.4415225982666,"z":0.0},"lane_deviation_m":0.1442999690771103,"lane_width":3.5,"goal":{"x":7.4111151695251465,"y":-60.89999771118164,"z":0.5999999642372131},"fault":{"name":"camera_blackout","severity":1.0},"capture_flags":{"save_rgb":true,"save_depth":false,"video_rgb":true,"video_depth":false}}
{"frame":86290,"timestamp":{"delta_seconds":0.05000000074505806,"elapsed_seconds":1168.8340048640966},"control":{"throttle":0.75,"steer":0.0,"brake":0.0,"hand_brake":false,"reverse":false,"manual_gear_shift":false,"gear":0},"transform":{"location":{"x":-87.27606201171875,"y":24.441530227661133,"z":0.008085555396974087},"rotation":{"pitch":0.0,"yaw":0.15919795632362366,"roll":0.0}},"velocity":{"x":-5.627132964036718e-07,"y":-8.181903467630036e-06,"z":-2.0645968914031982},"angular_velocity":{"x":0.0008301881607621908,"y":-0.0008562442963011563,"z":-2.8715980704419053e-08},"acceleration":{"x":-1.1254265700699762e-05,"y":-0.0001636380620766431,"z":17.508058547973633},"speed_mps":2.064596891419487,"speed_kph":7.432548809110154,"speed_limit_kph":30.0,"collisions_this_frame":[],"waypoint":{"x":-87.27606201171875,"y":24.4415225982666,"z":0.0},"lane_deviation_m":0.008085559122264385,"lane_width":3.5,"goal":{"x":7.4111151695251465,"y":-60.89999771118164,"z":0.5999999642372131},"fault":{"name":"camera_blackout","severity":1.0},"capture_flags":{"save_rgb":true,"save_depth":false,"video_rgb":true,"video_depth":false}}
{"frame":86291,"timestamp":{"delta_seconds":0.05000000074505806,"elapsed_seconds":1168.8840048648417},"control":{"throttle":0.75,"steer":0.0,"brake":0.0,"hand_brake":false,"reverse":false,"manual_gear_shift":false,"gear":0},"transform":{"location":{"x":-87.27606201171875,"y":24.441530227661133,"z":-0.05158813297748566},"rotation":{"pitch":0.0,"yaw":0.15919795632362366,"roll":0.0}},"velocity":{"x":-1.6120702639454976e-07,"y":-1.8884844621425145e-06,"z":-0.7380883693695068},"angular_velocity":{"x":0.0001682727161096409,"y":-0.000237644009757787,"z":1.3360478945401155e-08},"acceleration":{"x":8.030125172808766e-06,"y":0.00012586837692651898,"z":26.530170440673828},"speed_mps":0.7380883693719403,"speed_kph":2.6571181297389854,"speed_limit_kph":30.0,"collisions_this_frame":[],"waypoint":{"x":-87.27606201171875,"y":24.4415225982666,"z":0.0},"lane_deviation_m":0.05158813297748566,"lane_width":3.5,"goal":{"x":7.4111151695251465,"y":-60.89999771118164,"z":0.5999999642372131},"fault":{"name":"camera_blackout","severity":1.0},"capture_flags":{"save_rgb":true,"save_depth":false,"video_rgb":true,"video_depth":false}}
{"frame":86292,"timestamp":{"delta_seconds":0.05000000074505806,"elapsed_seconds":1168.9340048655868},"control":{"throttle":0.75,"steer":0.0,"brake":0.0,"hand_brake":false,"reverse":false,"manual_gear_shift":false,"gear":0},"transform":{"location":{"x":-87.27606201171875,"y":24.441530227661133,"z":-0.06773185729980469},"rotation":{"pitch":0.0,"yaw":0.15919795632362366,"roll":0.0}},"velocity":{"x":-2.9048887739691054e-08,"y":-1.5739190928343305e-07,"z":-0.11209765821695328},"angular_velocity":{"x":-8.758489457250107e-06,"y":-4.281795918359421e-05,"z":-1.8764541032112447e-09},"acceleration":{"x":2.6431625883560628e-06,"y":3.4621851227711886e-05,"z":12.519813537597656},"speed_mps":0.11209765821706753,"speed_kph":0.4035515695814431,"speed_limit_kph":30.0,"collisions_this_frame":[],"waypoint":{"x":-87.27606201171875,"y":24.4415225982666,"z":0.0},"lane_deviation_m":0.06773185729980469,"lane_width":3.5,"goal":{"x":7.4111151695251465,"y":-60.89999771118164,"z":0.5999999642372131},"fault":{"name":"camera_blackout","severity":1.0},"capture_flags":{"save_rgb":true,"save_depth":false,"video_rgb":true,"video_depth":false}}
{"frame":86293,"timestamp":{"delta_seconds":0.05000000074505806,"elapsed_seconds":1168.9840048663318},"control":{"throttle":0.75,"steer":0.0,"brake":0.0,"hand_brake":false,"reverse":false,"manual_gear_shift":false,"gear":0},"transform":{"location":{"x":-87.27606201171875,"y":24.441530227661133,"z":-0.06445323675870895},"rotation":{"pitch":0.0,"yaw":0.15919795632362366,"roll":0.0}},"velocity":{"x":1.0809714900972267e-08,"y":-2.248537640525683e-07,"z":0.15056143701076508},"angular_velocity":{"x":7.842764716770034e-06,"y":1.3832303920935374e-05,"z":3.057921915683437e-09},"acceleration":{"x":7.971720492605527e-07,"y":-1.3492370953827049e-06,"z":5.2531819343566895},"speed_mps":0.15056143701093336,"speed_kph":0.54202117323936,"speed_limit_kph":30.0,"collisions_this_frame":[],"waypoint":{"x":-87.27606201171875,"y":24.4415225982666,"z":0.0},"lane_deviation_m":0.06445323675870895,"lane_width":3.5,"goal":{"x":7.4111151695251465,"y":-60.89999771118164,"z":0.5999999642372131},"fault":{"name":"camera_blackout","severity":1.0},"capture_flags":{"save_rgb":true,"save_depth":false,"video_rgb":true,"video_depth":false}}
{"frame":86294,"timestamp":{"delta_seconds":0.05000000074505806,"elapsed_seconds":1169.0340048670769},"control":{"throttle":0.75,"steer":0.0,"brake":0.0,"hand_brake":false,"reverse":false,"manual_gear_shift":false,"gear":0},"transform":{"location":{"x":-87.27606201171875,"y":24.441530227661133,"z":-0.05396205931901932},"rotation":{"pitch":0.0,"yaw":0.15919795632362366,"roll":0.0}},"velocity":{"x":2.2112194741907842e-08,"y":4.9871268004153535e-08,"z":0.23337309062480927},"angular_velocity":{"x":3.126157753285952e-05,"y":3.1018695153761655e-05,"z":-8.580062355045825e-11},"acceleration":{"x":2.2604959326599783e-07,"y":5.494500783242984e-06,"z":1.6562330722808838},"speed_mps":0.23337309062481565,"speed_kph":0.8401431262493364,"speed_limit_kph":30.0,"collisions_this_frame":[],"waypoint":{"x":-87.27606201171875,"y":24.4415225982666,"z":0.0},"lane_deviation_m":0.05396205931901932,"lane_width":3.5,"goal":{"x":7.4111151695251465,"y":-60.89999771118164,"z":0.5999999642372131},"fault":{"name":"camera_blackout","severity":1.0},"capture_flags":{"save_rgb":true,"save_depth":false,"video_rgb":true,"video_depth":false}}
{"frame":86295,"timestamp":{"delta_seconds":0.05000000074505806,"elapsed_seconds":1169.084004867822},"control":{"throttle":0.75,"steer":0.0,"brake":0.0,"hand_brake":false,"reverse":false,"manual_gear_shift":false,"gear":0},"transform":{"location":{"x":-87.27606201171875,"y":24.441530227661133,"z":-0.04207828268408775},"rotation":{"pitch":0.0,"yaw":0.15919795632362366,"roll":0.0}},"velocity":{"x":1.49268615246001e-08,"y":3.4341347543431766e-08,"z":0.23370538651943207},"angular_velocity":{"x":-3.2632526654197136e-06,"y":2.087868779199198e-05,"z":9.815771528920436e-10},"acceleration":{"x":-1.4370667145158222e-07,"y":-3.105984092144354e-07,"z":0.006645917892456055},"speed_mps":0.23370538651943507,"speed_kph":0.8413393914699663,"speed_limit_kph":30.0,"collisions_this_frame":[],"waypoint":{"x":-87.27606201171875,"y":24.4415225982666,"z":0.0},"lane_deviation_m":0.04207828268408775,"lane_width":3.5,"goal":{"x":7.4111151695251465,"y":-60.89999771118164,"z":0.5999999642372131},"fault":{"name":"camera_blackout","severity":1.0},"capture_flags":{"save_rgb":true,"save_depth":false,"video_rgb":true,"video_depth":false}}
{"frame":86296,"timestamp":{"delta_seconds":0.05000000074505806,"elapsed_seconds":1169.134004868567},"control":{"throttle":0.75,"steer":0.0,"brake":0.0,"hand_brake":false,"reverse":false,"manual_gear_shift":false,"gear":0},"transform":{"location":{"x":-87.26368713378906,"y":24.441566467285156,"z":-0.031377408653497696},"rotation":{"pitch":0.014541472308337688,"yaw":0.15892058610916138,"roll":-6.103515261202119e-05}},"velocity":{"x":0.603217601776123,"y":0.0016928560798987746,"z":0.20143474638462067},"angular_velocity":{"x":0.0017882379470393062,"y":-0.6498786211013794,"z":0.0003541625337675214},"acceleration":{"x":12.064352035522461,"y":0.03385643661022186,"z":-0.645412802696228},"speed_mps":0.635964069665324,"speed_kph":2.2894706507951668,"speed_limit_kph":30.0,"collisions_this_frame":[],"waypoint":{"x":-87.26368713378906,"y":24.441556930541992,"z":0.0},"lane_deviation_m":0.031377408653497696,"lane_width":3.5,"goal":{"x":7.4111151695251465,"y":-60.89999771118164,"z":0.5999999642372131},"fault":{"name":"camera_blackout","severity":1.0},"capture_flags":{"save_rgb":true,"save_depth":false,"video_rgb":true,"video_depth":false}}
{"frame":86297,"timestamp":{"delta_seconds":0.05000000074505806,"elapsed_seconds":1169.184004869312},"control":{"throttle":0.75,"steer":0.0,"brake":0.0,"hand_brake":false,"reverse":false,"manual_gear_shift":false,"gear":0},"transform":{"location":{"x":-87.21390533447266,"y":24.44170379638672,"z":-0.022708015516400337},"rotation":{"pitch":0.04653407633304596,"yaw":0.158895805478096,"roll":-6.103515625e-05}},"velocity":{"x":1.2321677207946777,"y":0.0034187715500593185,"z":0.16076505184173584},"angular_velocity":{"x":0.0015874805394560099,"y":-0.5739223957061768,"z":0.0001072092418326065},"acceleration":{"x":12.579002380371094,"y":0.03451830893754959,"z":-0.8133938908576965},"speed_mps":1.2426159431058892,"speed_kph":4.473417395181201,"speed_limit_kph":30.0,"collisions_this_frame":[],"waypoint":{"x":-87.21390533447266,"y":24.441696166992188,"z":0.0},"lane_deviation_m":0.022708017379045486,"lane_width":3.5,"goal":{"x":7.4111151695251465,"y":-60.89999771118164,"z":0.5999999642372131},"fault":{"name":"camera_blackout","severity":1.0},"capture_flags":{"save_rgb":true,"save_depth":false,"video_rgb":true,"video_depth":false}}
{"frame":86298,"timestamp":{"delta_seconds":0.05000000074505806,"elapsed_seconds":1169.234004870057},"control":{"throttle":0.75,"steer":0.08428016304969788,"brake":0.0,"hand_brake":false,"reverse":false,"manual_gear_shift":false,"gear":0},"transform":{"location":{"x":-87.13314056396484,"y":24.44388771057129,"z":-0.015994872897863388},"rotation":{"pitch":0.07285762578248978,"yaw":0.2520998418331146,"roll":-0.00958251953125}},"velocity":{"x":1.7945802211761475,"y":0.08821707218885422,"z":0.12241490930318832},"angular_velocity":{"x":0.23988594114780426,"y":-0.38379624485969543,"z":3.0204854011535645},"acceleration":{"x":11.248250007629395,"y":1.6959660053253174,"z":-0.7670028209686279},"speed_mps":1.8009124998405424,"speed_kph":6.483284999425953,"speed_limit_kph":30.0,"collisions_this_frame":[],"waypoint":{"x":-87.13313293457031,"y":24.44192123413086,"z":0.0},"lane_deviation_m":0.016115304082632065,"lane_width":3.5,"goal":{"x":7.4111151695251465,"y":-60.89999771118164,"z":0.5999999642372131},"fault":{"name":"camera_blackout","severity":1.0},"capture_flags":{"save_rgb":true,"save_depth":false,"video_rgb":true,"video_depth":false}}
{"frame":86299,"timestamp":{"delta_seconds":0.05000000074505806,"elapsed_seconds":1169.2840048708022},"control":{"throttle":0.75,"steer":0.08428016304969788,"brake":0.0,"hand_brake":false,"reverse":false,"manual_gear_shift":false,"gear":0},"transform":{"location":{"x":-87.02826690673828,"y":24.44876480102539,"z":-0.010953215882182121},"rotation":{"pitch":0.08789770305156708,"yaw":0.43856722116470337,"roll":-0.01739501766860485}},"velocity":{"x":2.2536604404449463,"y":0.13351412117481232,"z":0.09030820429325104},"angular_velocity":{"x":0.09904924780130386,"y":-0.2007530927658081,"z":3.630697727203369},"acceleration":{"x":9.181604385375977,"y":0.9059410095214844,"z":-0.6421340703964233},"speed_mps":2.2594173968397833,"speed_kph":8.13390262862322,"speed_limit_kph":30.0,"collisions_this_frame":[],"waypoint":{"x":-87.02825164794922,"y":24.442211151123047,"z":0.0},"lane_deviation_m":0.012764149345457554,"lane_width":3.5,"goal":{"x":7.4111151695251465,"y":-60.89999771118164,"z":0.5999999642372131},"fault":{"name":"camera_blackout","severity":1.0},"capture_flags":{"save_rgb":true,"save_depth":false,"video_rgb":true,"video_depth":false}}
{"frame":86300,"timestamp":{"delta_seconds":0.05000000074505806,"elapsed_seconds":1169.3340048715472},"control":{"throttle":0.75,"steer":0.06736020743846893,"brake":0.0,"hand_brake":false,"reverse":false,"manual_gear_shift":false,"gear":0},"transform":{"location":{"x":-86.90504455566406,"y":24.45438575744629,"z":-0.007248344365507364},"rotation":{"pitch":0.09263785183429718,"yaw":0.6333386898040771,"roll":-0.016937255859375}},"velocity":{"x":2.5882091522216797,"y":0.14033620059490204,"z":0.06511086970567703},"angular_velocity":{"x":-0.02358701080083847,"y":-0.024482203647494316,"z":4.456809997558594},"acceleration":{"x":6.690974235534668,"y":0.13644158840179443,"z":-0.5039466619491577},"speed_mps":2.592828627232295,"speed_kph":9.334183058036261,"speed_limit_kph":30.0,"collisions_this_frame":[],"waypoint":{"x":-86.90501403808594,"y":24.442554473876953,"z":0.0},"lane_deviation_m":0.013875111006200314,"lane_width":3.5,"goal":{"x":7.4111151695251465,"y":-60.89999771118164,"z":0.5999999642372131},"fault":{"name":"camera_blackout","severity":1.0},"capture_flags":{"save_rgb":true,"save_depth":false,"video_rgb":true,"video_depth":false}}
{"frame":86301,"timestamp":{"delta_seconds":0.05000000074505806,"elapsed_seconds":1169.3840048722923},"control":{"throttle":0.75,"steer":0.06736020743846893,"brake":0.0,"hand_brake":false,"reverse":false,"manual_gear_shift":false,"gear":0},"transform":{"location":{"x":-86.76683044433594,"y":24.460872650146484,"z":-0.004576034378260374},"rotation":{"pitch":0.09115570038557053,"yaw":0.828083336353302,"roll":-0.0159912109375}},"velocity":{"x":2.878551959991455,"y":0.16170507669448853,"z":0.04613495618104935},"angular_velocity":{"x":-0.014708372764289379,"y":0.05488245561718941,"z":3.589756727218628},"acceleration":{"x":5.806856155395508,"y":0.42737752199172974,"z":-0.3795182704925537},"speed_mps":2.883459441778442,"speed_kph":10.380453990402392,"speed_limit_kph":30.0,"collisions_this_frame":[],"waypoint":{"x":-86.76678466796875,"y":24.44293785095215,"z":0.0},"lane_deviation_m":0.018509436398744583,"lane_width":3.5,"goal":{"x":7.4111151695251465,"y":-60.89999771118164,"z":0.5999999642372131},"fault":{"name":"camera_blackout","severity":1.0},"capture_flags":{"save_rgb":true,"save_depth":false,"video_rgb":true,"video_depth":false}}
{"frame":86302,"timestamp":{"delta_seconds":0.05000000074505806,"elapsed_seconds":1169.4340048730373},"control":{"throttle":0.0,"steer":-0.005725912284106016,"brake":1.0,"hand_brake":false,"reverse":false,"manual_gear_shift":false,"gear":0},"transform":{"location":{"x":-86.61572265625,"y":24.46518325805664,"z":-0.002674636896699667},"rotation":{"pitch":0.08616283535957336,"yaw":0.9015283584594727,"roll":-0.0015869140625}},"velocity":{"x":3.0994861125946045,"y":0.06745905429124832,"z":0.032251205295324326},"angular_velocity":{"x":-0.284234881401062,"y":0.1363029181957245,"z":0.8954550623893738},"acceleration":{"x":4.418683052062988,"y":-1.8849204778671265,"z":-0.2776750326156616},"speed_mps":3.1003878832197245,"speed_kph":11.16139637959101,"speed_limit_kph":30.0,"collisions_this_frame":[],"waypoint":{"x":-86.61566162109375,"y":24.443357467651367,"z":0.0},"lane_deviation_m":0.02198914624750614,"lane_width":3.5,"goal":{"x":7.4111151695251465,"y":-60.89999771118164,"z":0.5999999642372131},"fault":{"name":"camera_blackout","severity":1.0},"capture_flags":{"save_rgb":true,"save_depth":false,"video_rgb":true,"video_depth":false}}
{"frame":86303,"timestamp":{"delta_seconds":0.05000000074505806,"elapsed_seconds":1169.4840048737824},"control":{"throttle":0.0,"steer":-0.005725912284106016,"brake":1.0,"hand_brake":false,"reverse":false,"manual_gear_shift":false,"gear":0},"transform":{"location":{"x":-86.45819091796875,"y":24.467809677124023,"z":-0.0013101577060297132},"rotation":{"pitch":0.07524818927049637,"yaw":0.8859306573867798,"roll":0.006518674083054066}},"velocity":{"x":3.166063070297241,"y":0.04543152078986168,"z":0.0223008431494236},"angular_velocity":{"x":-0.09753349423408508,"y":0.27022963762283325,"z":-1.0532112121582031},"acceleration":{"x":1.3315391540527344,"y":-0.44055068492889404,"z":-0.19900724291801453},"speed_mps":3.166467545354989,"speed_kph":11.39928316327796,"speed_limit_kph":30.0,"collisions_this_frame":[],"waypoint":{"x":-86.45812225341797,"y":24.443796157836914,"z":0.0},"lane_deviation_m":0.02404933050274849,"lane_width":3.5,"goal":{"x":7.4111151695251465,"y":-60.89999771118164,"z":0.5999999642372131},"fault":{"name":"camera_blackout","severity":1.0},"capture_flags":{"save_rgb":true,"save_depth":false,"video_rgb":true,"video_depth":false}}
{"frame":86304,"timestamp":{"delta_seconds":0.05000000074505806,"elapsed_seconds":1169.5340048745275},"control":{"throttle":0.0,"steer":0.001955627463757992,"brake":1.0,"hand_brake":false,"reverse":false,"manual_gear_shift":false,"gear":0},"transform":{"location":{"x":-86.3016128540039,"y":24.470232009887695,"z":-0.0003177261387463659},"rotation":{"pitch":0.05845958739519119,"yaw":0.8923773169517517,"roll":0.0064016287215054035}},"velocity":{"x":3.09867000579834,"y":0.050220273435115814,"z":0.01527867279946804},"angular_velocity":{"x":0.02386566437780857,"y":0.37051379680633545,"z":0.8733215928077698},"acceleration":{"x":-1.3478612899780273,"y":0.0957750529050827,"z":-0.14044341444969177},"speed_mps":3.0991146023567273,"speed_kph":11.156812568484218,"speed_limit_kph":30.0,"collisions_this_frame":[],"waypoint":{"x":-86.30154418945312,"y":24.444231033325195,"z":0.0},"lane_deviation_m":0.02600300870835781,"lane_width":3.5,"goal":{"x":7.4111151695251465,"y":-60.89999771118164,"z":0.5999999642372131},"fault":{"name":"camera_blackout","severity":1.0},"capture_flags":{"save_rgb":true,"save_depth":false,"video_rgb":true,"video_depth":false}}
{"frame":86305,"timestamp":{"delta_seconds":0.05000000074505806,"elapsed_seconds":1169.5840048752725},"control":{"throttle":0.0,"steer":0.001955627463757992,"brake":1.0,"hand_brake":false,"reverse":false,"manual_gear_shift":false,"gear":0},"transform":{"location":{"x":-86.15110778808594,"y":24.472745895385742,"z":0.00040779111441224813},"rotation":{"pitch":0.03876814991235733,"yaw":0.8892925381660461,"roll":0.004939404781907797}},"velocity":{"x":2.948822498321533,"y":0.04906662926077843,"z":0.010389155708253384},"angular_velocity":{"x":0.02020629122853279,"y":0.39843183755874634,"z":-0.7312188744544983},"acceleration":{"x":-2.996950149536133,"y":-0.02307288348674774,"z":-0.09779034554958344},"speed_mps":2.9492489883478124,"speed_kph":10.617296358052124,"speed_limit_kph":30.0,"collisions_this_frame":[],"waypoint":{"x":-86.15103149414062,"y":24.44464874267578,"z":0.0},"lane_deviation_m":0.028100216761231422,"lane_width":3.5,"goal":{"x":7.4111151695251465,"y":-60.89999771118164,"z":0.5999999642372131},"fault":{"name":"camera_blackout","severity":1.0},"capture_flags":{"save_rgb":true,"save_depth":false,"video_rgb":true,"video_depth":false}}
{"frame":86306,"timestamp":{"delta_seconds":0.05000000074505806,"elapsed_seconds":1169.6340048760176},"control":{"throttle":0.0,"steer":0.001955627463757992,"brake":1.0,"hand_brake":false,"reverse":false,"manual_gear_shift":false,"gear":0},"transform":{"location":{"x":-86.00914001464844,"y":24.475046157836914,"z":0.0009323119884356856},"rotation":{"pitch":0.019773395732045174,"yaw":0.9039446711540222,"roll":0.003669776488095522}},"velocity":{"x":2.768934965133667,"y":0.04658936336636543,"z":0.007019309792667627},"angular_velocity":{"x":0.017945408821105957,"y":0.3627167046070099,"z":1.0073589086532593},"acceleration":{"x":-3.597750663757324,"y":-0.04954531788825989,"z":-0.06739691644906998},"speed_mps":2.769335783293285,"speed_kph":9.969608819855825,"speed_limit_kph":30.0,"collisions_this_frame":[],"waypoint":{"x":-86.0090560913086,"y":24.445043563842773,"z":0.0},"lane_deviation_m":0.030017193406820297,"lane_width":3.5,"goal":{"x":7.4111151695251465,"y":-60.89999771118164,"z":0.5999999642372131},"fault":{"name":"camera_blackout","severity":1.0},"capture_flags":{"save_rgb":true,"save_depth":false,"video_rgb":true,"video_depth":false}}
{"frame":86307,"timestamp":{"delta_seconds":0.05000000074505806,"elapsed_seconds":1169.6840048767626},"control":{"throttle":0.0,"steer":0.001955627463757992,"brake":1.0,"hand_brake":false,"reverse":false,"manual_gear_shift":false,"gear":0},"transform":{"location":{"x":-85.8766098022461,"y":24.47731590270996,"z":0.0013066863175481558},"rotation":{"pitch":0.0033877736423164606,"yaw":0.9004546403884888,"roll":0.0027450781781226397}},"velocity":{"x":2.5744645595550537,"y":0.04368680715560913,"z":0.004714116919785738},"angular_velocity":{"x":0.011350194923579693,"y":0.3038959503173828,"z":-0.8271303176879883},"acceleration":{"x":-3.8894081115722656,"y":-0.05805112421512604,"z":-0.04610385745763779},"speed_mps":2.574839515081043,"speed_kph":9.269422254291754,"speed_limit_kph":30.0,"collisions_this_frame":[],"waypoint":{"x":-85.87651824951172,"y":24.445411682128906,"z":0.0},"lane_deviation_m":0.03193110227584839,"lane_width":3.5,"goal":{"x":7.4111151695251465,"y":-60.89999771118164,"z":0.5999999642372131},"fault":{"name":"camera_blackout","severity":1.0},"capture_flags":{"save_rgb":true,"save_depth":false,"video_rgb":true,"video_depth":false}}
{"frame":86308,"timestamp":{"delta_seconds":0.05000000074505806,"elapsed_seconds":1169.7340048775077},"control":{"throttle":0.05000000074505806,"steer":0.08112432807683945,"brake":0.0,"hand_brake":false,"reverse":false,"manual_gear_shift":false,"gear":0},"transform":{"location":{"x":-85.75334167480469,"y":24.481327056884766,"z":0.0015667724655941129},"rotation":{"pitch":-0.00915928278118372,"yaw":1.0138626098632812,"roll":-0.007781981490552425}},"velocity":{"x":2.4041588306427,"y":0.1260204315185547,"z":0.003150405827909708},"angular_velocity":{"x":0.2536640465259552,"y":0.21235685050487518,"z":4.2847394943237305},"acceleration":{"x":-3.4061145782470703,"y":1.6466724872589111,"z":-0.0312742218375206},"speed_mps":2.407461475740428,"speed_kph":8.66686131266554,"speed_limit_kph":30.0,"collisions_this_frame":[],"waypoint":{"x":-85.75324249267578,"y":24.445755004882812,"z":0.0},"lane_deviation_m":0.03560667857527733,"lane_width":3.5,"goal":{"x":7.4111151695251465,"y":-60.89999771118164,"z":0.5999999642372131},"fault":{"name":"camera_blackout","severity":1.0},"capture_flags":{"save_rgb":true,"save_depth":false,"video_rgb":true,"video_depth":false}}
{"frame":86309,"timestamp":{"delta_seconds":0.05000000074505806,"elapsed_seconds":1169.7840048782527},"control":{"throttle":0.05000000074505806,"steer":0.08112432807683945,"brake":0.0,"hand_brake":false,"reverse":false,"manual_gear_shift":false,"gear":0},"transform":{"location":{"x":-85.63616943359375,"y":24.48770523071289,"z":0.0017293548444285989},"rotation":{"pitch":-0.01571626402437687,"yaw":1.1977260112762451,"roll":-0.015289307571947575}},"velocity":{"x":2.314440965652466,"y":0.15796606242656708,"z":0.002095718402415514},"angular_velocity":{"x":0.08007504045963287,"y":0.08101550489664078,"z":3.1127429008483887},"acceleration":{"x":-1.7943572998046875,"y":0.6389126181602478,"z":-0.02109374850988388},"speed_mps":2.319826427214867,"speed_kph":8.351375137973521,"speed_limit_kph":30.0,"collisions_this_frame":[],"waypoint":{"x":-85.63605499267578,"y":24.446081161499023,"z":0.0},"lane_deviation_m":0.0416601337492466,"lane_width":3.5,"goal":{"x":7.4111151695251465,"y":-60.89999771118164,"z":0.5999999642372131},"fault":{"name":"camera_blackout","severity":1.0},"capture_flags":{"save_rgb":true,"save_depth":false,"video_rgb":true,"video_depth":false}}
{"frame":86310,"timestamp":{"delta_seconds":0.05000000074505806,"elapsed_seconds":1169.8340048789978},"control":{"throttle":0.75,"steer":0.06624183803796768,"brake":0.0,"hand_brake":false,"reverse":false,"manual_gear_shift":false,"gear":0},"transform":{"location":{"x":-85.521728515625,"y":24.494247436523438,"z":0.0018190382979810238},"rotation":{"pitch":-0.016938868910074234,"yaw":1.3852168321609497,"roll":-0.01385498046875}},"velocity":{"x":2.2750914096832275,"y":0.15227589011192322,"z":0.0013903903309255838},"angular_velocity":{"x":-0.05227595567703247,"y":-0.005894017871469259,"z":4.3275322914123535},"acceleration":{"x":-0.7869911193847656,"y":-0.1138034462928772,"z":-0.014106561429798603},"speed_mps":2.2801821862099234,"speed_kph":8.208655870355724,"speed_limit_kph":30.0,"collisions_this_frame":[],"waypoint":{"x":-85.52159881591797,"y":24.44639778137207,"z":0.0},"lane_deviation_m":0.047884393483400345,"lane_width":3.5,"goal":{"x":7.4111151695251465,"y":-60.89999771118164,"z":0.5999999642372131},"fault":{"name":"camera_blackout","severity":1.0},"capture_flags":{"save_rgb":true,"save_depth":false,"video_rgb":true,"video_depth":false}}
{"frame":86311,"timestamp":{"delta_seconds":0.05000000074505806,"elapsed_seconds":1169.8840048797429},"control":{"throttle":0.75,"steer":0.06624183803796768,"brake":0.0,"hand_brake":false,"reverse":false,"manual_gear_shift":false,"gear":0},"transform":{"location":{"x":-85.40789031982422,"y":24.50105857849121,"z":0.0018606185913085938},"rotation":{"pitch":-0.014739547856152058,"yaw":1.5441445112228394,"roll":-0.011627197265625}},"velocity":{"x":2.2848846912384033,"y":0.15799261629581451,"z":0.000917034107260406},"angular_velocity":{"x":-0.03415767475962639,"y":-0.0718434602022171,"z":2.4703102111816406},"acceleration":{"x":0.19586563110351562,"y":0.11433452367782593,"z":-0.009467124938964844},"speed_mps":2.2903407082814478,"speed_kph":8.245226549813212,"speed_limit_kph":30.0,"collisions_this_frame":[],"waypoint":{"x":-85.4077377319336,"y":24.446714401245117,"z":0.0},"lane_deviation_m":0.054376233369112015,"lane_width":3.5,"goal":{"x":7.4111151695251465,"y":-60.89999771118164,"z":0.5999999642372131},"fault":{"name":"camera_blackout","severity":1.0},"capture_flags":{"save_rgb":true,"save_depth":false,"video_rgb":true,"video_depth":false}}
{"frame":86312,"timestamp":{"delta_seconds":0.05000000074505806,"elapsed_seconds":1169.934004880488},"control":{"throttle":0.75,"steer":0.06635953485965729,"brake":0.0,"hand_brake":false,"reverse":false,"manual_gear_shift":false,"gear":0},"transform":{"location":{"x":-85.29134368896484,"y":24.508243560791016,"z":0.0018632888095453382},"rotation":{"pitch":-0.00906366016715765,"yaw":1.7228577136993408,"roll":-0.010406493209302425}},"velocity":{"x":2.369819164276123,"y":0.1701943725347519,"z":0.0006060028099454939},"angular_velocity":{"x":-0.012060502544045448,"y":-0.14206257462501526,"z":4.288320064544678},"acceleration":{"x":1.6986894607543945,"y":0.24403512477874756,"z":-0.006220625713467598},"speed_mps":2.3759228445074316,"speed_kph":8.553322240226754,"speed_limit_kph":30.0,"collisions_this_frame":[],"waypoint":{"x":-85.29117584228516,"y":24.447038650512695,"z":0.0},"lane_deviation_m":0.06123349443078041,"lane_width":3.5,"goal":{"x":7.4111151695251465,"y":-60.89999771118164,"z":0.5999999642372131},"fault":{"name":"camera_blackout","severity":1.0},"capture_flags":{"save_rgb":true,"save_depth":false,"video_rgb":true,"video_depth":false}}
{"frame":86313,"timestamp":{"delta_seconds":0.05000000074505806,"elapsed_seconds":1169.984004881233},"control":{"throttle":0.75,"steer":0.06635953485965729,"brake":0.0,"hand_brake":false,"reverse":false,"manual_gear_shift":false,"gear":0},"transform":{"location":{"x":-85.1683578491211,"y":24.51628303527832,"z":0.001835784874856472},"rotation":{"pitch":-0.0003073585103265941,"yaw":1.8933442831039429,"roll":-0.010162352584302425}},"velocity":{"x":2.523569107055664,"y":0.1883905529975891,"z":0.0003982353082392365},"angular_velocity":{"x":0.007653154898434877,"y":-0.19241859018802643,"z":2.881263494491577},"acceleration":{"x":3.0749988555908203,"y":0.3639236092567444,"z":-0.004155349917709827},"speed_mps":2.530591274215538,"speed_kph":9.110128587175938,"speed_limit_kph":30.0,"collisions_this_frame":[],"waypoint":{"x":-85.16816711425781,"y":24.44738006591797,"z":0.0},"lane_deviation_m":0.06892768293619156,"lane_width":3.5,"goal":{"x":7.4111151695251465,"y":-60.89999771118164,"z":0.5999999642372131},"fault":{"name":"camera_blackout","severity":1.0},"capture_flags":{"save_rgb":true,"save_depth":false,"video_rgb":true,"video_depth":false}}
{"frame":86314,"timestamp":{"delta_seconds":0.05000000074505806,"elapsed_seconds":1170.034004881978},"control":{"throttle":0.0,"steer":0.06504100561141968,"brake":0.0,"hand_brake":false,"reverse":false,"manual_gear_shift":false,"gear":0},"transform":{"location":{"x":-85.03675842285156,"y":24.52512550354004,"z":0.0017942809499800205},"rotation":{"pitch":0.009411999955773354,"yaw":2.0881130695343018,"roll":-0.010223389603197575}},"velocity":{"x":2.6970314979553223,"y":0.20746129751205444,"z":0.0002594756952021271},"angular_velocity":{"x":0.009754590690135956,"y":-0.1824333369731903,"z":4.562375545501709},"acceleration":{"x":3.469247817993164,"y":0.38141489028930664,"z":-0.0027751922607421875},"speed_mps":2.7049989201950067,"speed_kph":9.737996112702024,"speed_limit_kph":30.0,"collisions_this_frame":[],"waypoint":{"x":-85.03654479980469,"y":24.44774627685547,"z":0.0},"lane_deviation_m":0.0774003192782402,"lane_width":3.5,"goal":{"x":7.4111151695251465,"y":-60.89999771118164,"z":0.5999999642372131},"fault":{"name":"camera_blackout","severity":1.0},"capture_flags":{"save_rgb":true,"save_depth":false,"video_rgb":true,"video_depth":false}}
{"frame":86315,"timestamp":{"delta_seconds":0.05000000074505806,"elapsed_seconds":1170.084004882723},"control":{"throttle":0.0,"steer":0.06504100561141968,"brake":0.0,"hand_brake":false,"reverse":false,"manual_gear_shift":false,"gear":0},"transform":{"location":{"x":-84.89774322509766,"y":24.53496742248535,"z":0.0017627334455028176},"rotation":{"pitch":0.016494905576109886,"yaw":2.2773091793060303,"roll":-0.01043701171875}},"velocity":{"x":2.825200080871582,"y":0.2263304442167282,"z":0.00016979216889012605},"angular_velocity":{"x":0.007430138066411018,"y":-0.108978271484375,"z":3.2965075969696045},"acceleration":{"x":2.5633716583251953,"y":0.37738293409347534,"z":-0.00179367046803236},"speed_mps":2.8342513995348955,"speed_kph":10.203305038325624,"speed_limit_kph":30.0,"collisions_this_frame":[],"waypoint":{"x":-84.89749908447266,"y":24.448131561279297,"z":0.0},"lane_deviation_m":0.08685409277677536,"lane_width":3.5,"goal":{"x":7.4111151695251465,"y":-60.89999771118164,"z":0.5999999642372131},"fault":{"name":"camera_blackout","severity":1.0},"capture_flags":{"save_rgb":true,"save_depth":false,"video_rgb":true,"video_depth":false}}
{"frame":86316,"timestamp":{"delta_seconds":0.05000000074505806,"elapsed_seconds":1170.1340048834682},"control":{"throttle":0.0,"steer":-0.0011378504568710923,"brake":1.0,"hand_brake":false,"reverse":false,"manual_gear_shift":false,"gear":0},"transform":{"location":{"x":-84.7560043334961,"y":24.542741775512695,"z":0.0017649078508839011},"rotation":{"pitch":0.017280377447605133,"yaw":2.358227491378784,"roll":0.0016896002925932407}},"velocity":{"x":2.8292043209075928,"y":0.1404705047607422,"z":0.00010919570922851562},"angular_velocity":{"x":-0.23412832617759705,"y":0.028532367199659348,"z":1.322572946548462},"acceleration":{"x":0.08008480072021484,"y":-1.7171988487243652,"z":-0.0012119291350245476},"speed_mps":2.832689369499175,"speed_kph":10.197681730197031,"speed_limit_kph":30.0,"collisions_this_frame":[],"waypoint":{"x":-84.75574493408203,"y":24.44852638244629,"z":0.0},"lane_deviation_m":0.09423228353261948,"lane_width":3.5,"goal":{"x":7.4111151695251465,"y":-60.89999771118164,"z":0.5999999642372131},"fault":{"name":"camera_blackout","severity":1.0},"capture_flags":{"save_rgb":true,"save_depth":false,"video_rgb":true,"video_depth":false}}
{"frame":86317,"timestamp":{"delta_seconds":0.05000000074505806,"elapsed_seconds":1170.1840048842132},"control":{"throttle":0.0,"steer":-0.0011378504568710923,"brake":1.0,"hand_brake":false,"reverse":false,"manual_gear_shift":false,"gear":0},"transform":{"location":{"x":-84.61666107177734,"y":24.548946380615234,"z":0.00179882044903934},"rotation":{"pitch":0.012219207361340523,"yaw":2.3560667037963867,"roll":0.007955350913107395}},"velocity":{"x":2.7503581047058105,"y":0.11771874874830246,"z":7.284164166776463e-05},"angular_velocity":{"x":-0.0693756565451622,"y":0.13446877896785736,"z":-0.8728929162025452},"acceleration":{"x":-1.5769243240356445,"y":-0.45503512024879456,"z":-0.0007270813221111894},"speed_mps":2.7528762073935886,"speed_kph":9.91035434661692,"speed_limit_kph":30.0,"collisions_this_frame":[],"waypoint":{"x":-84.61638641357422,"y":24.44891357421875,"z":0.0},"lane_deviation_m":0.10004935413599014,"lane_width":3.5,"goal":{"x":7.4111151695251465,"y":-60.89999771118164,"z":0.5999999642372131},"fault":{"name":"camera_blackout","severity":1.0},"capture_flags":{"save_rgb":true,"save_depth":false,"video_rgb":true,"video_depth":false}}
{"frame":86318,"timestamp":{"delta_seconds":0.05000000074505806,"elapsed_seconds":1170.2340048849583},"control":{"throttle":0.06272237747907639,"steer":0.07576193660497665,"brake":0.0,"hand_brake":false,"reverse":false,"manual_gear_shift":false,"gear":0},"transform":{"location":{"x":-84.482177734375,"y":24.557228088378906,"z":0.001844329759478569},"rotation":{"pitch":0.004931396339088678,"yaw":2.4957456588745117,"roll":-0.003936767112463713}},"velocity":{"x":2.659841775894165,"y":0.21120889484882355,"z":4.6310422476381063e-05},"angular_velocity":{"x":0.2544263005256653,"y":0.1432337909936905,"z":4.566888809204102},"acceleration":{"x":-1.8103265762329102,"y":1.8698029518127441,"z":-0.0005306244129315019},"speed_mps":2.6682142852851496,"speed_kph":9.605571427026538,"speed_limit_kph":30.0,"collisions_this_frame":[],"waypoint":{"x":-84.48188018798828,"y":24.44928741455078,"z":0.0},"lane_deviation_m":0.10795683413743973,"lane_width":3.5,"goal":{"x":7.4111151695251465,"y":-60.89999771118164,"z":0.5999999642372131},"fault":{"name":"camera_blackout","severity":1.0},"capture_flags":{"save_rgb":true,"save_depth":false,"video_rgb":true,"video_depth":false}}
{"frame":86319,"timestamp":{"delta_seconds":0.05000000074505806,"elapsed_seconds":1170.2840048857033},"control":{"throttle":0.06272237747907639,"steer":0.07576193660497665,"brake":0.0,"hand_brake":false,"reverse":false,"manual_gear_shift":false,"gear":0},"transform":{"location":{"x":-84.35030364990234,"y":24.56768035888672,"z":0.0018736267229542136},"rotation":{"pitch":0.00026637734845280647,"yaw":2.695315361022949,"roll":-0.01168823055922985}},"velocity":{"x":2.6231698989868164,"y":0.2405194491147995,"z":2.993583620991558e-05},"angular_velocity":{"x":0.086083322763443,"y":0.07691139727830887,"z":3.449554443359375},"acceleration":{"x":-0.7334375381469727,"y":0.586211085319519,"z":-0.0003274917253293097},"speed_mps":2.634173480477158,"speed_kph":9.48302452971777,"speed_limit_kph":30.0,"collisions_this_frame":[],"waypoint":{"x":-84.3499755859375,"y":24.44965362548828,"z":0.0},"lane_deviation_m":0.11804205924272537,"lane_width":3.5,"goal":{"x":7.4111151695251465,"y":-60.89999771118164,"z":0.5999999642372131},"fault":{"name":"camera_blackout","severity":1.0},"capture_flags":{"save_rgb":true,"save_depth":false,"video_rgb":true,"video_depth":false}}
{"frame":86320,"timestamp":{"delta_seconds":0.05000000074505806,"elapsed_seconds":1170.3340048864484},"control":{"throttle":0.06272237747907639,"steer":0.06311570107936859,"brake":0.0,"hand_brake":false,"reverse":false,"manual_gear_shift":false,"gear":0},"transform":{"location":{"x":-84.22018432617188,"y":24.578298568725586,"z":0.0018908691126853228},"rotation":{"pitch":-0.0025066793896257877,"yaw":2.8956832885742188,"roll":-0.011077879928052425}},"velocity":{"x":2.587364673614502,"y":0.23522397875785828,"z":2.1486281184479594e-05},"angular_velocity":{"x":-0.0361955352127552,"y":0.04469997435808182,"z":4.531190872192383},"acceleration":{"x":-0.7161045074462891,"y":-0.10590940713882446,"z":-0.00016899110050871968},"speed_mps":2.5980350796154803,"speed_kph":9.352926286615729,"speed_limit_kph":30.0,"collisions_this_frame":[],"waypoint":{"x":-84.2198257446289,"y":24.450016021728516,"z":0.0},"lane_deviation_m":0.12829698622226715,"lane_width":3.5,"goal":{"x":7.4111151695251465,"y":-60.89999771118164,"z":0.5999999642372131},"fault":{"name":"camera_blackout","severity":1.0},"capture_flags":{"save_rgb":true,"save_depth":false,"video_rgb":true,"video_depth":false}}
{"frame":86321,"timestamp":{"delta_seconds":0.05000000074505806,"elapsed_seconds":1170.3840048871934},"control":{"throttle":0.06272237747907639,"steer":0.06311570107936859,"brake":0.0,"hand_brake":false,"reverse":false,"manual_gear_shift":false,"gear":0},"transform":{"location":{"x":-84.09185028076172,"y":24.589130401611328,"z":0.0019024658249691129},"rotation":{"pitch":-0.004337169695645571,"yaw":3.067396402359009,"roll":-0.009521484375}},"velocity":{"x":2.551435708999634,"y":0.23843957483768463,"z":1.0910033779509831e-05},"angular_velocity":{"x":-0.028764717280864716,"y":0.029737023636698723,"z":2.713224172592163},"acceleration":{"x":-0.7185792922973633,"y":0.0643119215965271,"z":-0.00021152495173737407},"speed_mps":2.562552947380067,"speed_kph":9.22519061056824,"speed_limit_kph":30.0,"collisions_this_frame":[],"waypoint":{"x":-84.09146118164062,"y":24.45037269592285,"z":0.0},"lane_deviation_m":0.13877129554748535,"lane_width":3.5,"goal":{"x":7.4111151695251465,"y":-60.89999771118164,"z":0.5999999642372131},"fault":{"name":"camera_blackout","severity":1.0},"capture_flags":{"save_rgb":true,"save_depth":false,"video_rgb":true,"video_depth":false}}
{"frame":86322,"timestamp":{"delta_seconds":0.05000000074505806,"elapsed_seconds":1170.4340048879385},"control":{"throttle":0.06272237747907639,"steer":0.06097087636590004,"brake":0.0,"hand_brake":false,"reverse":false,"manual_gear_shift":false,"gear":0},"transform":{"location":{"x":-83.96537780761719,"y":24.599992752075195,"z":0.001910743652842939},"rotation":{"pitch":-0.005675886757671833,"yaw":3.2487752437591553,"roll":-0.008026123046875}},"velocity":{"x":2.513176679611206,"y":0.2395482212305069,"z":9.479522304900456e-06},"angular_velocity":{"x":-0.027614202350378036,"y":0.022523019462823868,"z":4.274041652679443},"acceleration":{"x":-0.7651805877685547,"y":0.022172927856445312,"z":-2.86102294921875e-05},"speed_mps":2.5245673635944375,"speed_kph":9.088442508939975,"speed_limit_kph":30.0,"collisions_this_frame":[],"waypoint":{"x":-83.9649658203125,"y":24.45072364807129,"z":0.0},"lane_deviation_m":0.14928190410137177,"lane_width":3.5,"goal":{"x":7.4111151695251465,"y":-60.89999771118164,"z":0.5999999642372131},"fault":{"name":"camera_blackout","severity":1.0},"capture_flags":{"save_rgb":true,"save_depth":false,"video_rgb":true,"video_depth":false}}
{"frame":86323,"timestamp":{"delta_seconds":0.05000000074505806,"elapsed_seconds":1170.4840048886836},"control":{"throttle":0.06272237747907639,"steer":0.06097087636590004,"brake":0.0,"hand_brake":false,"reverse":false,"manual_gear_shift":false,"gear":0},"transform":{"location":{"x":-83.84076690673828,"y":24.611127853393555,"z":0.0019166183192282915},"rotation":{"pitch":-0.006625283043831587,"yaw":3.4085841178894043,"roll":-0.007080076728016138}},"velocity":{"x":2.476543426513672,"y":0.24300429224967957,"z":5.226135272096144e-06},"angular_velocity":{"x":-0.015544739551842213,"y":0.015526513569056988,"z":2.4739673137664795},"acceleration":{"x":-0.7326650619506836,"y":0.06912142038345337,"z":-8.506773883709684e-05},"speed_mps":2.488436945049474,"speed_kph":8.958373002178107,"speed_limit_kph":30.0,"collisions_this_frame":[],"waypoint":{"x":-83.84032440185547,"y":24.451068878173828,"z":0.0},"lane_deviation_m":0.16007106006145477,"lane_width":3.5,"goal":{"x":7.4111151695251465,"y":-60.89999771118164,"z":0.5999999642372131},"fault":{"name":"camera_blackout","severity":1.0},"capture_flags":{"save_rgb":true,"save_depth":false,"video_rgb":true,"video_depth":false}}
{"frame":86324,"timestamp":{"delta_seconds":0.05000000074505806,"elapsed_seconds":1170.5340048894286},"control":{"throttle":0.4945402145385742,"steer":0.059707749634981155,"brake":0.0,"hand_brake":false,"reverse":false,"manual_gear_shift":false,"gear":0},"transform":{"location":{"x":-83.71784210205078,"y":24.622316360473633,"z":0.001919822650961578},"rotation":{"pitch":-0.007110226433724165,"yaw":3.5811448097229004,"roll":-0.006286620628088713}},"velocity":{"x":2.4478886127471924,"y":0.24559052288532257,"z":5.9890744523727335e-06},"angular_velocity":{"x":-0.013613061979413033,"y":0.001422011642716825,"z":4.121074676513672},"acceleration":{"x":-0.5730962753295898,"y":0.05172461271286011,"z":1.525878360553179e-05},"speed_mps":2.460177506885292,"speed_kph":8.85663902478705,"speed_limit_kph":30.0,"collisions_this_frame":[],"waypoint":{"x":-83.71736907958984,"y":24.451412200927734,"z":0.0},"lane_deviation_m":0.1709156036376953,"lane_width":3.5,"goal":{"x":7.4111151695251465,"y":-60.89999771118164,"z":0.5999999642372131},"fault":{"name":"camera_blackout","severity":1.0},"capture_flags":{"save_rgb":true,"save_depth":false,"video_rgb":true,"video_depth":false}}
{"frame":86325,"timestamp":{"delta_seconds":0.05000000074505806,"elapsed_seconds":1170.5840048901737},"control":{"throttle":0.4945402145385742,"steer":0.059707749634981155,"brake":0.0,"hand_brake":false,"reverse":false,"manual_gear_shift":false,"gear":0},"transform":{"location":{"x":-83.5950927734375,"y":24.633920669555664,"z":0.00191326136700809},"rotation":{"pitch":-0.005955924745649099,"yaw":3.734797716140747,"roll":-0.006011962890625}},"velocity":{"x":2.464571237564087,"y":0.25393202900886536,"z":1.115798909268051e-06},"angular_velocity":{"x":0.001761529827490449,"y":-0.04267439991235733,"z":2.406663417816162},"acceleration":{"x":0.3336524963378906,"y":0.1668301224708557,"z":-9.74655122263357e-05},"speed_mps":2.477618384736838,"speed_kph":8.919426185052616,"speed_limit_kph":30.0,"collisions_this_frame":[],"waypoint":{"x":-83.59458923339844,"y":24.451751708984375,"z":0.0},"lane_deviation_m":0.18217970430850983,"lane_width":3.5,"goal":{"x":7.4111151695251465,"y":-60.89999771118164,"z":0.5999999642372131},"fault":{"name":"camera_blackout","severity":1.0},"capture_flags":{"save_rgb":true,"save_depth":false,"video_rgb":true,"video_depth":false}}
{"frame":86326,"timestamp":{"delta_seconds":0.05000000074505806,"elapsed_seconds":1170.6340048909187},"control":{"throttle":0.4662770926952362,"steer":0.05863046646118164,"brake":0.0,"hand_brake":false,"reverse":false,"manual_gear_shift":false,"gear":0},"transform":{"location":{"x":-83.47012329101562,"y":24.645938873291016,"z":0.0018934248946607113},"rotation":{"pitch":-0.002588641596958041,"yaw":3.905543804168701,"roll":-0.005950927268713713}},"velocity":{"x":2.523939847946167,"y":0.26548635959625244,"z":3.910064606316155e-06},"angular_velocity":{"x":0.007352517917752266,"y":-0.08099006116390228,"z":4.085981369018555},"acceleration":{"x":1.1873722076416016,"y":0.2310866117477417,"z":5.588531348621473e-05},"speed_mps":2.5378643311251845,"speed_kph":9.136311592050664,"speed_limit_kph":30.0,"collisions_this_frame":[],"waypoint":{"x":-83.4695816040039,"y":24.45210075378418,"z":0.0},"lane_deviation_m":0.1938481330871582,"lane_width":3.5,"goal":{"x":7.4111151695251465,"y":-60.89999771118164,"z":0.5999999642372131},"fault":{"name":"camera_blackout","severity":1.0},"capture_flags":{"save_rgb":true,"save_depth":false,"video_rgb":true,"video_depth":false}}
{"frame":86327,"timestamp":{"delta_seconds":0.05000000074505806,"elapsed_seconds":1170.6840048916638},"control":{"throttle":0.4662770926952362,"steer":0.05863046646118164,"brake":0.0,"hand_brake":false,"reverse":false,"manual_gear_shift":false,"gear":0},"transform":{"location":{"x":-83.34132385253906,"y":24.65876579284668,"z":0.001865882775746286},"rotation":{"pitch":0.0021173586137592793,"yaw":4.0635151863098145,"roll":-0.00628662109375}},"velocity":{"x":2.609961748123169,"y":0.2815951108932495,"z":3.82423377232044e-06},"angular_velocity":{"x":0.01613015867769718,"y":-0.09887056797742844,"z":2.568690538406372},"acceleration":{"x":1.720438003540039,"y":0.3221750259399414,"z":-1.7166166799142957e-06},"speed_mps":2.6251087850143953,"speed_kph":9.450391626051823,"speed_limit_kph":30.0,"collisions_this_frame":[],"waypoint":{"x":-83.34075164794922,"y":24.452457427978516,"z":0.0},"lane_deviation_m":0.20631760358810425,"lane_width":3.5,"goal":{"x":7.4111151695251465,"y":-60.89999771118164,"z":0.5999999642372131},"fault":{"name":"camera_blackout","severity":1.0},"capture_flags":{"save_rgb":true,"save_depth":false,"video_rgb":true,"video_depth":false}}
{"frame":86328,"timestamp":{"delta_seconds":0.05000000074505806,"elapsed_seconds":1170.7340048924088},"control":{"throttle":0.0,"steer":0.057284727692604065,"brake":0.0,"hand_brake":false,"reverse":false,"manual_gear_shift":false,"gear":0},"transform":{"location":{"x":-83.20799255371094,"y":24.672271728515625,"z":0.0018378448439761996},"rotation":{"pitch":0.006891660392284393,"yaw":4.239133834838867,"roll":-0.006561277899891138}},"velocity":{"x":2.703371286392212,"y":0.297467440366745,"z":2.6798247745318804e-06},"angular_velocity":{"x":0.014535222202539444,"y":-0.0943140983581543,"z":4.097007751464844},"acceleration":{"x":1.8681907653808594,"y":0.31744658946990967,"z":-2.2888179955771193e-05},"speed_mps":2.7196880685430465,"speed_kph":9.790877046754968,"speed_limit_kph":30.0,"collisions_this_frame":[],"waypoint":{"x":-83.20738220214844,"y":24.45282745361328,"z":0.0},"lane_deviation_m":0.21945281326770782,"lane_width":3.5,"goal":{"x":7.4111151695251465,"y":-60.89999771118164,"z":0.5999999642372131},"fault":{"name":"camera_blackout","severity":1.0},"capture_flags":{"save_rgb":true,"save_depth":false,"video_rgb":true,"video_depth":false}}
{"frame":86329,"timestamp":{"delta_seconds":0.05000000074505806,"elapsed_seconds":1170.784004893154},"control":{"throttle":0.0,"steer":0.057284727692604065,"brake":0.0,"hand_brake":false,"reverse":false,"manual_gear_shift":false,"gear":0},"transform":{"location":{"x":-83.07090759277344,"y":24.68662452697754,"z":0.0018198012840002775},"rotation":{"pitch":0.010019887238740921,"yaw":4.403662204742432,"roll":-0.006896972190588713}},"velocity":{"x":2.7561607360839844,"y":0.3113150894641876,"z":2.9754637580481358e-06},"angular_velocity":{"x":0.007754350546747446,"y":-0.03554035723209381,"z":2.765780448913574},"acceleration":{"x":1.0557889938354492,"y":0.27695298194885254,"z":5.912779670325108e-06},"speed_mps":2.7736869124088175,"speed_kph":9.985272884671744,"speed_limit_kph":30.0,"collisions_this_frame":[],"waypoint":{"x":-83.07025909423828,"y":24.453208923339844,"z":0.0},"lane_deviation_m":0.2334236055612564,"lane_width":3.5,"goal":{"x":7.4111151695251465,"y":-60.89999771118164,"z":0.5999999642372131},"fault":{"name":"camera_blackout","severity":1.0},"capture_flags":{"save_rgb":true,"save_depth":false,"video_rgb":true,"video_depth":false}}
{"frame":86330,"timestamp":{"delta_seconds":0.05000000074505806,"elapsed_seconds":1170.834004893899},"control":{"throttle":0.047754544764757156,"steer":0.05518325790762901,"brake":0.0,"hand_brake":false,"reverse":false,"manual_gear_shift":false,"gear":0},"transform":{"location":{"x":-82.93367004394531,"y":24.70121192932129,"z":0.0018253326416015625},"rotation":{"pitch":0.00906366016715765,"yaw":4.580287456512451,"roll":-0.006500243209302425}},"velocity":{"x":2.7353286743164062,"y":0.3140272796154022,"z":2.174377414121409e-06},"angular_velocity":{"x":-0.011956876143813133,"y":0.04054268077015877,"z":4.150170803070068},"acceleration":{"x":-0.4166412353515625,"y":0.05424380302429199,"z":-1.602172778802924e-05},"speed_mps":2.753295496107333,"speed_kph":9.9118637859864,"speed_limit_kph":30.0,"collisions_this_frame":[],"waypoint":{"x":-82.9329833984375,"y":24.453590393066406,"z":0.0},"lane_deviation_m":0.24762922525405884,"lane_width":3.5,"goal":{"x":7.4111151695251465,"y":-60.89999771118164,"z":0.5999999642372131},"fault":{"name":"camera_blackout","severity":1.0},"capture_flags":{"save_rgb":true,"save_depth":false,"video_rgb":true,"video_depth":false}}
{"frame":86331,"timestamp":{"delta_seconds":0.05000000074505806,"elapsed_seconds":1170.884004894644},"control":{"throttle":0.047754544764757156,"steer":0.05518325790762901,"brake":0.0,"hand_brake":false,"reverse":false,"manual_gear_shift":false,"gear":0},"transform":{"location":{"x":-82.79763793945312,"y":24.716115951538086,"z":0.0018416595412418246},"rotation":{"pitch":0.006283773574978113,"yaw":4.738232135772705,"roll":-0.006164550315588713}},"velocity":{"x":2.707796335220337,"y":0.3183748126029968,"z":1.4781951449549524e-06},"angular_velocity":{"x":-0.010150891728699207,"y":0.06062919273972511,"z":2.4919087886810303},"acceleration":{"x":-0.5506467819213867,"y":0.08695065975189209,"z":-1.392364538332913e-05},"speed_mps":2.7264488834993523,"speed_kph":9.815215980597669,"speed_limit_kph":30.0,"collisions_this_frame":[],"waypoint":{"x":-82.79691314697266,"y":24.453968048095703,"z":0.0},"lane_deviation_m":0.2621553838253021,"lane_width":3.5,"goal":{"x":7.4111151695251465,"y":-60.89999771118164,"z":0.5999999642372131},"fault":{"name":"camera_blackout","severity":1.0},"capture_flags":{"save_rgb":true,"save_depth":false,"video_rgb":true,"video_depth":false}}
{"frame":86332,"timestamp":{"delta_seconds":0.05000000074505806,"elapsed_seconds":1170.934004895389},"control":{"throttle":0.04150454327464104,"steer":0.05316215381026268,"brake":0.0,"hand_brake":false,"reverse":false,"manual_gear_shift":false,"gear":0},"transform":{"location":{"x":-82.66326141357422,"y":24.731048583984375,"z":0.0018604277865961194},"rotation":{"pitch":0.0030872453935444355,"yaw":4.9066948890686035,"roll":-0.005615234375}},"velocity":{"x":2.6711690425872803,"y":0.31893810629844666,"z":-1.220703097715159e-06},"angular_velocity":{"x":-0.015363069251179695,"y":0.06316101551055908,"z":3.9886910915374756},"acceleration":{"x":-0.7325458526611328,"y":0.011265873908996582,"z":-5.397796485340223e-05},"speed_mps":2.6901422954422647,"speed_kph":9.684512263592152,"speed_limit_kph":30.0,"collisions_this_frame":[],"waypoint":{"x":-82.66249084472656,"y":24.454341888427734,"z":0.0},"lane_deviation_m":0.276714026927948,"lane_width":3.5,"goal":{"x":7.4111151695251465,"y":-60.89999771118164,"z":0.5999999642372131},"fault":{"name":"camera_blackout","severity":1.0},"capture_flags":{"save_rgb":true,"save_depth":false,"video_rgb":true,"video_depth":false}}
{"frame":86333,"timestamp":{"delta_seconds":0.05000000074505806,"elapsed_seconds":1170.9840048961341},"control":{"throttle":0.04150454327464104,"steer":0.05316215381026268,"brake":0.0,"hand_brake":false,"reverse":false,"manual_gear_shift":false,"gear":0},"transform":{"location":{"x":-82.53083038330078,"y":24.746192932128906,"z":0.0018779754173010588},"rotation":{"pitch":8.879245433490723e-05,"yaw":5.054813861846924,"roll":-0.005279541015625}},"velocity":{"x":2.6312859058380127,"y":0.3211216330528259,"z":2.365112322877394e-06},"angular_velocity":{"x":-0.009355165995657444,"y":0.05586928129196167,"z":2.272066116333008},"acceleration":{"x":-0.7976627349853516,"y":0.04367053508758545,"z":7.171630568336695e-05},"speed_mps":2.650808295875407,"speed_kph":9.542909865151465,"speed_limit_kph":30.0,"collisions_this_frame":[],"waypoint":{"x":-82.53002166748047,"y":24.454710006713867,"z":0.0},"lane_deviation_m":0.2914900779724121,"lane_width":3.5,"goal":{"x":7.4111151695251465,"y":-60.89999771118164,"z":0.5999999642372131},"fault":{"name":"camera_blackout","severity":1.0},"capture_flags":{"save_rgb":true,"save_depth":false,"video_rgb":true,"video_depth":false}}
{"frame":86334,"timestamp":{"delta_seconds":0.05000000074505806,"elapsed_seconds":1171.0340048968792},"control":{"throttle":0.035254545509815216,"steer":0.05162585526704788,"brake":0.0,"hand_brake":false,"reverse":false,"manual_gear_shift":false,"gear":0},"transform":{"location":{"x":-82.4005126953125,"y":24.76128578186035,"z":0.0018931960221379995},"rotation":{"pitch":-0.0025339999701827765,"yaw":5.214282035827637,"roll":-0.004852294921875}},"velocity":{"x":2.586843490600586,"y":0.32063817977905273,"z":1.335144048653092e-07},"angular_velocity":{"x":-0.012499041855335236,"y":0.0482201911509037,"z":3.83024001121521},"acceleration":{"x":-0.8888483047485352,"y":-0.009669065475463867,"z":-4.463195728021674e-05},"speed_mps":2.6066392322672245,"speed_kph":9.383901236162009,"speed_limit_kph":30.0,"collisions_this_frame":[],"waypoint":{"x":-82.399658203125,"y":24.4550724029541,"z":0.0},"lane_deviation_m":0.3062204122543335,"lane_width":3.5,"goal":{"x":7.4111151695251465,"y":-60.89999771118164,"z":0.5999999642372131},"fault":{"name":"camera_blackout","severity":1.0},"capture_flags":{"save_rgb":true,"save_depth":false,"video_rgb":true,"video_depth":false}}
{"frame":86335,"timestamp":{"delta_seconds":0.05000000074505806,"elapsed_seconds":1171.0840048976243},"control":{"throttle":0.035254545509815216,"steer":0.05162585526704788,"brake":0.0,"hand_brake":false,"reverse":false,"manual_gear_shift":false,"gear":0},"transform":{"location":{"x":-82.27244567871094,"y":24.776533126831055,"z":0.0019057082245126367},"rotation":{"pitch":-0.004671849310398102,"yaw":5.353074073791504,"roll":-0.004608154296875}},"velocity":{"x":2.5419058799743652,"y":0.32151535153388977,"z":2.441406195430318e-06},"angular_velocity":{"x":-0.006655240897089243,"y":0.03851940482854843,"z":2.0658421516418457},"acceleration":{"x":-0.8987522125244141,"y":0.017543435096740723,"z":4.6157834731275216e-05},"speed_mps":2.56215878195052,"speed_kph":9.223771615021873,"speed_limit_kph":30.0,"collisions_this_frame":[],"waypoint":{"x":-82.27155303955078,"y":24.455429077148438,"z":0.0},"lane_deviation_m":0.32111093401908875,"lane_width":3.5,"goal":{"x":7.4111151695251465,"y":-60.89999771118164,"z":0.5999999642372131},"fault":{"name":"camera_blackout","severity":1.0},"capture_flags":{"save_rgb":true,"save_depth":false,"video_rgb":true,"video_depth":false}}
{"frame":86336,"timestamp":{"delta_seconds":0.05000000074505806,"elapsed_seconds":1171.1340048983693},"control":{"throttle":0.029004544019699097,"steer":0.04898405447602272,"brake":0.0,"hand_brake":false,"reverse":false,"manual_gear_shift":false,"gear":0},"transform":{"location":{"x":-82.1467056274414,"y":24.791622161865234,"z":0.001916007953695953},"rotation":{"pitch":-0.006406717002391815,"yaw":5.5015997886657715,"roll":-0.004028320778161287}},"velocity":{"x":2.494363307952881,"y":0.31842148303985596,"z":-6.866454782539222e-07},"angular_velocity":{"x":-0.013851079158484936,"y":0.03128805384039879,"z":3.617253541946411},"acceleration":{"x":-0.9508514404296875,"y":-0.06187736988067627,"z":-6.256103370105848e-05},"speed_mps":2.514605446769614,"speed_kph":9.05257960837061,"speed_limit_kph":30.0,"collisions_this_frame":[],"waypoint":{"x":-82.1457748413086,"y":24.455778121948242,"z":0.0},"lane_deviation_m":0.3358508050441742,"lane_width":3.5,"goal":{"x":7.4111151695251465,"y":-60.89999771118164,"z":0.5999999642372131},"fault":{"name":"camera_blackout","severity":1.0},"capture_flags":{"save_rgb":true,"save_depth":false,"video_rgb":true,"video_depth":false}}
{"frame":86337,"timestamp":{"delta_seconds":0.05000000074505806,"elapsed_seconds":1171.1840048991144},"control":{"throttle":0.029004544019699097,"steer":0.04898405447602272,"brake":0.0,"hand_brake":false,"reverse":false,"manual_gear_shift":false,"gear":0},"transform":{"location":{"x":-82.0233383178711,"y":24.806787490844727,"z":0.0019240188412368298},"rotation":{"pitch":-0.007806906010955572,"yaw":5.628059387207031,"roll":-0.0037536618765443563}},"velocity":{"x":2.447070598602295,"y":0.3178105354309082,"z":-4.95910626341356e-07},"angular_velocity":{"x":-0.0052658189088106155,"y":0.024222424253821373,"z":1.7981210947036743},"acceleration":{"x":-0.9458541870117188,"y":-0.012218952178955078,"z":3.8146970382513246e-06},"speed_mps":2.4676219424731416,"speed_kph":8.88343899290331,"speed_limit_kph":30.0,"collisions_this_frame":[],"waypoint":{"x":-82.0223617553711,"y":24.45612144470215,"z":0.0},"lane_deviation_m":0.3506726920604706,"lane_width":3.5,"goal":{"x":7.4111151695251465,"y":-60.89999771118164,"z":0.5999999642372131},"fault":{"name":"camera_blackout","severity":1.0},"capture_flags":{"save_rgb":true,"save_depth":false,"video_rgb":true,"video_depth":false}}
