{"frame":2980,"timestamp":{"delta_seconds":0.05000000074505806,"elapsed_seconds":33.00913796015084},"control":{"throttle":0.75,"steer":0.0,"brake":0.0,"hand_brake":false,"reverse":false,"manual_gear_shift":false,"gear":0},"transform":{"location":{"x":-45.16095733642578,"y":92.45532989501953,"z":0.48239994049072266},"rotation":{"pitch":0.0,"yaw":-90.16118621826172,"roll":0.0}},"velocity":{"x":0.0,"y":0.0,"z":-1.470000147819519},"angular_velocity":{"x":0.0,"y":0.0,"z":0.0},"acceleration":{"x":0.0,"y":0.0,"z":-9.80000114440918},"speed_mps":1.470000147819519,"speed_kph":5.2920005321502686,"speed_limit_kph":30.0,"collisions_this_frame":[],"waypoint":{"x":-45.04631423950195,"y":92.45500946044922,"z":0.0},"lane_deviation_m":0.4958355128765106,"lane_width":3.5,"goal":{"x":102.56617736816406,"y":43.965667724609375,"z":0.5999999642372131},"fault":{"name":"tire_pressure_imbalance","severity":1.0},"capture_flags":{"save_rgb":true,"save_depth":false,"video_rgb":true,"video_depth":false}}
{"frame":2981,"timestamp":{"delta_seconds":0.05000000074505806,"elapsed_seconds":33.059137960895896},"control":{"throttle":0.75,"steer":0.0,"brake":0.0,"hand_brake":false,"reverse":false,"manual_gear_shift":false,"gear":0},"transform":{"location":{"x":-45.16095733642578,"y":92.45532989501953,"z":0.394199937582016},"rotation":{"pitch":0.0,"yaw":-90.16118621826172,"roll":0.0}},"velocity":{"x":0.0,"y":0.0,"z":-1.9600002765655518},"angular_velocity":{"x":0.0,"y":0.0,"z":0.0},"acceleration":{"x":0.0,"y":0.0,"z":-9.800003051757812},"speed_mps":1.9600002765655518,"speed_kph":7.056000995635986,"speed_limit_kph":30.0,"collisions_this_frame":[],"waypoint":{"x":-45.04631423950195,"y":92.45500946044922,"z":0.0},"lane_deviation_m":0.41053223609924316,"lane_width":3.5,"goal":{"x":102.56617736816406,"y":43.965667724609375,"z":0.5999999642372131},"fault":{"name":"tire_pressure_imbalance","severity":1.0},"capture_flags":{"save_rgb":true,"save_depth":false,"video_rgb":true,"video_depth":false}}
{"frame":2982,"timestamp":{"delta_seconds":0.05000000074505806,"elapsed_seconds":33.109137961640954},"control":{"throttle":0.0,"steer":0.0,"brake":1.0,"hand_brake":false,"reverse":false,"manual_gear_shift":false,"gear":0},"transform":{"location":{"x":-45.16095733642578,"y":92.45532989501953,"z":0.281499981880188},"rotation":{"pitch":0.0,"yaw":-90.16118621826172,"roll":0.0}},"velocity":{"x":0.0,"y":0.0,"z":-2.450000286102295},"angular_velocity":{"x":0.0,"y":0.0,"z":0.0},"acceleration":{"x":0.0,"y":0.0,"z":-9.800000190734863},"speed_mps":2.450000286102295,"speed_kph":8.820001029968262,"speed_limit_kph":30.0,"collisions_this_frame":[],"waypoint":{"x":-45.04631423950195,"y":92.45500946044922,"z":0.0},"lane_deviation_m":0.30394962430000305,"lane_width":3.5,"goal":{"x":102.56617736816406,"y":43.965667724609375,"z":0.5999999642372131},"fault":{"name":"tire_pressure_imbalance","severity":1.0},"capture_flags":{"save_rgb":true,"save_depth":false,"video_rgb":true,"video_depth":false}}
{"frame":2983,"timestamp":{"delta_seconds":0.05000000074505806,"elapsed_seconds":33.15913796238601},"control":{"throttle":0.0,"steer":0.0,"brake":1.0,"hand_brake":false,"reverse":false,"manual_gear_shift":false,"gear":0},"transform":{"location":{"x":-45.16095733642578,"y":92.45532989501953,"z":0.14429987967014313},"rotation":{"pitch":0.0,"yaw":-90.16118621826172,"roll":0.0}},"velocity":{"x":0.0,"y":0.0,"z":-2.93999981880188},"angular_velocity":{"x":0.0,"y":0.0,"z":0.0},"acceleration":{"x":0.0,"y":0.0,"z":-9.7999906539917},"speed_mps":2.93999981880188,"speed_kph":10.583999347686769,"speed_limit_kph":30.0,"collisions_this_frame":[],"waypoint":{"x":-45.04631423950195,"y":92.45500946044922,"z":0.0},"lane_deviation_m":0.184297576546669,"lane_width":3.5,"goal":{"x":102.56617736816406,"y":43.965667724609375,"z":0.5999999642372131},"fault":{"name":"tire_pressure_imbalance","severity":1.0},"capture_flags":{"save_rgb":true,"save_depth":false,"video_rgb":true,"video_depth":false}}
{"frame":2984,"timestamp":{"delta_seconds":0.05000000074505806,"elapsed_seconds":33.20913796313107},"control":{"throttle":0.75,"steer":0.0,"brake":0.0,"hand_brake":false,"reverse":false,"manual_gear_shift":false,"gear":0},"transform":{"location":{"x":-45.16095733642578,"y":92.45532989501953,"z":0.008085555396974087},"rotation":{"pitch":0.0,"yaw":-90.16118621826172,"roll":0.0}},"velocity":{"x":-8.036014151002746e-06,"y":5.844531756338256e-07,"z":-2.0645968914031982},"angular_velocity":{"x":-0.000824902905151248,"y":-0.000988240004517138,"z":-2.4806086074136147e-08},"acceleration":{"x":-0.00016072028665803373,"y":1.1689063285302836e-05,"z":17.508058547973633},"speed_mps":2.0645968914189203,"speed_kph":7.4325488091081136,"speed_limit_kph":30.0,"collisions_this_frame":[],"waypoint":{"x":-45.04631423950195,"y":92.45500946044922,"z":0.0},"lane_deviation_m":0.11492831259965897,"lane_width":3.5,"goal":{"x":102.56617736816406,"y":43.965667724609375,"z":0.5999999642372131},"fault":{"name":"tire_pressure_imbalance","severity":1.0},"capture_flags":{"save_rgb":true,"save_depth":false,"video_rgb":true,"video_depth":false}}
{"frame":2985,"timestamp":{"delta_seconds":0.05000000074505806,"elapsed_seconds":33.25913796387613},"control":{"throttle":0.75,"steer":0.0,"brake":0.0,"hand_brake":false,"reverse":false,"manual_gear_shift":false,"gear":0},"transform":{"location":{"x":-45.16095733642578,"y":92.45532989501953,"z":-0.05158817023038864},"rotation":{"pitch":0.0,"yaw":-90.16118621826172,"roll":0.0}},"velocity":{"x":-1.3206691846789909e-06,"y":1.7916877936841047e-07,"z":-0.7380886077880859},"angular_velocity":{"x":-0.0002524582378100604,"y":-0.00019060766499023885,"z":-7.253101674820073e-09},"acceleration":{"x":0.00013430690160021186,"y":-8.105687811621465e-06,"z":26.530166625976562},"speed_mps":0.7380886077892892,"speed_kph":2.657118988041441,"speed_limit_kph":30.0,"collisions_this_frame":[],"waypoint":{"x":-45.04631423950195,"y":92.45500946044922,"z":0.0},"lane_deviation_m":0.12571586668491364,"lane_width":3.5,"goal":{"x":102.56617736816406,"y":43.965667724609375,"z":0.5999999642372131},"fault":{"name":"tire_pressure_imbalance","severity":1.0},"capture_flags":{"save_rgb":true,"save_depth":false,"video_rgb":true,"video_depth":false}}
{"frame":2986,"timestamp":{"delta_seconds":0.05000000074505806,"elapsed_seconds":33.309137964621186},"control":{"throttle":0.75,"steer":0.0,"brake":0.0,"hand_brake":false,"reverse":false,"manual_gear_shift":false,"gear":0},"transform":{"location":{"x":-45.16095733642578,"y":92.45532989501953,"z":-0.0677318200469017},"rotation":{"pitch":0.0,"yaw":-90.16118621826172,"roll":0.0}},"velocity":{"x":-3.2113572956404823e-07,"y":5.4290552498059697e-08,"z":-0.11209665983915329},"angular_velocity":{"x":-7.632619235664606e-05,"y":-5.519101250683889e-05,"z":2.825137013218182e-09},"acceleration":{"x":1.9990668079117313e-05,"y":-2.4975645374070155e-06,"z":12.519838333129883},"speed_mps":0.11209665983962643,"speed_kph":0.40354797542265514,"speed_limit_kph":30.0,"collisions_this_frame":[],"waypoint":{"x":-45.04631423950195,"y":92.45500946044922,"z":0.0},"lane_deviation_m":0.13315682113170624,"lane_width":3.5,"goal":{"x":102.56617736816406,"y":43.965667724609375,"z":0.5999999642372131},"fault":{"name":"tire_pressure_imbalance","severity":1.0},"capture_flags":{"save_rgb":true,"save_depth":false,"video_rgb":true,"video_depth":false}}
{"frame":2987,"timestamp":{"delta_seconds":0.05000000074505806,"elapsed_seconds":33.359137965366244},"control":{"throttle":0.75,"steer":0.0,"brake":0.0,"hand_brake":false,"reverse":false,"manual_gear_shift":false,"gear":0},"transform":{"location":{"x":-45.16095733642578,"y":92.45532989501953,"z":-0.06445323675870895},"rotation":{"pitch":0.0,"yaw":-90.16118621826172,"roll":0.0}},"velocity":{"x":1.88796974498473e-07,"y":-1.0398423094803988e-10,"z":0.1505620926618576},"angular_velocity":{"x":-1.057954477801104e-06,"y":-1.4566587196895853e-05,"z":-8.452164523831129e-10},"acceleration":{"x":1.01986543086241e-05,"y":-1.0878907232836355e-06,"z":5.253174781799316},"speed_mps":0.15056209266197598,"speed_kph":0.5420235335831135,"speed_limit_kph":30.0,"collisions_this_frame":[],"waypoint":{"x":-45.04631423950195,"y":92.45500946044922,"z":0.0},"lane_deviation_m":0.13151943683624268,"lane_width":3.5,"goal":{"x":102.56617736816406,"y":43.965667724609375,"z":0.5999999642372131},"fault":{"name":"tire_pressure_imbalance","severity":1.0},"capture_flags":{"save_rgb":true,"save_depth":false,"video_rgb":true,"video_depth":false}}
{"frame":2988,"timestamp":{"delta_seconds":0.05000000074505806,"elapsed_seconds":33.4091379661113},"control":{"throttle":0.75,"steer":0.0,"brake":0.0,"hand_brake":false,"reverse":false,"manual_gear_shift":false,"gear":0},"transform":{"location":{"x":-45.16095733642578,"y":92.45532989501953,"z":-0.053962018340826035},"rotation":{"pitch":0.0,"yaw":-90.16118621826172,"roll":0.0}},"velocity":{"x":2.1396456872935232e-07,"y":-1.0400579952829503e-08,"z":0.2333739995956421},"angular_velocity":{"x":1.4391195691132452e-05,"y":-3.3316588087473065e-05,"z":7.34151489600876e-11},"acceleration":{"x":5.033518846175866e-07,"y":-2.0593191152329382e-07,"z":1.656238079071045},"speed_mps":0.2333739995957404,"speed_kph":0.8401463985446654,"speed_limit_kph":30.0,"collisions_this_frame":[],"waypoint":{"x":-45.04631423950195,"y":92.45500946044922,"z":0.0},"lane_deviation_m":0.1267084926366806,"lane_width":3.5,"goal":{"x":102.56617736816406,"y":43.965667724609375,"z":0.5999999642372131},"fault":{"name":"tire_pressure_imbalance","severity":1.0},"capture_flags":{"save_rgb":true,"save_depth":false,"video_rgb":true,"video_depth":false}}
{"frame":2989,"timestamp":{"delta_seconds":0.05000000074505806,"elapsed_seconds":33.45913796685636},"control":{"throttle":0.75,"steer":0.0,"brake":0.0,"hand_brake":false,"reverse":false,"manual_gear_shift":false,"gear":0},"transform":{"location":{"x":-45.16095733642578,"y":92.45532989501953,"z":-0.0420781709253788},"rotation":{"pitch":0.0,"yaw":-90.16118621826172,"roll":0.0}},"velocity":{"x":5.656051982327881e-08,"y":-3.159980010991603e-08,"z":0.2337055653333664},"angular_velocity":{"x":4.284522947273217e-05,"y":-2.0785189462912967e-06,"z":3.0139761797443043e-09},"acceleration":{"x":-3.148080850223778e-06,"y":-4.239844031417306e-07,"z":0.006631314754486084},"speed_mps":0.2337055653333754,"speed_kph":0.8413400352001514,"speed_limit_kph":30.0,"collisions_this_frame":[],"waypoint":{"x":-45.04631423950195,"y":92.45500946044922,"z":0.0},"lane_deviation_m":0.12212172150611877,"lane_width":3.5,"goal":{"x":102.56617736816406,"y":43.965667724609375,"z":0.5999999642372131},"fault":{"name":"tire_pressure_imbalance","severity":1.0},"capture_flags":{"save_rgb":true,"save_depth":false,"video_rgb":true,"video_depth":false}}
{"frame":2990,"timestamp":{"delta_seconds":0.05000000074505806,"elapsed_seconds":33.50913796760142},"control":{"throttle":0.75,"steer":0.0,"brake":0.0,"hand_brake":false,"reverse":false,"manual_gear_shift":false,"gear":0},"transform":{"location":{"x":-45.16095733642578,"y":92.45532989501953,"z":-0.0312923789024353},"rotation":{"pitch":0.0,"yaw":-90.16118621826172,"roll":0.0}},"velocity":{"x":3.3058782378248e-08,"y":-1.6089732879365215e-09,"z":0.20143501460552216},"angular_velocity":{"x":1.9494259504426736e-06,"y":-2.1561510948231444e-05,"z":8.381492722087103e-10},"acceleration":{"x":-4.7003476311147097e-07,"y":5.998165306664305e-07,"z":-0.6454110145568848},"speed_mps":0.20143501460552488,"speed_kph":0.7251660525798895,"speed_limit_kph":30.0,"collisions_this_frame":[],"waypoint":{"x":-45.04631423950195,"y":92.45500946044922,"z":0.0},"lane_deviation_m":0.11883751302957535,"lane_width":3.5,"goal":{"x":102.56617736816406,"y":43.965667724609375,"z":0.5999999642372131},"fault":{"name":"tire_pressure_imbalance","severity":1.0},"capture_flags":{"save_rgb":true,"save_depth":false,"video_rgb":true,"video_depth":false}}
{"frame":2991,"timestamp":{"delta_seconds":0.05000000074505806,"elapsed_seconds":33.55913796834648},"control":{"throttle":0.75,"steer":0.0,"brake":0.0,"hand_brake":false,"reverse":false,"manual_gear_shift":false,"gear":0},"transform":{"location":{"x":-45.16095733642578,"y":92.45532989501953,"z":-0.022435417398810387},"rotation":{"pitch":0.0,"yaw":-90.16118621826172,"roll":0.0}},"velocity":{"x":-1.3086499883740998e-08,"y":2.579117808210185e-09,"z":0.16076605021953583},"angular_velocity":{"x":-2.415301196379005e-06,"y":4.227317913318984e-05,"z":-6.713617994869026e-10},"acceleration":{"x":-9.22905655897921e-07,"y":8.376182591973702e-08,"z":-0.8133792877197266},"speed_mps":0.16076605021953638,"speed_kph":0.578757780790331,"speed_limit_kph":30.0,"collisions_this_frame":[],"waypoint":{"x":-45.04631423950195,"y":92.45500946044922,"z":0.0},"lane_deviation_m":0.11681818962097168,"lane_width":3.5,"goal":{"x":102.56617736816406,"y":43.965667724609375,"z":0.5999999642372131},"fault":{"name":"tire_pressure_imbalance","severity":1.0},"capture_flags":{"save_rgb":true,"save_depth":false,"video_rgb":true,"video_depth":false}}
{"frame":2992,"timestamp":{"delta_seconds":0.05000000074505806,"elapsed_seconds":33.609137969091535},"control":{"throttle":0.75,"steer":0.0,"brake":0.0,"hand_brake":false,"reverse":false,"manual_gear_shift":false,"gear":0},"transform":{"location":{"x":-45.16095733642578,"y":92.45532989501953,"z":-0.015567969530820847},"rotation":{"pitch":0.0,"yaw":-90.16118621826172,"roll":0.0}},"velocity":{"x":1.1651929554545859e-07,"y":-7.664342049906736e-09,"z":0.12242107093334198},"angular_velocity":{"x":1.0410846698505338e-05,"y":5.908606181037612e-05,"z":-1.641571600874414e-10},"acceleration":{"x":2.5921158339770045e-06,"y":-2.0486919538598158e-07,"z":-0.766899585723877},"speed_mps":0.12242107093339767,"speed_kph":0.4407158553602316,"speed_limit_kph":30.0,"collisions_this_frame":[],"waypoint":{"x":-45.04631423950195,"y":92.45500946044922,"z":0.0},"lane_deviation_m":0.11569573730230331,"lane_width":3.5,"goal":{"x":102.56617736816406,"y":43.965667724609375,"z":0.5999999642372131},"fault":{"name":"tire_pressure_imbalance","severity":1.0},"capture_flags":{"save_rgb":true,"save_depth":false,"video_rgb":true,"video_depth":false}}
{"frame":2993,"timestamp":{"delta_seconds":0.05000000074505806,"elapsed_seconds":33.65913796983659},"control":{"throttle":0.75,"steer":0.0,"brake":0.0,"hand_brake":false,"reverse":false,"manual_gear_shift":false,"gear":0},"transform":{"location":{"x":-45.16095733642578,"y":92.45532989501953,"z":-0.010438041761517525},"rotation":{"pitch":0.0,"yaw":-90.16118621826172,"roll":0.0}},"velocity":{"x":2.4132032194756903e-07,"y":2.39759850861887e-10,"z":0.090309277176857},"angular_velocity":{"x":-8.146660235297531e-08,"y":2.376922930125147e-05,"z":-1.6139807268444883e-09},"acceleration":{"x":2.496020670150756e-06,"y":1.5808204523182212e-07,"z":-0.6422358751296997},"speed_mps":0.09030927717717942,"speed_kph":0.32511339783784593,"speed_limit_kph":30.0,"collisions_this_frame":[],"waypoint":{"x":-45.04631423950195,"y":92.45500946044922,"z":0.0},"lane_deviation_m":0.11511774361133575,"lane_width":3.5,"goal":{"x":102.56617736816406,"y":43.965667724609375,"z":0.5999999642372131},"fault":{"name":"tire_pressure_imbalance","severity":1.0},"capture_flags":{"save_rgb":true,"save_depth":false,"video_rgb":true,"video_depth":false}}
{"frame":2994,"timestamp":{"delta_seconds":0.05000000074505806,"elapsed_seconds":33.70913797058165},"control":{"throttle":0.75,"steer":0.0,"brake":0.0,"hand_brake":false,"reverse":false,"manual_gear_shift":false,"gear":0},"transform":{"location":{"x":-45.1610107421875,"y":92.4355239868164,"z":-0.006828193552792072},"rotation":{"pitch":0.021009661257267,"yaw":-90.16165161132812,"roll":-6.103398118284531e-05}},"velocity":{"x":-0.0019640501122921705,"y":-0.7093865871429443,"z":0.06511388719081879},"angular_velocity":{"x":-0.6128894090652466,"y":0.0015284894034266472,"z":-0.015777859836816788},"acceleration":{"x":-0.03928582742810249,"y":-14.187731742858887,"z":-0.5039077997207642},"speed_mps":0.7123713959840445,"speed_kph":2.5645370255425606,"speed_limit_kph":30.0,"collisions_this_frame":[],"waypoint":{"x":-45.04637145996094,"y":92.4352035522461,"z":0.0},"lane_deviation_m":0.11484289914369583,"lane_width":3.5,"goal":{"x":102.56617736816406,"y":43.965667724609375,"z":0.5999999642372131},"fault":{"name":"tire_pressure_imbalance","severity":1.0},"capture_flags":{"save_rgb":true,"save_depth":false,"video_rgb":true,"video_depth":false}}
{"frame":2995,"timestamp":{"delta_seconds":0.05000000074505806,"elapsed_seconds":33.75913797132671},"control":{"throttle":0.75,"steer":0.0,"brake":0.0,"hand_brake":false,"reverse":false,"manual_gear_shift":false,"gear":0},"transform":{"location":{"x":-45.16130447387695,"y":92.37824249267578,"z":-0.00435573561117053},"rotation":{"pitch":0.05361015349626541,"yaw":-90.13849639892578,"roll":-0.00012206799874547869}},"velocity":{"x":-0.0036601785104721785,"y":-1.4101022481918335,"z":0.046135347336530685},"angular_velocity":{"x":-0.6265636682510376,"y":-0.0020200612489134073,"z":0.2783251702785492},"acceleration":{"x":-0.03392256796360016,"y":-14.014312744140625,"z":-0.37957078218460083},"speed_mps":1.4108615160731595,"speed_kph":5.079101457863374,"speed_limit_kph":30.0,"collisions_this_frame":[],"waypoint":{"x":-45.046531677246094,"y":92.37792205810547,"z":0.0},"lane_deviation_m":0.11485586315393448,"lane_width":3.5,"goal":{"x":102.56617736816406,"y":43.965667724609375,"z":0.5999999642372131},"fault":{"name":"tire_pressure_imbalance","severity":1.0},"capture_flags":{"save_rgb":true,"save_depth":false,"video_rgb":true,"video_depth":false}}
{"frame":2996,"timestamp":{"delta_seconds":0.05000000074505806,"elapsed_seconds":33.80913797207177},"control":{"throttle":0.75,"steer":0.08699892461299896,"brake":0.0,"hand_brake":false,"reverse":false,"manual_gear_shift":false,"gear":0},"transform":{"location":{"x":-45.15970993041992,"y":92.29335021972656,"z":-0.002616081153973937},"rotation":{"pitch":0.07623174041509628,"yaw":-90.03203582763672,"roll":-0.009582516737282276}},"velocity":{"x":0.08052004873752594,"y":-1.8877413272857666,"z":0.03224674239754677},"angular_velocity":{"x":-0.3533191382884979,"y":-0.25496429204940796,"z":2.999060869216919},"acceleration":{"x":1.6836045980453491,"y":-9.55278205871582,"z":-0.27777209877967834},"speed_mps":1.8897329571626185,"speed_kph":6.803038645785427,"speed_limit_kph":30.0,"collisions_this_frame":[],"waypoint":{"x":-45.04677200317383,"y":92.29302978515625,"z":0.0},"lane_deviation_m":0.11296868324279785,"lane_width":3.5,"goal":{"x":102.56617736816406,"y":43.965667724609375,"z":0.5999999642372131},"fault":{"name":"tire_pressure_imbalance","severity":1.0},"capture_flags":{"save_rgb":true,"save_depth":false,"video_rgb":true,"video_depth":false}}
{"frame":2997,"timestamp":{"delta_seconds":0.05000000074505806,"elapsed_seconds":33.859137972816825},"control":{"throttle":0.75,"steer":0.08699892461299896,"brake":0.0,"hand_brake":false,"reverse":false,"manual_gear_shift":false,"gear":0},"transform":{"location":{"x":-45.15522766113281,"y":92.18646240234375,"z":-0.0013834381243214011},"rotation":{"pitch":0.0877542644739151,"yaw":-89.83602142333984,"roll":-0.018218986690044403}},"velocity":{"x":0.1281227171421051,"y":-2.289830446243286,"z":0.022292766720056534},"angular_velocity":{"x":-0.15617097914218903,"y":-0.12212692201137543,"z":4.359097957611084},"acceleration":{"x":0.9520533680915833,"y":-8.04178237915039,"z":-0.1990795135498047},"speed_mps":2.2935204099023485,"speed_kph":8.256673475648455,"speed_limit_kph":30.0,"collisions_this_frame":[],"waypoint":{"x":-45.04706954956055,"y":92.1861572265625,"z":0.0},"lane_deviation_m":0.1081673875451088,"lane_width":3.5,"goal":{"x":102.56617736816406,"y":43.965667724609375,"z":0.5999999642372131},"fault":{"name":"tire_pressure_imbalance","severity":1.0},"capture_flags":{"save_rgb":true,"save_depth":false,"video_rgb":true,"video_depth":false}}
{"frame":2998,"timestamp":{"delta_seconds":0.05000000074505806,"elapsed_seconds":33.90913797356188},"control":{"throttle":0.75,"steer":0.07504259794950485,"brake":0.0,"hand_brake":false,"reverse":false,"manual_gear_shift":false,"gear":0},"transform":{"location":{"x":-45.149803161621094,"y":92.06195831298828,"z":-0.0005086517194285989},"rotation":{"pitch":0.09104641526937485,"yaw":-89.62413787841797,"roll":-0.018768304958939552}},"velocity":{"x":0.1397920399904251,"y":-2.6179895401000977,"z":0.015272092074155807},"angular_velocity":{"x":-0.019203726202249527,"y":0.015906723216176033,"z":4.308457851409912},"acceleration":{"x":0.23338645696640015,"y":-6.5631818771362305,"z":-0.14041349291801453},"speed_mps":2.6217635826509085,"speed_kph":9.438348897543271,"speed_limit_kph":30.0,"collisions_this_frame":[],"waypoint":{"x":-45.047420501708984,"y":92.0616683959961,"z":0.0},"lane_deviation_m":0.10238432884216309,"lane_width":3.5,"goal":{"x":102.56617736816406,"y":43.965667724609375,"z":0.5999999642372131},"fault":{"name":"tire_pressure_imbalance","severity":1.0},"capture_flags":{"save_rgb":true,"save_depth":false,"video_rgb":true,"video_depth":false}}
{"frame":2999,"timestamp":{"delta_seconds":0.05000000074505806,"elapsed_seconds":33.95913797430694},"control":{"throttle":0.75,"steer":0.07504259794950485,"brake":0.0,"hand_brake":false,"reverse":false,"manual_gear_shift":false,"gear":0},"transform":{"location":{"x":-45.14337158203125,"y":91.92166900634766,"z":0.00010643005225574598},"rotation":{"pitch":0.09016532450914383,"yaw":-89.39396667480469,"roll":-0.018615709617733955}},"velocity":{"x":0.16665169596672058,"y":-2.9281959533691406,"z":0.01038423553109169},"angular_velocity":{"x":0.03568168729543686,"y":-0.006218136288225651,"z":4.8075785636901855},"acceleration":{"x":0.5371931195259094,"y":-6.204128265380859,"z":-0.09775713086128235},"speed_mps":2.932952805867077,"speed_kph":10.558630101121476,"speed_limit_kph":30.0,"collisions_this_frame":[],"waypoint":{"x":-45.04781723022461,"y":91.92139434814453,"z":0.0},"lane_deviation_m":0.09555480629205704,"lane_width":3.5,"goal":{"x":102.56617736816406,"y":43.965667724609375,"z":0.5999999642372131},"fault":{"name":"tire_pressure_imbalance","severity":1.0},"capture_flags":{"save_rgb":true,"save_depth":false,"video_rgb":true,"video_depth":false}}
{"frame":3000,"timestamp":{"delta_seconds":0.05000000074505806,"elapsed_seconds":34.009137975052},"control":{"throttle":0.75,"steer":0.07594234496355057,"brake":0.0,"hand_brake":false,"reverse":false,"manual_gear_shift":false,"gear":0},"transform":{"location":{"x":-45.13568115234375,"y":91.76679229736328,"z":0.0005361175280995667},"rotation":{"pitch":0.08732396364212036,"yaw":-89.14083099365234,"roll":-0.01889037899672985}},"velocity":{"x":0.1948586404323578,"y":-3.209109306335449,"z":0.007018422707915306},"angular_velocity":{"x":0.0670304223895073,"y":-0.002288597635924816,"z":5.224823474884033},"acceleration":{"x":0.5641388893127441,"y":-5.618267059326172,"z":-0.06731625646352768},"speed_mps":3.2150274785788757,"speed_kph":11.574098922883953,"speed_limit_kph":30.0,"collisions_this_frame":[],"waypoint":{"x":-45.04825210571289,"y":91.76654815673828,"z":0.0},"lane_deviation_m":0.08743102848529816,"lane_width":3.5,"goal":{"x":102.56617736816406,"y":43.965667724609375,"z":0.5999999642372131},"fault":{"name":"tire_pressure_imbalance","severity":1.0},"capture_flags":{"save_rgb":true,"save_depth":false,"video_rgb":true,"video_depth":false}}
{"frame":3001,"timestamp":{"delta_seconds":0.05000000074505806,"elapsed_seconds":34.05913797579706},"control":{"throttle":0.75,"steer":0.07594234496355057,"brake":0.0,"hand_brake":false,"reverse":false,"manual_gear_shift":false,"gear":0},"transform":{"location":{"x":-45.12654113769531,"y":91.59774017333984,"z":0.0008329772972501814},"rotation":{"pitch":0.08414109796285629,"yaw":-88.86506652832031,"roll":-0.0195617638528347}},"velocity":{"x":0.22846229374408722,"y":-3.493757486343384,"z":0.004714031238108873},"angular_velocity":{"x":0.06200356036424637,"y":-0.015921950340270996,"z":5.680893421173096},"acceleration":{"x":0.6720730662345886,"y":-5.692963600158691,"z":-0.046087831258773804},"speed_mps":3.5012224458228536,"speed_kph":12.604400804962273,"speed_limit_kph":30.0,"collisions_this_frame":[],"waypoint":{"x":-45.048728942871094,"y":91.59751892089844,"z":0.0},"lane_deviation_m":0.07781696319580078,"lane_width":3.5,"goal":{"x":102.56617736816406,"y":43.965667724609375,"z":0.5999999642372131},"fault":{"name":"tire_pressure_imbalance","severity":1.0},"capture_flags":{"save_rgb":true,"save_depth":false,"video_rgb":true,"video_depth":false}}
{"frame":3002,"timestamp":{"delta_seconds":0.05000000074505806,"elapsed_seconds":34.109137976542115},"control":{"throttle":0.75,"steer":0.07839132845401764,"brake":0.0,"hand_brake":false,"reverse":false,"manual_gear_shift":false,"gear":0},"transform":{"location":{"x":-45.11570358276367,"y":91.41522979736328,"z":0.0010394668206572533},"rotation":{"pitch":0.08069868385791779,"yaw":-88.56194305419922,"roll":-0.020935049280524254}},"velocity":{"x":0.2674151062965393,"y":-3.752661943435669,"z":0.003151054261252284},"angular_velocity":{"x":0.07245268672704697,"y":-0.024404609575867653,"z":6.290202617645264},"acceleration":{"x":0.7790562510490417,"y":-5.178089141845703,"z":-0.03125954046845436},"speed_mps":3.7621792128936278,"speed_kph":13.54384516641706,"speed_limit_kph":30.0,"collisions_this_frame":[],"waypoint":{"x":-45.04924011230469,"y":91.4150390625,"z":0.0},"lane_deviation_m":0.06647186726331711,"lane_width":3.5,"goal":{"x":102.56617736816406,"y":43.965667724609375,"z":0.5999999642372131},"fault":{"name":"tire_pressure_imbalance","severity":1.0},"capture_flags":{"save_rgb":true,"save_depth":false,"video_rgb":true,"video_depth":false}}
{"frame":3003,"timestamp":{"delta_seconds":0.05000000074505806,"elapsed_seconds":34.15913797728717},"control":{"throttle":0.75,"steer":0.07839132845401764,"brake":0.0,"hand_brake":false,"reverse":false,"manual_gear_shift":false,"gear":0},"transform":{"location":{"x":-45.10306167602539,"y":91.22008514404297,"z":0.001184921246021986},"rotation":{"pitch":0.07709234207868576,"yaw":-88.23690032958984,"roll":-0.0220947228372097}},"velocity":{"x":0.30645671486854553,"y":-4.000164985656738,"z":0.002097539836540818},"angular_velocity":{"x":0.07291054725646973,"y":-0.019597668200731277,"z":6.650125503540039},"acceleration":{"x":0.7808321714401245,"y":-4.950060844421387,"z":-0.021070288494229317},"speed_mps":4.0118873401723985,"speed_kph":14.442794424620635,"speed_limit_kph":30.0,"collisions_this_frame":[],"waypoint":{"x":-45.04978942871094,"y":91.21993255615234,"z":0.0},"lane_deviation_m":0.053285643458366394,"lane_width":3.5,"goal":{"x":102.56617736816406,"y":43.965667724609375,"z":0.5999999642372131},"fault":{"name":"tire_pressure_imbalance","severity":1.0},"capture_flags":{"save_rgb":true,"save_depth":false,"video_rgb":true,"video_depth":false}}
{"frame":3004,"timestamp":{"delta_seconds":0.05000000074505806,"elapsed_seconds":34.20913797803223},"control":{"throttle":0.0,"steer":0.0806044265627861,"brake":0.0,"hand_brake":false,"reverse":false,"manual_gear_shift":false,"gear":0},"transform":{"location":{"x":-45.088417053222656,"y":91.01338958740234,"z":0.0012914275284856558},"rotation":{"pitch":0.072987399995327,"yaw":-87.88711547851562,"roll":-0.023651123046875}},"velocity":{"x":0.35078635811805725,"y":-4.212789535522461,"z":0.0013912486610934138},"angular_velocity":{"x":0.09675955772399902,"y":-0.024971643462777138,"z":7.161496162414551},"acceleration":{"x":0.8865928649902344,"y":-4.252490997314453,"z":-0.014125823974609375},"speed_mps":4.227369001544828,"speed_kph":15.218528405561381,"speed_limit_kph":30.0,"collisions_this_frame":[],"waypoint":{"x":-45.05037307739258,"y":91.0132827758789,"z":0.0},"lane_deviation_m":0.038066036999225616,"lane_width":3.5,"goal":{"x":102.56617736816406,"y":43.965667724609375,"z":0.5999999642372131},"fault":{"name":"tire_pressure_imbalance","severity":1.0},"capture_flags":{"save_rgb":true,"save_depth":false,"video_rgb":true,"video_depth":false}}
{"frame":3005,"timestamp":{"delta_seconds":0.05000000074505806,"elapsed_seconds":34.25913797877729},"control":{"throttle":0.0,"steer":0.0806044265627861,"brake":0.0,"hand_brake":false,"reverse":false,"manual_gear_shift":false,"gear":0},"transform":{"location":{"x":-45.07186508178711,"y":90.79886627197266,"z":0.0013872908893972635},"rotation":{"pitch":0.06593864411115646,"yaw":-87.52261352539062,"roll":-0.02456665225327015}},"velocity":{"x":0.3877314329147339,"y":-4.325206756591797,"z":0.0009211349533870816},"angular_velocity":{"x":0.17619675397872925,"y":-0.003489261493086815,"z":7.343481540679932},"acceleration":{"x":0.7389014959335327,"y":-2.2483444213867188,"z":-0.009402274154126644},"speed_mps":4.342551093519458,"speed_kph":15.63318393667005,"speed_limit_kph":30.0,"collisions_this_frame":[],"waypoint":{"x":-45.05097579956055,"y":90.7988052368164,"z":0.0},"lane_deviation_m":0.020935386419296265,"lane_width":3.5,"goal":{"x":102.56617736816406,"y":43.965667724609375,"z":0.5999999642372131},"fault":{"name":"tire_pressure_imbalance","severity":1.0},"capture_flags":{"save_rgb":true,"save_depth":false,"video_rgb":true,"video_depth":false}}
{"frame":3006,"timestamp":{"delta_seconds":0.05000000074505806,"elapsed_seconds":34.30913797952235},"control":{"throttle":0.0,"steer":-0.0031806069891899824,"brake":1.0,"hand_brake":false,"reverse":false,"manual_gear_shift":false,"gear":0},"transform":{"location":{"x":-45.058197021484375,"y":90.58208465576172,"z":0.0014913940103724599},"rotation":{"pitch":0.05432732030749321,"yaw":-87.36872100830078,"roll":-0.004058838356286287}},"velocity":{"x":0.24532145261764526,"y":-4.326964855194092,"z":0.0006077861762605608},"angular_velocity":{"x":0.24875964224338531,"y":0.45288312435150146,"z":1.1077513694763184},"acceleration":{"x":-2.8481996059417725,"y":-0.03516197204589844,"z":-0.006266975775361061},"speed_mps":4.333913686565907,"speed_kph":15.602089271637267,"speed_limit_kph":30.0,"collisions_this_frame":[],"waypoint":{"x":-45.05158615112305,"y":90.58206939697266,"z":0.0},"lane_deviation_m":0.006777027156203985,"lane_width":3.5,"goal":{"x":102.56617736816406,"y":43.965667724609375,"z":0.5999999642372131},"fault":{"name":"tire_pressure_imbalance","severity":1.0},"capture_flags":{"save_rgb":true,"save_depth":false,"video_rgb":true,"video_depth":false}}
{"frame":3007,"timestamp":{"delta_seconds":0.05000000074505806,"elapsed_seconds":34.359137980267406},"control":{"throttle":0.0,"steer":-0.0031806069891899824,"brake":1.0,"hand_brake":false,"reverse":false,"manual_gear_shift":false,"gear":0},"transform":{"location":{"x":-45.04765701293945,"y":90.36856842041016,"z":0.001605720492079854},"rotation":{"pitch":0.03888426348567009,"yaw":-87.35787200927734,"roll":0.009133690968155861}},"velocity":{"x":0.20033831894397736,"y":-4.225413799285889,"z":0.0003987216914538294},"angular_velocity":{"x":0.3211098313331604,"y":0.16864392161369324,"z":-0.10141639411449432},"acceleration":{"x":-0.8996626734733582,"y":2.0310211181640625,"z":-0.004181289579719305},"speed_mps":4.230160443317947,"speed_kph":15.22857759594461,"speed_limit_kph":30.0,"collisions_this_frame":[],"waypoint":{"x":-45.05218505859375,"y":90.36858367919922,"z":0.0},"lane_deviation_m":0.004804349038749933,"lane_width":3.5,"goal":{"x":102.56617736816406,"y":43.965667724609375,"z":0.5999999642372131},"fault":{"name":"tire_pressure_imbalance","severity":1.0},"capture_flags":{"save_rgb":true,"save_depth":false,"video_rgb":true,"video_depth":false}}
{"frame":3008,"timestamp":{"delta_seconds":0.05000000074505806,"elapsed_seconds":34.409137981012464},"control":{"throttle":0.07300962507724762,"steer":0.0977754145860672,"brake":0.0,"hand_brake":false,"reverse":false,"manual_gear_shift":false,"gear":0},"transform":{"location":{"x":-45.03353500366211,"y":90.16134643554688,"z":0.0017130660125985742},"rotation":{"pitch":0.02324313297867775,"yaw":-87.14492797851562,"roll":-0.009948731400072575}},"velocity":{"x":0.3689630925655365,"y":-4.102602005004883,"z":0.0002589797950349748},"angular_velocity":{"x":0.3067876100540161,"y":-0.476592481136322,"z":6.559378623962402},"acceleration":{"x":3.372495412826538,"y":2.456235885620117,"z":-0.0027948380447924137},"speed_mps":4.119159749538265,"speed_kph":14.828975098337754,"speed_limit_kph":30.0,"collisions_this_frame":[],"waypoint":{"x":-45.05276870727539,"y":90.1613998413086,"z":0.0},"lane_deviation_m":0.019309913739562035,"lane_width":3.5,"goal":{"x":102.56617736816406,"y":43.965667724609375,"z":0.5999999642372131},"fault":{"name":"tire_pressure_imbalance","severity":1.0},"capture_flags":{"save_rgb":true,"save_depth":false,"video_rgb":true,"video_depth":false}}
{"frame":3009,"timestamp":{"delta_seconds":0.05000000074505806,"elapsed_seconds":34.45913798175752},"control":{"throttle":0.07300962507724762,"steer":0.0977754145860672,"brake":0.0,"hand_brake":false,"reverse":false,"manual_gear_shift":false,"gear":0},"transform":{"location":{"x":-45.01476287841797,"y":89.95799255371094,"z":0.0017868804279714823},"rotation":{"pitch":0.012389962561428547,"yaw":-86.75924682617188,"roll":-0.02627563290297985}},"velocity":{"x":0.442491739988327,"y":-4.043213844299316,"z":0.00017109869804698974},"angular_velocity":{"x":0.1917133629322052,"y":-0.20158644020557404,"z":8.103280067443848},"acceleration":{"x":1.4705729484558105,"y":1.1877632141113281,"z":-0.0017576219979673624},"speed_mps":4.067355057032311,"speed_kph":14.642478205316321,"speed_limit_kph":30.0,"collisions_this_frame":[],"waypoint":{"x":-45.053340911865234,"y":89.95809936523438,"z":0.0},"lane_deviation_m":0.03861954063177109,"lane_width":3.5,"goal":{"x":102.56617736816406,"y":43.965667724609375,"z":0.5999999642372131},"fault":{"name":"tire_pressure_imbalance","severity":1.0},"capture_flags":{"save_rgb":true,"save_depth":false,"video_rgb":true,"video_depth":false}}
{"frame":3010,"timestamp":{"delta_seconds":0.05000000074505806,"elapsed_seconds":34.50913798250258},"control":{"throttle":0.07300962507724762,"steer":0.0938609167933464,"brake":0.0,"hand_brake":false,"reverse":false,"manual_gear_shift":false,"gear":0},"transform":{"location":{"x":-44.994144439697266,"y":89.75753784179688,"z":0.0018362426199018955},"rotation":{"pitch":0.005102151073515415,"yaw":-86.36082458496094,"roll":-0.029724113643169403}},"velocity":{"x":0.46847301721572876,"y":-3.983853340148926,"z":0.00011051177716581151},"angular_velocity":{"x":0.12754571437835693,"y":-0.0014498243108391762,"z":7.891937255859375},"acceleration":{"x":0.5196255445480347,"y":1.1872100830078125,"z":-0.001211738446727395},"speed_mps":4.0113033313236,"speed_kph":14.440691992764961,"speed_limit_kph":30.0,"collisions_this_frame":[],"waypoint":{"x":-45.05390548706055,"y":89.75770568847656,"z":0.0},"lane_deviation_m":0.05978948622941971,"lane_width":3.5,"goal":{"x":102.56617736816406,"y":43.965667724609375,"z":0.5999999642372131},"fault":{"name":"tire_pressure_imbalance","severity":1.0},"capture_flags":{"save_rgb":true,"save_depth":false,"video_rgb":true,"video_depth":false}}
{"frame":3011,"timestamp":{"delta_seconds":0.05000000074505806,"elapsed_seconds":34.55913798324764},"control":{"throttle":0.07300962507724762,"steer":0.0938609167933464,"brake":0.0,"hand_brake":false,"reverse":false,"manual_gear_shift":false,"gear":0},"transform":{"location":{"x":-44.9722785949707,"y":89.55989074707031,"z":0.0018705748952925205},"rotation":{"pitch":0.0,"yaw":-85.96746063232422,"roll":-0.0290222130715847}},"velocity":{"x":0.4930863380432129,"y":-3.9285905361175537,"z":7.239341357490048e-05},"angular_velocity":{"x":0.08557633310556412,"y":0.02762284129858017,"z":7.8543620109558105},"acceleration":{"x":0.4922664165496826,"y":1.1052560806274414,"z":-0.0007623672718182206},"speed_mps":3.959413812987736,"speed_kph":14.25388972675585,"speed_limit_kph":30.0,"collisions_this_frame":[],"waypoint":{"x":-45.05446243286133,"y":89.56011962890625,"z":0.0},"lane_deviation_m":0.08220543712377548,"lane_width":3.5,"goal":{"x":102.56617736816406,"y":43.965667724609375,"z":0.5999999642372131},"fault":{"name":"tire_pressure_imbalance","severity":1.0},"capture_flags":{"save_rgb":true,"save_depth":false,"video_rgb":true,"video_depth":false}}
{"frame":3012,"timestamp":{"delta_seconds":0.05000000074505806,"elapsed_seconds":34.609137983992696},"control":{"throttle":0.07300962507724762,"steer":0.09762701392173767,"brake":0.0,"hand_brake":false,"reverse":false,"manual_gear_shift":false,"gear":0},"transform":{"location":{"x":-44.94915008544922,"y":89.36515045166016,"z":0.0018954086117446423},"rotation":{"pitch":-0.0037839245051145554,"yaw":-85.57035827636719,"roll":-0.0280761681497097}},"velocity":{"x":0.5187452435493469,"y":-3.867337226867676,"z":4.474639717955142e-05},"angular_velocity":{"x":0.06583480536937714,"y":0.0328398272395134,"z":7.9372239112854},"acceleration":{"x":0.5131781101226807,"y":1.2250661849975586,"z":-0.0005529402988031507},"speed_mps":3.901973072180775,"speed_kph":14.04710305985079,"speed_limit_kph":30.0,"collisions_this_frame":[],"waypoint":{"x":-45.05500793457031,"y":89.36544799804688,"z":0.0},"lane_deviation_m":0.10587523132562637,"lane_width":3.5,"goal":{"x":102.56617736816406,"y":43.965667724609375,"z":0.5999999642372131},"fault":{"name":"tire_pressure_imbalance","severity":1.0},"capture_flags":{"save_rgb":true,"save_depth":false,"video_rgb":true,"video_depth":false}}
{"frame":3013,"timestamp":{"delta_seconds":0.05000000074505806,"elapsed_seconds":34.659137984737754},"control":{"throttle":0.07300962507724762,"steer":0.09762701392173767,"brake":0.0,"hand_brake":false,"reverse":false,"manual_gear_shift":false,"gear":0},"transform":{"location":{"x":-44.92483139038086,"y":89.17327880859375,"z":0.0019131851149722934},"rotation":{"pitch":-0.00646818894892931,"yaw":-85.17284393310547,"roll":-0.02685547061264515}},"velocity":{"x":0.5420736074447632,"y":-3.8122386932373047,"z":2.8743743314407766e-05},"angular_velocity":{"x":0.043001774698495865,"y":0.024909278377890587,"z":7.950681209564209},"acceleration":{"x":0.4665672779083252,"y":1.1019706726074219,"z":-0.00032005307730287313},"speed_mps":3.850585364711456,"speed_kph":13.86210731296124,"speed_limit_kph":30.0,"collisions_this_frame":[],"waypoint":{"x":-45.05554962158203,"y":89.17365264892578,"z":0.0},"lane_deviation_m":0.13073275983333588,"lane_width":3.5,"goal":{"x":102.56617736816406,"y":43.965667724609375,"z":0.5999999642372131},"fault":{"name":"tire_pressure_imbalance","severity":1.0},"capture_flags":{"save_rgb":true,"save_depth":false,"video_rgb":true,"video_depth":false}}
{"frame":3014,"timestamp":{"delta_seconds":0.05000000074505806,"elapsed_seconds":34.70913798548281},"control":{"throttle":0.07300962507724762,"steer":0.09973078221082687,"brake":0.0,"hand_brake":false,"reverse":false,"manual_gear_shift":false,"gear":0},"transform":{"location":{"x":-44.8994026184082,"y":88.98430633544922,"z":0.0019261168781667948},"rotation":{"pitch":-0.008483094163239002,"yaw":-84.77532196044922,"roll":-0.02572631649672985}},"velocity":{"x":0.5629026889801025,"y":-3.752026081085205,"z":2.233505256299395e-05},"angular_velocity":{"x":0.034352634102106094,"y":0.033428650349378586,"z":7.912121295928955},"acceleration":{"x":0.4165816307067871,"y":1.2042522430419922,"z":-0.0001281738223042339},"speed_mps":3.7940162296573647,"speed_kph":13.658458426766513,"speed_limit_kph":30.0,"collisions_this_frame":[],"waypoint":{"x":-45.05607986450195,"y":88.98474884033203,"z":0.0},"lane_deviation_m":0.15668970346450806,"lane_width":3.5,"goal":{"x":102.56617736816406,"y":43.965667724609375,"z":0.5999999642372131},"fault":{"name":"tire_pressure_imbalance","severity":1.0},"capture_flags":{"save_rgb":true,"save_depth":false,"video_rgb":true,"video_depth":false}}
{"frame":3015,"timestamp":{"delta_seconds":0.05000000074505806,"elapsed_seconds":34.75913798622787},"control":{"throttle":0.07300962507724762,"steer":0.09973078221082687,"brake":0.0,"hand_brake":false,"reverse":false,"manual_gear_shift":false,"gear":0},"transform":{"location":{"x":-44.87293243408203,"y":88.79810333251953,"z":0.0019348525675013661},"rotation":{"pitch":-0.009855962358415127,"yaw":-84.37947845458984,"roll":-0.02459716610610485}},"velocity":{"x":0.5842189192771912,"y":-3.6983273029327393,"z":1.1672973414533772e-05},"angular_velocity":{"x":0.019744258373975754,"y":0.018312908709049225,"z":7.9172234535217285},"acceleration":{"x":0.42632460594177246,"y":1.0739755630493164,"z":-0.0002132415829692036},"speed_mps":3.7441870393178034,"speed_kph":13.479073341544092,"speed_limit_kph":30.0,"collisions_this_frame":[],"waypoint":{"x":-45.056602478027344,"y":88.79862213134766,"z":0.0},"lane_deviation_m":0.1836809664964676,"lane_width":3.5,"goal":{"x":102.56617736816406,"y":43.965667724609375,"z":0.5999999642372131},"fault":{"name":"tire_pressure_imbalance","severity":1.0},"capture_flags":{"save_rgb":true,"save_depth":false,"video_rgb":true,"video_depth":false}}
{"frame":3016,"timestamp":{"delta_seconds":0.05000000074505806,"elapsed_seconds":34.80913798697293},"control":{"throttle":0.75,"steer":-0.00836719200015068,"brake":0.0,"hand_brake":false,"reverse":false,"manual_gear_shift":false,"gear":0},"transform":{"location":{"x":-44.84556198120117,"y":88.61471557617188,"z":0.0019413375994190574},"rotation":{"pitch":-0.010866830125451088,"yaw":-83.98918914794922,"roll":-0.02325439266860485}},"velocity":{"x":0.599345862865448,"y":-3.6400389671325684,"z":8.106231689453125e-06},"angular_velocity":{"x":0.016268664970993996,"y":0.03597116842865944,"z":7.729190349578857},"acceleration":{"x":0.3025388717651367,"y":1.165766716003418,"z":-7.133483450161293e-05},"speed_mps":3.6890512527807435,"speed_kph":13.280584510010677,"speed_limit_kph":30.0,"collisions_this_frame":[],"waypoint":{"x":-45.05712127685547,"y":88.61531066894531,"z":0.0},"lane_deviation_m":0.21156904101371765,"lane_width":3.5,"goal":{"x":102.56617736816406,"y":43.965667724609375,"z":0.5999999642372131},"fault":{"name":"tire_pressure_imbalance","severity":1.0},"capture_flags":{"save_rgb":true,"save_depth":false,"video_rgb":true,"video_depth":false}}
{"frame":3017,"timestamp":{"delta_seconds":0.05000000074505806,"elapsed_seconds":34.859137987717986},"control":{"throttle":0.75,"steer":-0.00836719200015068,"brake":0.0,"hand_brake":false,"reverse":false,"manual_gear_shift":false,"gear":0},"transform":{"location":{"x":-44.821903228759766,"y":88.43318176269531,"z":0.0019430541433393955},"rotation":{"pitch":-0.011112716980278492,"yaw":-83.83040618896484,"roll":-6.103480700403452e-05}},"velocity":{"x":0.4357689619064331,"y":-3.622765064239502,"z":7.543563697254285e-06},"angular_velocity":{"x":-0.06076519563794136,"y":0.5024805665016174,"z":0.8694590330123901},"acceleration":{"x":-3.271538019180298,"y":0.3454780578613281,"z":-1.1253359843976796e-05},"speed_mps":3.648879457983253,"speed_kph":13.13596604873971,"speed_limit_kph":30.0,"collisions_this_frame":[],"waypoint":{"x":-45.0576286315918,"y":88.43384552001953,"z":0.0},"lane_deviation_m":0.23573434352874756,"lane_width":3.5,"goal":{"x":102.56617736816406,"y":43.965667724609375,"z":0.5999999642372131},"fault":{"name":"tire_pressure_imbalance","severity":1.0},"capture_flags":{"save_rgb":true,"save_depth":false,"video_rgb":true,"video_depth":false}}
{"frame":3018,"timestamp":{"delta_seconds":0.05000000074505806,"elapsed_seconds":34.909137988463044},"control":{"throttle":0.75,"steer":-0.031536661088466644,"brake":0.0,"hand_brake":false,"reverse":false,"manual_gear_shift":false,"gear":0},"transform":{"location":{"x":-44.80305862426758,"y":88.25175476074219,"z":0.0019343948224559426},"rotation":{"pitch":-0.009616905823349953,"yaw":-83.89376068115234,"roll":0.019969752058386803}},"velocity":{"x":0.3468717038631439,"y":-3.64042067527771,"z":3.414153979974799e-06},"angular_velocity":{"x":-0.07892319560050964,"y":0.254427969455719,"z":-2.0009090900421143},"acceleration":{"x":-1.7779451608657837,"y":-0.35311222076416016,"z":-8.258819434558973e-05},"speed_mps":3.6569088957672973,"speed_kph":13.164872024762271,"speed_limit_kph":30.0,"collisions_this_frame":[],"waypoint":{"x":-45.05813980102539,"y":88.25247192382812,"z":0.0},"lane_deviation_m":0.25508952140808105,"lane_width":3.5,"goal":{"x":102.56617736816406,"y":43.965667724609375,"z":0.5999999642372131},"fault":{"name":"tire_pressure_imbalance","severity":1.0},"capture_flags":{"save_rgb":true,"save_depth":false,"video_rgb":true,"video_depth":false}}
{"frame":3019,"timestamp":{"delta_seconds":0.05000000074505806,"elapsed_seconds":34.9591379892081},"control":{"throttle":0.75,"steer":-0.031536661088466644,"brake":0.0,"hand_brake":false,"reverse":false,"manual_gear_shift":false,"gear":0},"transform":{"location":{"x":-44.78578186035156,"y":88.06710052490234,"z":0.0019052124116569757},"rotation":{"pitch":-0.004610377363860607,"yaw":-84.0114974975586,"roll":0.02536550909280777}},"velocity":{"x":0.32735633850097656,"y":-3.7398033142089844,"z":1.5258788721439487e-07},"angular_velocity":{"x":-0.13471250236034393,"y":0.019146697595715523,"z":-2.4932565689086914},"acceleration":{"x":-0.39030730724334717,"y":-1.9876527786254883,"z":-6.523131742142141e-05},"speed_mps":3.7541032219859503,"speed_kph":13.514771599149421,"speed_limit_kph":30.0,"collisions_this_frame":[],"waypoint":{"x":-45.058658599853516,"y":88.06786346435547,"z":0.0},"lane_deviation_m":0.27288445830345154,"lane_width":3.5,"goal":{"x":102.56617736816406,"y":43.965667724609375,"z":0.5999999642372131},"fault":{"name":"tire_pressure_imbalance","severity":1.0},"capture_flags":{"save_rgb":true,"save_depth":false,"video_rgb":true,"video_depth":false}}
{"frame":3020,"timestamp":{"delta_seconds":0.05000000074505806,"elapsed_seconds":35.00913798995316},"control":{"throttle":0.75,"steer":-0.04232475534081459,"brake":0.0,"hand_brake":false,"reverse":false,"manual_gear_shift":false,"gear":0},"transform":{"location":{"x":-44.769290924072266,"y":87.87560272216797,"z":0.0018581771291792393},"rotation":{"pitch":0.003428754862397909,"yaw":-84.16954040527344,"roll":0.02694113366305828}},"velocity":{"x":0.30589672923088074,"y":-3.897282838821411,"z":-5.340576194612368e-07},"angular_velocity":{"x":-0.17467936873435974,"y":-0.012720629572868347,"z":-3.415560007095337},"acceleration":{"x":-0.4291921854019165,"y":-3.149590492248535,"z":-1.3732910701946821e-05},"speed_mps":3.9092692839872663,"speed_kph":14.073369422354158,"speed_limit_kph":30.0,"collisions_this_frame":[],"waypoint":{"x":-45.059200286865234,"y":87.87641906738281,"z":0.0},"lane_deviation_m":0.289916455745697,"lane_width":3.5,"goal":{"x":102.56617736816406,"y":43.965667724609375,"z":0.5999999642372131},"fault":{"name":"tire_pressure_imbalance","severity":1.0},"capture_flags":{"save_rgb":true,"save_depth":false,"video_rgb":true,"video_depth":false}}
{"frame":3021,"timestamp":{"delta_seconds":0.05000000074505806,"elapsed_seconds":35.05913799069822},"control":{"throttle":0.75,"steer":-0.04232475534081459,"brake":0.0,"hand_brake":false,"reverse":false,"manual_gear_shift":false,"gear":0},"transform":{"location":{"x":-44.753021240234375,"y":87.67495727539062,"z":0.0018033217638731003},"rotation":{"pitch":0.012792943976819515,"yaw":-84.34943389892578,"roll":0.02578943409025669}},"velocity":{"x":0.3035537898540497,"y":-4.09279727935791,"z":5.340576194612368e-07},"angular_velocity":{"x":-0.18451979756355286,"y":-0.0548379048705101,"z":-3.6821107864379883},"acceleration":{"x":-0.046858787536621094,"y":-3.9102888107299805,"z":2.136230432370212e-05},"speed_mps":4.104038800164364,"speed_kph":14.774539680591712,"speed_limit_kph":30.0,"collisions_this_frame":[],"waypoint":{"x":-45.05976486206055,"y":87.67581939697266,"z":0.0},"lane_deviation_m":0.3067501187324524,"lane_width":3.5,"goal":{"x":102.56617736816406,"y":43.965667724609375,"z":0.5999999642372131},"fault":{"name":"tire_pressure_imbalance","severity":1.0},"capture_flags":{"save_rgb":true,"save_depth":false,"video_rgb":true,"video_depth":false}}
{"frame":3022,"timestamp":{"delta_seconds":0.05000000074505806,"elapsed_seconds":35.109137991443276},"control":{"throttle":0.0,"steer":-0.03760812431573868,"brake":0.0,"hand_brake":false,"reverse":false,"manual_gear_shift":false,"gear":0},"transform":{"location":{"x":-44.73643112182617,"y":87.46466827392578,"z":0.0017536926316097379},"rotation":{"pitch":0.021235056221485138,"yaw":-84.52581024169922,"roll":0.022377343848347664}},"velocity":{"x":0.31301283836364746,"y":-4.276557445526123,"z":-7.534026735811494e-07},"angular_velocity":{"x":-0.13800890743732452,"y":-0.08129052817821503,"z":-3.4978442192077637},"acceleration":{"x":0.18918097019195557,"y":-3.675203323364258,"z":-2.5749204723979346e-05},"speed_mps":4.2879972740040255,"speed_kph":15.436790186414493,"speed_limit_kph":30.0,"collisions_this_frame":[],"waypoint":{"x":-45.06035614013672,"y":87.465576171875,"z":0.0},"lane_deviation_m":0.3239310383796692,"lane_width":3.5,"goal":{"x":102.56617736816406,"y":43.965667724609375,"z":0.5999999642372131},"fault":{"name":"tire_pressure_imbalance","severity":1.0},"capture_flags":{"save_rgb":true,"save_depth":false,"video_rgb":true,"video_depth":false}}
{"frame":3023,"timestamp":{"delta_seconds":0.05000000074505806,"elapsed_seconds":35.159137992188334},"control":{"throttle":0.0,"steer":-0.03760812431573868,"brake":0.0,"hand_brake":false,"reverse":false,"manual_gear_shift":false,"gear":0},"transform":{"location":{"x":-44.71981430053711,"y":87.2475357055664,"z":0.0017303847707808018},"rotation":{"pitch":0.025244377553462982,"yaw":-84.7009506225586,"roll":0.019550999626517296}},"velocity":{"x":0.3088487982749939,"y":-4.3744797706604,"z":8.773803301664884e-07},"angular_velocity":{"x":-0.026446690782904625,"y":-0.052195627242326736,"z":-3.501960515975952},"acceleration":{"x":-0.08328080177307129,"y":-1.9584465026855469,"z":3.2615658710710704e-05},"speed_mps":4.385368951880075,"speed_kph":15.78732822676827,"speed_limit_kph":30.0,"collisions_this_frame":[],"waypoint":{"x":-45.06096649169922,"y":87.24849700927734,"z":0.0},"lane_deviation_m":0.3411579430103302,"lane_width":3.5,"goal":{"x":102.56617736816406,"y":43.965667724609375,"z":0.5999999642372131},"fault":{"name":"tire_pressure_imbalance","severity":1.0},"capture_flags":{"save_rgb":true,"save_depth":false,"video_rgb":true,"video_depth":false}}
{"frame":3024,"timestamp":{"delta_seconds":0.05000000074505806,"elapsed_seconds":35.20913799293339},"control":{"throttle":0.0,"steer":0.013834156095981598,"brake":1.0,"hand_brake":false,"reverse":false,"manual_gear_shift":false,"gear":0},"transform":{"location":{"x":-44.70062255859375,"y":87.02924346923828,"z":0.0017447280697524548},"rotation":{"pitch":0.0227650199085474,"yaw":-84.72720336914062,"roll":0.0035024816170334816}},"velocity":{"x":0.40598273277282715,"y":-4.348378658294678,"z":-1.23977656585339e-07},"angular_velocity":{"x":0.1278454214334488,"y":-0.2897989749908447,"z":0.5242388248443604},"acceleration":{"x":1.942678689956665,"y":0.5220222473144531,"z":-2.002716064453125e-05},"speed_mps":4.367289655521183,"speed_kph":15.722242759876258,"speed_limit_kph":30.0,"collisions_this_frame":[],"waypoint":{"x":-45.061580657958984,"y":87.03025817871094,"z":0.0},"lane_deviation_m":0.36096373200416565,"lane_width":3.5,"goal":{"x":102.56617736816406,"y":43.965667724609375,"z":0.5999999642372131},"fault":{"name":"tire_pressure_imbalance","severity":1.0},"capture_flags":{"save_rgb":true,"save_depth":false,"video_rgb":true,"video_depth":false}}
{"frame":3025,"timestamp":{"delta_seconds":0.05000000074505806,"elapsed_seconds":35.25913799367845},"control":{"throttle":0.0,"steer":0.013834156095981598,"brake":1.0,"hand_brake":false,"reverse":false,"manual_gear_shift":false,"gear":0},"transform":{"location":{"x":-44.679935455322266,"y":86.8149185180664,"z":0.0017918776720762253},"rotation":{"pitch":0.014739547856152058,"yaw":-84.67650604248047,"roll":-0.005401610862463713}},"velocity":{"x":0.4216288626194,"y":-4.236545085906982,"z":-6.771087441848067e-07},"angular_velocity":{"x":0.20343171060085297,"y":-0.08858468383550644,"z":1.2440121173858643},"acceleration":{"x":0.3129225969314575,"y":2.2366714477539062,"z":-1.1062621524615679e-05},"speed_mps":4.25747403547183,"speed_kph":15.326906527698588,"speed_limit_kph":30.0,"collisions_this_frame":[],"waypoint":{"x":-45.06218338012695,"y":86.81599426269531,"z":0.0},"lane_deviation_m":0.38225361704826355,"lane_width":3.5,"goal":{"x":102.56617736816406,"y":43.965667724609375,"z":0.5999999642372131},"fault":{"name":"tire_pressure_imbalance","severity":1.0},"capture_flags":{"save_rgb":true,"save_depth":false,"video_rgb":true,"video_depth":false}}
{"frame":3026,"timestamp":{"delta_seconds":0.05000000074505806,"elapsed_seconds":35.30913799442351},"control":{"throttle":0.0,"steer":0.007462003268301487,"brake":1.0,"hand_brake":false,"reverse":false,"manual_gear_shift":false,"gear":0},"transform":{"location":{"x":-44.65973663330078,"y":86.6082763671875,"z":0.0018585968064144254},"rotation":{"pitch":0.003353622741997242,"yaw":-84.63655853271484,"roll":-0.0059814453125}},"velocity":{"x":0.40069884061813354,"y":-4.0576171875,"z":-8.583068478174027e-08},"angular_velocity":{"x":0.24175399541854858,"y":0.03742516040802002,"z":0.49733251333236694},"acceleration":{"x":-0.4186004400253296,"y":3.5785579681396484,"z":1.182556115963962e-05},"speed_mps":4.0773541422309805,"speed_kph":14.67847491203153,"speed_limit_kph":30.0,"collisions_this_frame":[],"waypoint":{"x":-45.06276321411133,"y":86.60941314697266,"z":0.0},"lane_deviation_m":0.40303248167037964,"lane_width":3.5,"goal":{"x":102.56617736816406,"y":43.965667724609375,"z":0.5999999642372131},"fault":{"name":"tire_pressure_imbalance","severity":1.0},"capture_flags":{"save_rgb":true,"save_depth":false,"video_rgb":true,"video_depth":false}}
{"frame":3027,"timestamp":{"delta_seconds":0.05000000074505806,"elapsed_seconds":35.35913799516857},"control":{"throttle":0.0,"steer":0.007462003268301487,"brake":1.0,"hand_brake":false,"reverse":false,"manual_gear_shift":false,"gear":0},"transform":{"location":{"x":-44.64055252075195,"y":86.41215515136719,"z":0.001932868966832757},"rotation":{"pitch":-0.009302716702222824,"yaw":-84.6004867553711,"roll":-0.00494384765625}},"velocity":{"x":0.3798096776008606,"y":-3.833008050918579,"z":-1.5258788721439487e-07},"angular_velocity":{"x":0.24683088064193726,"y":0.04536749795079231,"z":1.02202570438385},"acceleration":{"x":-0.417783260345459,"y":4.492182731628418,"z":-1.3351440202313825e-06},"speed_mps":3.851779602937574,"speed_kph":13.866406570575267,"speed_limit_kph":30.0,"collisions_this_frame":[],"waypoint":{"x":-45.063316345214844,"y":86.41333770751953,"z":0.0},"lane_deviation_m":0.4227699041366577,"lane_width":3.5,"goal":{"x":102.56617736816406,"y":43.965667724609375,"z":0.5999999642372131},"fault":{"name":"tire_pressure_imbalance","severity":1.0},"capture_flags":{"save_rgb":true,"save_depth":false,"video_rgb":true,"video_depth":false}}
{"frame":3028,"timestamp":{"delta_seconds":0.05000000074505806,"elapsed_seconds":35.409137995913625},"control":{"throttle":0.059053368866443634,"steer":-0.03009704500436783,"brake":0.0,"hand_brake":false,"reverse":false,"manual_gear_shift":false,"gear":0},"transform":{"location":{"x":-44.62416076660156,"y":86.22612762451172,"z":0.001992721576243639},"rotation":{"pitch":-0.019500188529491425,"yaw":-84.6683349609375,"roll":0.004593562334775925}},"velocity":{"x":0.29556548595428467,"y":-3.6592512130737305,"z":2.0027160019253643e-07},"angular_velocity":{"x":0.14591272175312042,"y":0.18756113946437836,"z":-2.461611032485962},"acceleration":{"x":-1.6848838329315186,"y":3.4751367568969727,"z":7.05719003235572e-06},"speed_mps":3.6711685328882684,"speed_kph":13.216206718397766,"speed_limit_kph":30.0,"collisions_this_frame":[],"waypoint":{"x":-45.063838958740234,"y":86.22736358642578,"z":0.0},"lane_deviation_m":0.4396844506263733,"lane_width":3.5,"goal":{"x":102.56617736816406,"y":43.965667724609375,"z":0.5999999642372131},"fault":{"name":"tire_pressure_imbalance","severity":1.0},"capture_flags":{"save_rgb":true,"save_depth":false,"video_rgb":true,"video_depth":false}}
{"frame":3029,"timestamp":{"delta_seconds":0.05000000074505806,"elapsed_seconds":35.45913799665868},"control":{"throttle":0.059053368866443634,"steer":-0.03009704500436783,"brake":0.0,"hand_brake":false,"reverse":false,"manual_gear_shift":false,"gear":0},"transform":{"location":{"x":-44.60979461669922,"y":86.04638671875,"z":0.0020193099044263363},"rotation":{"pitch":-0.024014944210648537,"yaw":-84.77182006835938,"roll":0.009461093693971634}},"velocity":{"x":0.2662140130996704,"y":-3.5649948120117188,"z":6.103515488575795e-07},"angular_velocity":{"x":0.03675590828061104,"y":0.05823617801070213,"z":-1.7125377655029297},"acceleration":{"x":-0.5870294570922852,"y":1.8851280212402344,"z":8.20159948489163e-06},"speed_mps":3.5749206858952096,"speed_kph":12.869714469222755,"speed_limit_kph":30.0,"collisions_this_frame":[],"waypoint":{"x":-45.06434631347656,"y":86.04766082763672,"z":0.0},"lane_deviation_m":0.45455798506736755,"lane_width":3.5,"goal":{"x":102.56617736816406,"y":43.965667724609375,"z":0.5999999642372131},"fault":{"name":"tire_pressure_imbalance","severity":1.0},"capture_flags":{"save_rgb":true,"save_depth":false,"video_rgb":true,"video_depth":false}}
{"frame":3030,"timestamp":{"delta_seconds":0.05000000074505806,"elapsed_seconds":35.50913799740374},"control":{"throttle":0.75,"steer":-0.024162646383047104,"brake":0.0,"hand_brake":false,"reverse":false,"manual_gear_shift":false,"gear":0},"transform":{"location":{"x":-44.595951080322266,"y":85.86974334716797,"z":0.002017135499045253},"rotation":{"pitch":-0.023652944713830948,"yaw":-84.87796020507812,"roll":0.008929803036153316}},"velocity":{"x":0.26237204670906067,"y":-3.5179998874664307,"z":-1.1348723774062819e-06},"angular_velocity":{"x":-0.03155108168721199,"y":-0.029070410877466202,"z":-2.490372657775879},"acceleration":{"x":-0.07683932781219482,"y":0.9398984909057617,"z":-3.490447852527723e-05},"speed_mps":3.5277701596205793,"speed_kph":12.699972574634085,"speed_limit_kph":30.0,"collisions_this_frame":[],"waypoint":{"x":-45.064842224121094,"y":85.87106323242188,"z":0.0},"lane_deviation_m":0.46889734268188477,"lane_width":3.5,"goal":{"x":102.56617736816406,"y":43.965667724609375,"z":0.5999999642372131},"fault":{"name":"tire_pressure_imbalance","severity":1.0},"capture_flags":{"save_rgb":true,"save_depth":false,"video_rgb":true,"video_depth":false}}
{"frame":3031,"timestamp":{"delta_seconds":0.05000000074505806,"elapsed_seconds":35.5591379981488},"control":{"throttle":0.75,"steer":-0.024162646383047104,"brake":0.0,"hand_brake":false,"reverse":false,"manual_gear_shift":false,"gear":0},"transform":{"location":{"x":-44.58244705200195,"y":85.69392395019531,"z":0.0019960785284638405},"rotation":{"pitch":-0.020053435117006302,"yaw":-84.96605682373047,"roll":0.007771769538521767}},"velocity":{"x":0.25818124413490295,"y":-3.5252788066864014,"z":2.1457672119140625e-06},"angular_velocity":{"x":-0.0956924557685852,"y":-0.02765752747654915,"z":-1.3059953451156616},"acceleration":{"x":-0.0838160514831543,"y":-0.14557838439941406,"z":6.561279587913305e-05},"speed_mps":3.534720387767602,"speed_kph":12.724993395963368,"speed_limit_kph":30.0,"collisions_this_frame":[],"waypoint":{"x":-45.065338134765625,"y":85.69528198242188,"z":0.0},"lane_deviation_m":0.4828971326351166,"lane_width":3.5,"goal":{"x":102.56617736816406,"y":43.965667724609375,"z":0.5999999642372131},"fault":{"name":"tire_pressure_imbalance","severity":1.0},"capture_flags":{"save_rgb":true,"save_depth":false,"video_rgb":true,"video_depth":false}}
