{"frame":41,"timestamp":{"delta_seconds":0.05000000074505806,"elapsed_seconds":3.814655926078558},"control":{"throttle":0.75,"steer":0.0,"brake":0.0,"hand_brake":false,"reverse":false,"manual_gear_shift":false,"gear":0},"transform":{"location":{"x":-87.6230239868164,"y":12.967159271240234,"z":0.48239994049072266},"rotation":{"pitch":0.0,"yaw":-179.84078979492188,"roll":0.0}},"velocity":{"x":0.0,"y":0.0,"z":-1.470000147819519},"angular_velocity":{"x":0.0,"y":0.0,"z":0.0},"acceleration":{"x":0.0,"y":0.0,"z":-9.80000114440918},"speed_mps":1.470000147819519,"speed_kph":5.2920005321502686,"speed_limit_kph":30.0,"collisions_this_frame":[],"waypoint":{"x":-87.62295532226562,"y":12.94051742553711,"z":0.0},"lane_deviation_m":0.48313507437705994,"lane_width":3.5,"goal":{"x":102.31767272949219,"y":80.41472625732422,"z":0.5999999642372131},"fault":{"name":"degraded_brake_pads","severity":1.0},"capture_flags":{"save_rgb":true,"save_depth":false,"video_rgb":true,"video_depth":false}}
{"frame":42,"timestamp":{"delta_seconds":0.05000000074505806,"elapsed_seconds":3.864655926823616},"control":{"throttle":0.75,"steer":0.0,"brake":0.0,"hand_brake":false,"reverse":false,"manual_gear_shift":false,"gear":0},"transform":{"location":{"x":-87.6230239868164,"y":12.967159271240234,"z":0.394199937582016},"rotation":{"pitch":0.0,"yaw":-179.84078979492188,"roll":0.0}},"velocity":{"x":0.0,"y":0.0,"z":-1.9600002765655518},"angular_velocity":{"x":0.0,"y":0.0,"z":0.0},"acceleration":{"x":0.0,"y":0.0,"z":-9.800003051757812},"speed_mps":1.9600002765655518,"speed_kph":7.056000995635986,"speed_limit_kph":30.0,"collisions_this_frame":[],"waypoint":{"x":-87.62295532226562,"y":12.94051742553711,"z":0.0},"lane_deviation_m":0.3950991928577423,"lane_width":3.5,"goal":{"x":102.31767272949219,"y":80.41472625732422,"z":0.5999999642372131},"fault":{"name":"degraded_brake_pads","severity":1.0},"capture_flags":{"save_rgb":true,"save_depth":false,"video_rgb":true,"video_depth":false}}
{"frame":43,"timestamp":{"delta_seconds":0.05000000074505806,"elapsed_seconds":3.914655927568674},"control":{"throttle":0.75,"steer":0.0,"brake":0.0,"hand_brake":false,"reverse":false,"manual_gear_shift":false,"gear":0},"transform":{"location":{"x":-87.6230239868164,"y":12.967159271240234,"z":0.281499981880188},"rotation":{"pitch":0.0,"yaw":-179.84078979492188,"roll":0.0}},"velocity":{"x":0.0,"y":0.0,"z":-2.450000286102295},"angular_velocity":{"x":0.0,"y":0.0,"z":0.0},"acceleration":{"x":0.0,"y":0.0,"z":-9.800000190734863},"speed_mps":2.450000286102295,"speed_kph":8.820001029968262,"speed_limit_kph":30.0,"collisions_this_frame":[],"waypoint":{"x":-87.62295532226562,"y":12.94051742553711,"z":0.0},"lane_deviation_m":0.2827579081058502,"lane_width":3.5,"goal":{"x":102.31767272949219,"y":80.41472625732422,"z":0.5999999642372131},"fault":{"name":"degraded_brake_pads","severity":1.0},"capture_flags":{"save_rgb":true,"save_depth":false,"video_rgb":true,"video_depth":false}}
{"frame":44,"timestamp":{"delta_seconds":0.05000000074505806,"elapsed_seconds":3.964655928313732},"control":{"throttle":0.75,"steer":0.0,"brake":0.0,"hand_brake":false,"reverse":false,"manual_gear_shift":false,"gear":0},"transform":{"location":{"x":-87.6230239868164,"y":12.967159271240234,"z":0.14429987967014313},"rotation":{"pitch":0.0,"yaw":-179.84078979492188,"roll":0.0}},"velocity":{"x":0.0,"y":0.0,"z":-2.93999981880188},"angular_velocity":{"x":0.0,"y":0.0,"z":0.0},"acceleration":{"x":0.0,"y":0.0,"z":-9.7999906539917},"speed_mps":2.93999981880188,"speed_kph":10.583999347686769,"speed_limit_kph":30.0,"collisions_this_frame":[],"waypoint":{"x":-87.62295532226562,"y":12.94051742553711,"z":0.0},"lane_deviation_m":0.1467387080192566,"lane_width":3.5,"goal":{"x":102.31767272949219,"y":80.41472625732422,"z":0.5999999642372131},"fault":{"name":"degraded_brake_pads","severity":1.0},"capture_flags":{"save_rgb":true,"save_depth":false,"video_rgb":true,"video_depth":false}}
{"frame":45,"timestamp":{"delta_seconds":0.05000000074505806,"elapsed_seconds":4.01465592905879},"control":{"throttle":0.75,"steer":0.0,"brake":0.0,"hand_brake":false,"reverse":false,"manual_gear_shift":false,"gear":0},"transform":{"location":{"x":-87.62357330322266,"y":12.96517276763916,"z":0.009365997277200222},"rotation":{"pitch":0.07286445051431656,"yaw":-179.8075408935547,"roll":-0.1875305026769638}},"velocity":{"x":0.0027095067780464888,"y":-0.022531399503350258,"z":-2.008272886276245},"angular_velocity":{"x":-5.179205417633057,"y":2.2222490310668945,"z":0.21223808825016022},"acceleration":{"x":0.05419013649225235,"y":-0.45062798261642456,"z":18.634538650512695},"speed_mps":2.0084011031521767,"speed_kph":7.230243971347837,"speed_limit_kph":30.0,"collisions_this_frame":[],"waypoint":{"x":-87.62350463867188,"y":12.940515518188477,"z":0.0},"lane_deviation_m":0.026376251131296158,"lane_width":3.5,"goal":{"x":102.31767272949219,"y":80.41472625732422,"z":0.5999999642372131},"fault":{"name":"degraded_brake_pads","severity":1.0},"capture_flags":{"save_rgb":true,"save_depth":false,"video_rgb":true,"video_depth":false}}
{"frame":46,"timestamp":{"delta_seconds":0.05000000074505806,"elapsed_seconds":4.064655929803848},"control":{"throttle":0.75,"steer":0.0,"brake":0.0,"hand_brake":false,"reverse":false,"manual_gear_shift":false,"gear":0},"transform":{"location":{"x":-87.62406921386719,"y":12.96351146697998,"z":-0.04846011847257614},"rotation":{"pitch":0.15083788335323334,"yaw":-179.8032989501953,"roll":-0.33303821086883545}},"velocity":{"x":-0.0006389307673089206,"y":-0.006589831784367561,"z":-0.7027705311775208},"angular_velocity":{"x":-1.4378985166549683,"y":1.0056092739105225,"z":-0.048369329422712326},"acceleration":{"x":-0.06696875393390656,"y":0.31883135437965393,"z":26.110048294067383},"speed_mps":0.702801717134361,"speed_kph":2.5300861816837,"speed_limit_kph":30.0,"collisions_this_frame":[],"waypoint":{"x":-87.62400817871094,"y":12.940513610839844,"z":0.0},"lane_deviation_m":0.05364036187529564,"lane_width":3.5,"goal":{"x":102.31767272949219,"y":80.41472625732422,"z":0.5999999642372131},"fault":{"name":"degraded_brake_pads","severity":1.0},"capture_flags":{"save_rgb":true,"save_depth":false,"video_rgb":true,"video_depth":false}}
{"frame":47,"timestamp":{"delta_seconds":0.05000000074505806,"elapsed_seconds":4.114655930548906},"control":{"throttle":0.75,"steer":0.0,"brake":0.0,"hand_brake":false,"reverse":false,"manual_gear_shift":false,"gear":0},"transform":{"location":{"x":-87.62419128417969,"y":12.963289260864258,"z":-0.06371334195137024},"rotation":{"pitch":0.17248958349227905,"yaw":-179.8021240234375,"roll":-0.34954833984375}},"velocity":{"x":0.0011277806479483843,"y":-0.00022247667948249727,"z":-0.1011342778801918},"angular_velocity":{"x":0.21106195449829102,"y":0.11070902645587921,"z":0.06372814625501633},"acceleration":{"x":0.035334229469299316,"y":0.12734709680080414,"z":12.032724380493164},"speed_mps":0.10114081049413562,"speed_kph":0.36410691777888826,"speed_limit_kph":30.0,"collisions_this_frame":[],"waypoint":{"x":-87.62413024902344,"y":12.940513610839844,"z":0.0},"lane_deviation_m":0.0676618367433548,"lane_width":3.5,"goal":{"x":102.31767272949219,"y":80.41472625732422,"z":0.5999999642372131},"fault":{"name":"degraded_brake_pads","severity":1.0},"capture_flags":{"save_rgb":true,"save_depth":false,"video_rgb":true,"video_depth":false}}
{"frame":48,"timestamp":{"delta_seconds":0.05000000074505806,"elapsed_seconds":4.164655931293964},"control":{"throttle":0.75,"steer":0.0,"brake":0.0,"hand_brake":false,"reverse":false,"manual_gear_shift":false,"gear":0},"transform":{"location":{"x":-87.62409973144531,"y":12.96371078491211,"z":-0.06023666262626648},"rotation":{"pitch":0.15232686698436737,"yaw":-179.80409240722656,"roll":-0.29660025238990784}},"velocity":{"x":-0.001690506935119629,"y":0.0026213484816253185,"z":0.14474524557590485},"angular_velocity":{"x":1.149038314819336,"y":-0.4998834431171417,"z":-0.0935584306716919},"acceleration":{"x":-0.05636575073003769,"y":0.05687650293111801,"z":4.917590618133545},"speed_mps":0.1447788499691471,"speed_kph":0.5212038598889296,"speed_limit_kph":30.0,"collisions_this_frame":[],"waypoint":{"x":-87.62403869628906,"y":12.940513610839844,"z":0.0},"lane_deviation_m":0.06454896181821823,"lane_width":3.5,"goal":{"x":102.31767272949219,"y":80.41472625732422,"z":0.5999999642372131},"fault":{"name":"degraded_brake_pads","severity":1.0},"capture_flags":{"save_rgb":true,"save_depth":false,"video_rgb":true,"video_depth":false}}
{"frame":49,"timestamp":{"delta_seconds":0.05000000074505806,"elapsed_seconds":4.2146559320390224},"control":{"throttle":0.75,"steer":0.0,"brake":0.0,"hand_brake":false,"reverse":false,"manual_gear_shift":false,"gear":0},"transform":{"location":{"x":-87.62395477294922,"y":12.964290618896484,"z":-0.050149381160736084},"rotation":{"pitch":0.12685710191726685,"yaw":-179.8055877685547,"roll":-0.245391845703125}},"velocity":{"x":5.244612566457363e-06,"y":0.005225048400461674,"z":0.2200310230255127},"angular_velocity":{"x":0.9269015789031982,"y":-0.49148479104042053,"z":-6.928906077519059e-05},"acceleration":{"x":0.03391503170132637,"y":0.05207400023937225,"z":1.5057156085968018},"speed_mps":0.22009305362038764,"speed_kph":0.7923349930333955,"speed_limit_kph":30.0,"collisions_this_frame":[],"waypoint":{"x":-87.62389373779297,"y":12.940513610839844,"z":0.0},"lane_deviation_m":0.05550054460763931,"lane_width":3.5,"goal":{"x":102.31767272949219,"y":80.41472625732422,"z":0.5999999642372131},"fault":{"name":"degraded_brake_pads","severity":1.0},"capture_flags":{"save_rgb":true,"save_depth":false,"video_rgb":true,"video_depth":false}}
{"frame":50,"timestamp":{"delta_seconds":0.05000000074505806,"elapsed_seconds":4.2646559327840805},"control":{"throttle":0.75,"steer":0.0,"brake":0.0,"hand_brake":false,"reverse":false,"manual_gear_shift":false,"gear":0},"transform":{"location":{"x":-87.62382507324219,"y":12.964905738830566,"z":-0.03888813033699989},"rotation":{"pitch":0.10226842015981674,"yaw":-179.80819702148438,"roll":-0.1998290717601776}},"velocity":{"x":-0.001454890938475728,"y":0.0064743999391794205,"z":0.21779030561447144},"angular_velocity":{"x":0.8898360133171082,"y":-0.47551146149635315,"z":-0.08678608387708664},"acceleration":{"x":-0.029202710837125778,"y":0.024987030774354935,"z":-0.044814348220825195},"speed_mps":0.2178913761071332,"speed_kph":0.7844089539856794,"speed_limit_kph":30.0,"collisions_this_frame":[],"waypoint":{"x":-87.62376403808594,"y":12.940513610839844,"z":0.0},"lane_deviation_m":0.0459049716591835,"lane_width":3.5,"goal":{"x":102.31767272949219,"y":80.41472625732422,"z":0.5999999642372131},"fault":{"name":"degraded_brake_pads","severity":1.0},"capture_flags":{"save_rgb":true,"save_depth":false,"video_rgb":true,"video_depth":false}}
{"frame":51,"timestamp":{"delta_seconds":0.05000000074505806,"elapsed_seconds":4.314655933529139},"control":{"throttle":0.75,"steer":0.0,"brake":0.0,"hand_brake":false,"reverse":false,"manual_gear_shift":false,"gear":0},"transform":{"location":{"x":-87.6353988647461,"y":12.965546607971191,"z":-0.02891639620065689},"rotation":{"pitch":0.08981698006391525,"yaw":-179.81588745117188,"roll":-0.1486816257238388}},"velocity":{"x":-0.5586385726928711,"y":0.005193727556616068,"z":0.1845855712890625},"angular_velocity":{"x":0.7965388894081116,"y":0.13306739926338196,"z":0.09199506789445877},"acceleration":{"x":-11.14367389678955,"y":-0.02561344765126705,"z":-0.6640946865081787},"speed_mps":0.5883671156976485,"speed_kph":2.1181216165115346,"speed_limit_kph":30.0,"collisions_this_frame":[],"waypoint":{"x":-87.63533020019531,"y":12.940483093261719,"z":0.0},"lane_deviation_m":0.038266729563474655,"lane_width":3.5,"goal":{"x":102.31767272949219,"y":80.41472625732422,"z":0.5999999642372131},"fault":{"name":"degraded_brake_pads","severity":1.0},"capture_flags":{"save_rgb":true,"save_depth":false,"video_rgb":true,"video_depth":false}}
{"frame":52,"timestamp":{"delta_seconds":0.05000000074505806,"elapsed_seconds":4.364655934274197},"control":{"throttle":0.75,"steer":0.0,"brake":0.0,"hand_brake":false,"reverse":false,"manual_gear_shift":false,"gear":0},"transform":{"location":{"x":-87.68722534179688,"y":12.965476989746094,"z":-0.02046249434351921},"rotation":{"pitch":0.1298418939113617,"yaw":-179.82127380371094,"roll":-0.1773376166820526}},"velocity":{"x":-1.3169410228729248,"y":0.0038132392801344395,"z":0.17031094431877136},"angular_velocity":{"x":-1.7949984073638916,"y":1.3242930173873901,"z":-0.05425053462386131},"acceleration":{"x":-15.166049003601074,"y":-0.02760976552963257,"z":-0.28549253940582275},"speed_mps":1.327913406918593,"speed_kph":4.780488264906935,"speed_limit_kph":30.0,"collisions_this_frame":[],"waypoint":{"x":-87.6871566772461,"y":12.940338134765625,"z":0.0},"lane_deviation_m":0.03241420164704323,"lane_width":3.5,"goal":{"x":102.31767272949219,"y":80.41472625732422,"z":0.5999999642372131},"fault":{"name":"degraded_brake_pads","severity":1.0},"capture_flags":{"save_rgb":true,"save_depth":false,"video_rgb":true,"video_depth":false}}
{"frame":53,"timestamp":{"delta_seconds":0.05000000074505806,"elapsed_seconds":4.414655935019255},"control":{"throttle":0.75,"steer":0.03420296311378479,"brake":0.0,"hand_brake":false,"reverse":false,"manual_gear_shift":false,"gear":0},"transform":{"location":{"x":-87.76911163330078,"y":12.964442253112793,"z":-0.01334533654153347},"rotation":{"pitch":0.18252313137054443,"yaw":-179.76907348632812,"roll":-0.2379760444164276}},"velocity":{"x":-1.851296305656433,"y":-0.02723420038819313,"z":0.12585340440273285},"angular_velocity":{"x":-0.025775905698537827,"y":0.570603609085083,"z":0.9895894527435303},"acceleration":{"x":-10.687105178833008,"y":-0.6209487915039062,"z":-0.8891507983207703},"speed_mps":1.8557690568623293,"speed_kph":6.680768604704386,"speed_limit_kph":30.0,"collisions_this_frame":[],"waypoint":{"x":-87.76905059814453,"y":12.94011116027832,"z":0.0},"lane_deviation_m":0.027750743553042412,"lane_width":3.5,"goal":{"x":102.31767272949219,"y":80.41472625732422,"z":0.5999999642372131},"fault":{"name":"degraded_brake_pads","severity":1.0},"capture_flags":{"save_rgb":true,"save_depth":false,"video_rgb":true,"video_depth":false}}
{"frame":54,"timestamp":{"delta_seconds":0.05000000074505806,"elapsed_seconds":4.464655935764313},"control":{"throttle":0.75,"steer":0.03420296311378479,"brake":0.0,"hand_brake":false,"reverse":false,"manual_gear_shift":false,"gear":0},"transform":{"location":{"x":-87.8747329711914,"y":12.962726593017578,"z":-0.00828784890472889},"rotation":{"pitch":0.19741295278072357,"yaw":-179.7092742919922,"roll":-0.2351989895105362}},"velocity":{"x":-2.26715350151062,"y":-0.04896872863173485,"z":0.09667202085256577},"angular_velocity":{"x":-0.8179963827133179,"y":0.4888218343257904,"z":1.9042024612426758},"acceleration":{"x":-8.317144393920898,"y":-0.43469056487083435,"z":-0.5836277008056641},"speed_mps":2.269741927050605,"speed_kph":8.171070937382177,"speed_limit_kph":30.0,"collisions_this_frame":[],"waypoint":{"x":-87.87467193603516,"y":12.939817428588867,"z":0.0},"lane_deviation_m":0.02436230704188347,"lane_width":3.5,"goal":{"x":102.31767272949219,"y":80.41472625732422,"z":0.5999999642372131},"fault":{"name":"degraded_brake_pads","severity":1.0},"capture_flags":{"save_rgb":true,"save_depth":false,"video_rgb":true,"video_depth":false}}
{"frame":55,"timestamp":{"delta_seconds":0.05000000074505806,"elapsed_seconds":4.514655936509371},"control":{"throttle":0.75,"steer":0.012564278207719326,"brake":0.0,"hand_brake":false,"reverse":false,"manual_gear_shift":false,"gear":0},"transform":{"location":{"x":-87.99832153320312,"y":12.960846900939941,"z":-0.0043234252370893955},"rotation":{"pitch":0.21488456428050995,"yaw":-179.66867065429688,"roll":-0.261871337890625}},"velocity":{"x":-2.5905590057373047,"y":-0.03645411506295204,"z":0.07035289704799652},"angular_velocity":{"x":-0.210285484790802,"y":0.18790796399116516,"z":0.1972721815109253},"acceleration":{"x":-6.468110084533691,"y":0.25029227137565613,"z":-0.5263824462890625},"speed_mps":2.5917705135360114,"speed_kph":9.330373848729641,"speed_limit_kph":30.0,"collisions_this_frame":[],"waypoint":{"x":-87.9982681274414,"y":12.939474105834961,"z":0.0},"lane_deviation_m":0.021805761381983757,"lane_width":3.5,"goal":{"x":102.31767272949219,"y":80.41472625732422,"z":0.5999999642372131},"fault":{"name":"degraded_brake_pads","severity":1.0},"capture_flags":{"save_rgb":true,"save_depth":false,"video_rgb":true,"video_depth":false}}
{"frame":56,"timestamp":{"delta_seconds":0.05000000074505806,"elapsed_seconds":4.564655937254429},"control":{"throttle":0.75,"steer":0.012564278207719326,"brake":0.0,"hand_brake":false,"reverse":false,"manual_gear_shift":false,"gear":0},"transform":{"location":{"x":-88.13623809814453,"y":12.959844589233398,"z":-0.0023934172932058573},"rotation":{"pitch":0.1660623848438263,"yaw":-179.6258087158203,"roll":-0.1320495307445526}},"velocity":{"x":-2.890462636947632,"y":-0.06538607180118561,"z":-0.008989829570055008},"angular_velocity":{"x":5.764307975769043,"y":-2.3563716411590576,"z":0.8379845023155212},"acceleration":{"x":-5.998072624206543,"y":-0.5786391496658325,"z":-1.5868544578552246},"speed_mps":2.891216078229288,"speed_kph":10.408377881625437,"speed_limit_kph":30.0,"collisions_this_frame":[],"waypoint":{"x":-88.13618469238281,"y":12.939090728759766,"z":0.0},"lane_deviation_m":0.020891482010483742,"lane_width":3.5,"goal":{"x":102.31767272949219,"y":80.41472625732422,"z":0.5999999642372131},"fault":{"name":"degraded_brake_pads","severity":1.0},"capture_flags":{"save_rgb":true,"save_depth":false,"video_rgb":true,"video_depth":false}}
{"frame":57,"timestamp":{"delta_seconds":0.05000000074505806,"elapsed_seconds":4.614655937999487},"control":{"throttle":0.75,"steer":0.024093495681881905,"brake":0.0,"hand_brake":false,"reverse":false,"manual_gear_shift":false,"gear":0},"transform":{"location":{"x":-88.28810119628906,"y":12.95691967010498,"z":-0.0019508743425831199},"rotation":{"pitch":0.09896260499954224,"yaw":-179.55734252929688,"roll":-0.012634276412427425}},"velocity":{"x":-3.153197765350342,"y":-0.08613668382167816,"z":0.005874290131032467},"angular_velocity":{"x":1.1293470859527588,"y":-0.8371210694313049,"z":1.5663824081420898},"acceleration":{"x":-5.254702568054199,"y":-0.4150122404098511,"z":0.2972823977470398},"speed_mps":3.1543795242479504,"speed_kph":11.355766287292623,"speed_limit_kph":30.0,"collisions_this_frame":[],"waypoint":{"x":-88.28805541992188,"y":12.938669204711914,"z":0.0},"lane_deviation_m":0.018354495987296104,"lane_width":3.5,"goal":{"x":102.31767272949219,"y":80.41472625732422,"z":0.5999999642372131},"fault":{"name":"degraded_brake_pads","severity":1.0},"capture_flags":{"save_rgb":true,"save_depth":false,"video_rgb":true,"video_depth":false}}
{"frame":58,"timestamp":{"delta_seconds":0.05000000074505806,"elapsed_seconds":4.664655938744545},"control":{"throttle":0.75,"steer":0.024093495681881905,"brake":0.0,"hand_brake":false,"reverse":false,"manual_gear_shift":false,"gear":0},"transform":{"location":{"x":-88.45394134521484,"y":12.953252792358398,"z":-0.0013455962762236595},"rotation":{"pitch":0.0760541558265686,"yaw":-179.4713592529297,"roll":0.009471684694290161}},"velocity":{"x":-3.4319982528686523,"y":-0.08765576779842377,"z":0.010909861885011196},"angular_velocity":{"x":0.17620262503623962,"y":-0.2732011079788208,"z":1.792947769165039},"acceleration":{"x":-5.576009750366211,"y":-0.03038167953491211,"z":0.10071143507957458},"speed_mps":3.433134801665697,"speed_kph":12.359285285996508,"speed_limit_kph":30.0,"collisions_this_frame":[],"waypoint":{"x":-88.45390319824219,"y":12.938207626342773,"z":0.0},"lane_deviation_m":0.015105267986655235,"lane_width":3.5,"goal":{"x":102.31767272949219,"y":80.41472625732422,"z":0.5999999642372131},"fault":{"name":"degraded_brake_pads","severity":1.0},"capture_flags":{"save_rgb":true,"save_depth":false,"video_rgb":true,"video_depth":false}}
{"frame":59,"timestamp":{"delta_seconds":0.05000000074505806,"elapsed_seconds":4.714655939489603},"control":{"throttle":0.75,"steer":0.022600451484322548,"brake":0.0,"hand_brake":false,"reverse":false,"manual_gear_shift":false,"gear":0},"transform":{"location":{"x":-88.63338470458984,"y":12.949318885803223,"z":-0.0007310103974305093},"rotation":{"pitch":0.06863656640052795,"yaw":-179.3816680908203,"roll":0.011180991306900978}},"velocity":{"x":-3.6935689449310303,"y":-0.09198295325040817,"z":0.011384973302483559},"angular_velocity":{"x":-0.0231985654681921,"y":-0.09189191460609436,"z":1.8296641111373901},"acceleration":{"x":-5.231413841247559,"y":-0.08654370903968811,"z":0.00950222834944725},"speed_mps":3.694731659033534,"speed_kph":13.301033972520722,"speed_limit_kph":30.0,"collisions_this_frame":[],"waypoint":{"x":-88.63335418701172,"y":12.93770980834961,"z":0.0},"lane_deviation_m":0.011632109992206097,"lane_width":3.5,"goal":{"x":102.31767272949219,"y":80.41472625732422,"z":0.5999999642372131},"fault":{"name":"degraded_brake_pads","severity":1.0},"capture_flags":{"save_rgb":true,"save_depth":false,"video_rgb":true,"video_depth":false}}
{"frame":60,"timestamp":{"delta_seconds":0.05000000074505806,"elapsed_seconds":4.764655940234661},"control":{"throttle":0.75,"steer":0.022600451484322548,"brake":0.0,"hand_brake":false,"reverse":false,"manual_gear_shift":false,"gear":0},"transform":{"location":{"x":-88.82566833496094,"y":12.944952964782715,"z":-0.000184288015589118},"rotation":{"pitch":0.06606841832399368,"yaw":-179.2877197265625,"roll":0.00840110331773758}},"velocity":{"x":-3.9453649520874023,"y":-0.10222844779491425,"z":0.009992370381951332},"angular_velocity":{"x":-0.0655965656042099,"y":-0.03635028377175331,"z":1.9169812202453613},"acceleration":{"x":-5.035920143127441,"y":-0.20490989089012146,"z":-0.02785205841064453},"speed_mps":3.946701801272049,"speed_kph":14.208126484579378,"speed_limit_kph":30.0,"collisions_this_frame":[],"waypoint":{"x":-88.82559967041016,"y":12.937173843383789,"z":0.0},"lane_deviation_m":0.007781606633216143,"lane_width":3.5,"goal":{"x":102.31767272949219,"y":80.41472625732422,"z":0.5999999642372131},"fault":{"name":"degraded_brake_pads","severity":1.0},"capture_flags":{"save_rgb":true,"save_depth":false,"video_rgb":true,"video_depth":false}}
{"frame":61,"timestamp":{"delta_seconds":0.05000000074505806,"elapsed_seconds":4.814655940979719},"control":{"throttle":0.75,"steer":0.012978190556168556,"brake":0.0,"hand_brake":false,"reverse":false,"manual_gear_shift":false,"gear":0},"transform":{"location":{"x":-89.03018951416016,"y":12.940619468688965,"z":0.0002655029238667339},"rotation":{"pitch":0.06470920890569687,"yaw":-179.2160186767578,"roll":0.007603687699884176}},"velocity":{"x":-4.185722827911377,"y":-0.09382534772157669,"z":0.008057556115090847},"angular_velocity":{"x":-0.01766553334891796,"y":-0.023872556164860725,"z":1.2840096950531006},"acceleration":{"x":-4.807157516479492,"y":0.1680620014667511,"z":-0.0386962853372097},"speed_mps":4.186782023485822,"speed_kph":15.07241528454896,"speed_limit_kph":30.0,"collisions_this_frame":[],"waypoint":{"x":-89.03015899658203,"y":12.936605453491211,"z":0.0},"lane_deviation_m":0.004022901877760887,"lane_width":3.5,"goal":{"x":102.31767272949219,"y":80.41472625732422,"z":0.5999999642372131},"fault":{"name":"degraded_brake_pads","severity":1.0},"capture_flags":{"save_rgb":true,"save_depth":false,"video_rgb":true,"video_depth":false}}
{"frame":62,"timestamp":{"delta_seconds":0.05000000074505806,"elapsed_seconds":4.864655941724777},"control":{"throttle":0.75,"steer":0.012978190556168556,"brake":0.0,"hand_brake":false,"reverse":false,"manual_gear_shift":false,"gear":0},"transform":{"location":{"x":-89.24649047851562,"y":12.93613338470459,"z":0.0006176376482471824},"rotation":{"pitch":0.06359589099884033,"yaw":-179.15365600585938,"roll":0.005988602992147207}},"velocity":{"x":-4.419070243835449,"y":-0.09949036687612534,"z":0.006176805589348078},"angular_velocity":{"x":-0.03916933014988899,"y":-0.022598963230848312,"z":1.246781826019287},"acceleration":{"x":-4.666948318481445,"y":-0.1133003830909729,"z":-0.037615008652210236},"speed_mps":4.420194374230655,"speed_kph":15.912699747230358,"speed_limit_kph":30.0,"collisions_this_frame":[],"waypoint":{"x":-89.2464828491211,"y":12.936004638671875,"z":0.0},"lane_deviation_m":0.0006309595773927867,"lane_width":3.5,"goal":{"x":102.31767272949219,"y":80.41472625732422,"z":0.5999999642372131},"fault":{"name":"degraded_brake_pads","severity":1.0},"capture_flags":{"save_rgb":true,"save_depth":false,"video_rgb":true,"video_depth":false}}
{"frame":63,"timestamp":{"delta_seconds":0.05000000074505806,"elapsed_seconds":4.914655942469835},"control":{"throttle":0.75,"steer":0.05243299901485443,"brake":0.0,"hand_brake":false,"reverse":false,"manual_gear_shift":false,"gear":0},"transform":{"location":{"x":-89.47412872314453,"y":12.929030418395996,"z":0.0008844375261105597},"rotation":{"pitch":0.0623801127076149,"yaw":-178.982177734375,"roll":-0.00640869140625}},"velocity":{"x":-4.6420369148254395,"y":-0.19373977184295654,"z":0.004575996194034815},"angular_velocity":{"x":-0.259581595659256,"y":-0.028908049687743187,"z":4.433033466339111},"acceleration":{"x":-4.459333419799805,"y":-1.8849880695343018,"z":-0.03201618790626526},"speed_mps":4.646080364946028,"speed_kph":16.7258893138057,"speed_limit_kph":30.0,"collisions_this_frame":[],"waypoint":{"x":-89.47417449951172,"y":12.935371398925781,"z":0.0},"lane_deviation_m":0.0064025274477899075,"lane_width":3.5,"goal":{"x":102.31767272949219,"y":80.41472625732422,"z":0.5999999642372131},"fault":{"name":"degraded_brake_pads","severity":1.0},"capture_flags":{"save_rgb":true,"save_depth":false,"video_rgb":true,"video_depth":false}}
{"frame":64,"timestamp":{"delta_seconds":0.05000000074505806,"elapsed_seconds":4.964655943214893},"control":{"throttle":0.75,"steer":0.05243299901485443,"brake":0.0,"hand_brake":false,"reverse":false,"manual_gear_shift":false,"gear":0},"transform":{"location":{"x":-89.71294403076172,"y":12.919184684753418,"z":0.0010806656209751964},"rotation":{"pitch":0.06123264133930206,"yaw":-178.73240661621094,"roll":-0.015258788131177425}},"velocity":{"x":-4.86505126953125,"y":-0.24285447597503662,"z":0.0033084964379668236},"angular_velocity":{"x":-0.12523263692855835,"y":-0.024365467950701714,"z":5.2401556968688965},"acceleration":{"x":-4.460287094116211,"y":-0.9822940826416016,"z":-0.025349995121359825},"speed_mps":4.871110047804034,"speed_kph":17.535996172094524,"speed_limit_kph":30.0,"collisions_this_frame":[],"waypoint":{"x":-89.71308898925781,"y":12.934707641601562,"z":0.0},"lane_deviation_m":0.015561203472316265,"lane_width":3.5,"goal":{"x":102.31767272949219,"y":80.41472625732422,"z":0.5999999642372131},"fault":{"name":"degraded_brake_pads","severity":1.0},"capture_flags":{"save_rgb":true,"save_depth":false,"video_rgb":true,"video_depth":false}}
{"frame":65,"timestamp":{"delta_seconds":0.05000000074505806,"elapsed_seconds":5.014655943959951},"control":{"throttle":0.5412314534187317,"steer":0.04039434343576431,"brake":0.0,"hand_brake":false,"reverse":false,"manual_gear_shift":false,"gear":0},"transform":{"location":{"x":-89.96259307861328,"y":12.908223152160645,"z":0.0012985611101612449},"rotation":{"pitch":0.05979830399155617,"yaw":-178.49801635742188,"roll":-0.01562500186264515}},"velocity":{"x":-5.071777820587158,"y":-0.2524672746658325,"z":0.009747514501214027},"angular_velocity":{"x":0.019328245893120766,"y":-0.04163730517029762,"z":4.497950553894043},"acceleration":{"x":-4.134531021118164,"y":-0.19225597381591797,"z":0.12878036499023438},"speed_mps":5.078067053536805,"speed_kph":18.281041392732497,"speed_limit_kph":30.0,"collisions_this_frame":[],"waypoint":{"x":-89.96284484863281,"y":12.934013366699219,"z":0.0},"lane_deviation_m":0.025824112817645073,"lane_width":3.5,"goal":{"x":102.31767272949219,"y":80.41472625732422,"z":0.5999999642372131},"fault":{"name":"degraded_brake_pads","severity":1.0},"capture_flags":{"save_rgb":true,"save_depth":false,"video_rgb":true,"video_depth":false}}
{"frame":66,"timestamp":{"delta_seconds":0.05000000074505806,"elapsed_seconds":5.0646559447050095},"control":{"throttle":0.5412314534187317,"steer":0.04039434343576431,"brake":0.0,"hand_brake":false,"reverse":false,"manual_gear_shift":false,"gear":0},"transform":{"location":{"x":-90.2213134765625,"y":12.896255493164062,"z":0.0016173172043636441},"rotation":{"pitch":0.05675886943936348,"yaw":-178.2738494873047,"roll":-0.015228271484375}},"velocity":{"x":-5.23551607131958,"y":-0.27553626894950867,"z":0.004101057071238756},"angular_velocity":{"x":-0.001669535064138472,"y":-0.07818431407213211,"z":4.64462423324585},"acceleration":{"x":-3.2747650146484375,"y":-0.46137988567352295,"z":-0.11292915046215057},"speed_mps":5.242763163373044,"speed_kph":18.87394738814296,"speed_limit_kph":30.0,"collisions_this_frame":[],"waypoint":{"x":-90.22168731689453,"y":12.933294296264648,"z":0.0},"lane_deviation_m":0.03707598149776459,"lane_width":3.5,"goal":{"x":102.31767272949219,"y":80.41472625732422,"z":0.5999999642372131},"fault":{"name":"degraded_brake_pads","severity":1.0},"capture_flags":{"save_rgb":true,"save_depth":false,"video_rgb":true,"video_depth":false}}
{"frame":67,"timestamp":{"delta_seconds":0.05000000074505806,"elapsed_seconds":5.1146559454500675},"control":{"throttle":0.10663457959890366,"steer":0.06964627653360367,"brake":0.0,"hand_brake":false,"reverse":false,"manual_gear_shift":false,"gear":0},"transform":{"location":{"x":-90.48271942138672,"y":12.88191032409668,"z":0.001793556148186326},"rotation":{"pitch":0.04704634100198746,"yaw":-177.97235107421875,"roll":-0.021820062771439552}},"velocity":{"x":-5.1925787925720215,"y":-0.3357054889202118,"z":0.0015134429559111595},"angular_velocity":{"x":-0.04920443892478943,"y":-0.2740621268749237,"z":6.4956955909729},"acceleration":{"x":0.8587455749511719,"y":-1.2033843994140625,"z":-0.05175228416919708},"speed_mps":5.203419547073775,"speed_kph":18.73231036946559,"speed_limit_kph":30.0,"collisions_this_frame":[],"waypoint":{"x":-90.48324584960938,"y":12.932567596435547,"z":0.0},"lane_deviation_m":0.050691746175289154,"lane_width":3.5,"goal":{"x":102.31767272949219,"y":80.41472625732422,"z":0.5999999642372131},"fault":{"name":"degraded_brake_pads","severity":1.0},"capture_flags":{"save_rgb":true,"save_depth":false,"video_rgb":true,"video_depth":false}}
{"frame":68,"timestamp":{"delta_seconds":0.05000000074505806,"elapsed_seconds":5.164655946195126},"control":{"throttle":0.10663457959890366,"steer":0.06964627653360367,"brake":0.0,"hand_brake":false,"reverse":false,"manual_gear_shift":false,"gear":0},"transform":{"location":{"x":-90.74127960205078,"y":12.865617752075195,"z":0.0019080352503806353},"rotation":{"pitch":0.03395969793200493,"yaw":-177.6148223876953,"roll":-0.025756830349564552}},"velocity":{"x":-5.1563897132873535,"y":-0.3869207203388214,"z":0.0003794479416683316},"angular_velocity":{"x":-0.08510354906320572,"y":-0.24489399790763855,"z":7.491378307342529},"acceleration":{"x":0.7237815856933594,"y":-1.0243046283721924,"z":-0.022679900750517845},"speed_mps":5.170886061701988,"speed_kph":18.615189822127157,"speed_limit_kph":30.0,"collisions_this_frame":[],"waypoint":{"x":-90.72615051269531,"y":12.914224624633789,"z":0.0},"lane_deviation_m":0.050942692905664444,"lane_width":3.5,"goal":{"x":102.31767272949219,"y":80.41472625732422,"z":0.5999999642372131},"fault":{"name":"degraded_brake_pads","severity":1.0},"capture_flags":{"save_rgb":true,"save_depth":false,"video_rgb":true,"video_depth":false}}
{"frame":69,"timestamp":{"delta_seconds":0.05000000074505806,"elapsed_seconds":5.214655946940184},"control":{"throttle":0.10663457959890366,"steer":0.07721981406211853,"brake":0.0,"hand_brake":false,"reverse":false,"manual_gear_shift":false,"gear":0},"transform":{"location":{"x":-90.99715423583984,"y":12.846877098083496,"z":0.004679488949477673},"rotation":{"pitch":-0.08655215054750443,"yaw":-177.22512817382812,"roll":-0.2161864936351776}},"velocity":{"x":-5.086300373077393,"y":-0.40297770500183105,"z":0.028512315824627876},"angular_velocity":{"x":-1.4545665979385376,"y":-1.5542750358581543,"z":8.183194160461426},"acceleration":{"x":1.4017868041992188,"y":-0.32113969326019287,"z":0.562657356262207},"speed_mps":5.102318636468076,"speed_kph":18.368347091285074,"speed_limit_kph":30.0,"collisions_this_frame":[],"waypoint":{"x":-90.95417022705078,"y":12.900373458862305,"z":0.0},"lane_deviation_m":0.06878505647182465,"lane_width":3.5,"goal":{"x":102.31767272949219,"y":80.41472625732422,"z":0.5999999642372131},"fault":{"name":"degraded_brake_pads","severity":1.0},"capture_flags":{"save_rgb":true,"save_depth":false,"video_rgb":true,"video_depth":false}}
{"frame":70,"timestamp":{"delta_seconds":0.05000000074505806,"elapsed_seconds":5.264655947685242},"control":{"throttle":0.10663457959890366,"steer":0.07721981406211853,"brake":0.0,"hand_brake":false,"reverse":false,"manual_gear_shift":false,"gear":0},"transform":{"location":{"x":-91.25192260742188,"y":12.82796859741211,"z":0.0044516753405332565},"rotation":{"pitch":-0.06335683166980743,"yaw":-176.80636596679688,"roll":-0.11868283897638321}},"velocity":{"x":-5.101826190948486,"y":-0.47554999589920044,"z":-0.03845783695578575},"angular_velocity":{"x":5.0110907554626465,"y":2.833202838897705,"z":6.796172618865967},"acceleration":{"x":-0.310516357421875,"y":-1.4514458179473877,"z":-1.3394031524658203},"speed_mps":5.124085995225976,"speed_kph":18.446709582813515,"speed_limit_kph":30.0,"collisions_this_frame":[],"waypoint":{"x":-91.18096923828125,"y":12.882942199707031,"z":0.0},"lane_deviation_m":0.0898682102560997,"lane_width":3.5,"goal":{"x":102.31767272949219,"y":80.41472625732422,"z":0.5999999642372131},"fault":{"name":"degraded_brake_pads","severity":1.0},"capture_flags":{"save_rgb":true,"save_depth":false,"video_rgb":true,"video_depth":false}}
{"frame":71,"timestamp":{"delta_seconds":0.05000000074505806,"elapsed_seconds":5.3146559484303},"control":{"throttle":0.10663457959890366,"steer":0.07276522368192673,"brake":0.0,"hand_brake":false,"reverse":false,"manual_gear_shift":false,"gear":0},"transform":{"location":{"x":-91.50384521484375,"y":12.806079864501953,"z":0.0028771590441465378},"rotation":{"pitch":-0.008244037628173828,"yaw":-176.38363647460938,"roll":-0.0392761193215847}},"velocity":{"x":-5.030182361602783,"y":-0.5173103213310242,"z":-0.017221031710505486},"angular_velocity":{"x":0.568385899066925,"y":0.6511551737785339,"z":7.990304946899414},"acceleration":{"x":1.4328765869140625,"y":-0.8352065086364746,"z":0.4247361123561859},"speed_mps":5.056742145242185,"speed_kph":18.204271722871866,"speed_limit_kph":30.0,"collisions_this_frame":[],"waypoint":{"x":-91.50485229492188,"y":12.851702690124512,"z":0.0},"lane_deviation_m":0.045724548399448395,"lane_width":3.5,"goal":{"x":102.31767272949219,"y":80.41472625732422,"z":0.5999999642372131},"fault":{"name":"degraded_brake_pads","severity":1.0},"capture_flags":{"save_rgb":true,"save_depth":false,"video_rgb":true,"video_depth":false}}
{"frame":72,"timestamp":{"delta_seconds":0.05000000074505806,"elapsed_seconds":5.364655949175358},"control":{"throttle":0.10663457959890366,"steer":0.07276522368192673,"brake":0.0,"hand_brake":false,"reverse":false,"manual_gear_shift":false,"gear":0},"transform":{"location":{"x":-91.75322723388672,"y":12.78193473815918,"z":0.0022300719283521175},"rotation":{"pitch":0.002745735924690962,"yaw":-176.0087127685547,"roll":-0.028564445674419403}},"velocity":{"x":-4.982049465179443,"y":-0.5428509712219238,"z":-0.006592493038624525},"angular_velocity":{"x":0.06221551075577736,"y":0.11881265789270401,"z":7.113117218017578},"acceleration":{"x":0.9626579284667969,"y":-0.5108129978179932,"z":0.21257075667381287},"speed_mps":5.01154143067937,"speed_kph":18.041549150445732,"speed_limit_kph":30.0,"collisions_this_frame":[],"waypoint":{"x":-91.72628784179688,"y":12.826027870178223,"z":0.0},"lane_deviation_m":0.05171951651573181,"lane_width":3.5,"goal":{"x":102.31767272949219,"y":80.41472625732422,"z":0.5999999642372131},"fault":{"name":"degraded_brake_pads","severity":1.0},"capture_flags":{"save_rgb":true,"save_depth":false,"video_rgb":true,"video_depth":false}}
{"frame":73,"timestamp":{"delta_seconds":0.05000000074505806,"elapsed_seconds":5.414655949920416},"control":{"throttle":0.10663457959890366,"steer":0.07957451045513153,"brake":0.0,"hand_brake":false,"reverse":false,"manual_gear_shift":false,"gear":0},"transform":{"location":{"x":-92.00189208984375,"y":12.755520820617676,"z":0.0018767546862363815},"rotation":{"pitch":0.004132264293730259,"yaw":-175.63099670410156,"roll":-0.029357902705669403}},"velocity":{"x":-4.968605041503906,"y":-0.5913158655166626,"z":-0.006767062935978174},"angular_velocity":{"x":-0.03390001878142357,"y":0.0031503315549343824,"z":8.072826385498047},"acceleration":{"x":0.2688884735107422,"y":-0.9692978858947754,"z":-0.003491397947072983},"speed_mps":5.003672281875636,"speed_kph":18.013220214752288,"speed_limit_kph":30.0,"collisions_this_frame":[],"waypoint":{"x":-91.94692993164062,"y":12.796934127807617,"z":0.0},"lane_deviation_m":0.06884346902370453,"lane_width":3.5,"goal":{"x":102.31767272949219,"y":80.41472625732422,"z":0.5999999642372131},"fault":{"name":"degraded_brake_pads","severity":1.0},"capture_flags":{"save_rgb":true,"save_depth":false,"video_rgb":true,"video_depth":false}}
{"frame":74,"timestamp":{"delta_seconds":0.05000000074505806,"elapsed_seconds":5.464655950665474},"control":{"throttle":0.10663457959890366,"steer":0.07957451045513153,"brake":0.0,"hand_brake":false,"reverse":false,"manual_gear_shift":false,"gear":0},"transform":{"location":{"x":-92.2501449584961,"y":12.727087020874023,"z":0.0016850280808284879},"rotation":{"pitch":0.0034833962563425303,"yaw":-175.22213745117188,"roll":-0.030548090115189552}},"velocity":{"x":-4.952696800231934,"y":-0.6314983367919922,"z":-0.002429599640890956},"angular_velocity":{"x":-0.012041141279041767,"y":-0.026299884542822838,"z":8.203085899353027},"acceleration":{"x":0.3181648254394531,"y":-0.8036494255065918,"z":0.08674927055835724},"speed_mps":4.9927949734946155,"speed_kph":17.974061904580616,"speed_limit_kph":30.0,"collisions_this_frame":[],"waypoint":{"x":-92.1669692993164,"y":12.764408111572266,"z":0.0},"lane_deviation_m":0.09118055552244186,"lane_width":3.5,"goal":{"x":102.31767272949219,"y":80.41472625732422,"z":0.5999999642372131},"fault":{"name":"degraded_brake_pads","severity":1.0},"capture_flags":{"save_rgb":true,"save_depth":false,"video_rgb":true,"video_depth":false}}
{"frame":75,"timestamp":{"delta_seconds":0.05000000074505806,"elapsed_seconds":5.514655951410532},"control":{"throttle":0.17749065160751343,"steer":0.06074986234307289,"brake":0.0,"hand_brake":false,"reverse":false,"manual_gear_shift":false,"gear":0},"transform":{"location":{"x":-92.49727630615234,"y":12.69805908203125,"z":0.0016414260026067495},"rotation":{"pitch":0.0017895094351843,"yaw":-174.86990356445312,"roll":-0.02532958984375}},"velocity":{"x":-4.9286322593688965,"y":-0.6226492524147034,"z":-0.00037627218989655375},"angular_velocity":{"x":0.1085948720574379,"y":-0.02812277525663376,"z":6.613845348358154},"acceleration":{"x":0.4812908172607422,"y":0.17698168754577637,"z":0.041066549718379974},"speed_mps":4.967807180356853,"speed_kph":17.88410584928467,"speed_limit_kph":30.0,"collisions_this_frame":[],"waypoint":{"x":-92.48245239257812,"y":12.7116060256958,"z":0.0},"lane_deviation_m":0.02014850825071335,"lane_width":3.5,"goal":{"x":102.31767272949219,"y":80.41472625732422,"z":0.5999999642372131},"fault":{"name":"degraded_brake_pads","severity":1.0},"capture_flags":{"save_rgb":true,"save_depth":false,"video_rgb":true,"video_depth":false}}
{"frame":76,"timestamp":{"delta_seconds":0.05000000074505806,"elapsed_seconds":5.56465595215559},"control":{"throttle":0.17749065160751343,"steer":0.06074986234307289,"brake":0.0,"hand_brake":false,"reverse":false,"manual_gear_shift":false,"gear":0},"transform":{"location":{"x":-92.74296569824219,"y":12.668392181396484,"z":0.001662940951064229},"rotation":{"pitch":-0.00012294339830987155,"yaw":-174.55014038085938,"roll":-0.02194213680922985}},"velocity":{"x":-4.898467540740967,"y":-0.6381831169128418,"z":0.0004884719965048134},"angular_velocity":{"x":0.04813455790281296,"y":-0.03312310576438904,"z":6.310702323913574},"acceleration":{"x":0.6032943725585938,"y":-0.31067728996276855,"z":0.017294883728027344},"speed_mps":4.9398645909589805,"speed_kph":17.78351252745233,"speed_limit_kph":30.0,"collisions_this_frame":[],"waypoint":{"x":-92.69837951660156,"y":12.67124080657959,"z":0.0},"lane_deviation_m":0.044708024710416794,"lane_width":3.5,"goal":{"x":102.31767272949219,"y":80.41472625732422,"z":0.5999999642372131},"fault":{"name":"degraded_brake_pads","severity":1.0},"capture_flags":{"save_rgb":true,"save_depth":false,"video_rgb":true,"video_depth":false}}
{"frame":77,"timestamp":{"delta_seconds":0.05000000074505806,"elapsed_seconds":5.614655952900648},"control":{"throttle":0.4509725868701935,"steer":0.09719119220972061,"brake":0.0,"hand_brake":false,"reverse":false,"manual_gear_shift":false,"gear":0},"transform":{"location":{"x":-92.9869155883789,"y":12.635638236999512,"z":0.0017068099696189165},"rotation":{"pitch":-0.0017690189415588975,"yaw":-174.13674926757812,"roll":-0.030334465205669403}},"velocity":{"x":-4.8641791343688965,"y":-0.7382595539093018,"z":0.0007579516968689859},"angular_velocity":{"x":-0.18516074120998383,"y":-0.04129362851381302,"z":9.138137817382812},"acceleration":{"x":0.6857681274414062,"y":-2.001528739929199,"z":0.005389594007283449},"speed_mps":4.919884794856367,"speed_kph":17.711585261482924,"speed_limit_kph":30.0,"collisions_this_frame":[],"waypoint":{"x":-92.91270446777344,"y":12.627744674682617,"z":0.0},"lane_deviation_m":0.07464925944805145,"lane_width":3.5,"goal":{"x":102.31767272949219,"y":80.41472625732422,"z":0.5999999642372131},"fault":{"name":"degraded_brake_pads","severity":1.0},"capture_flags":{"save_rgb":true,"save_depth":false,"video_rgb":true,"video_depth":false}}
{"frame":78,"timestamp":{"delta_seconds":0.05000000074505806,"elapsed_seconds":5.664655953645706},"control":{"throttle":0.4509725868701935,"steer":0.09719119220972061,"brake":0.0,"hand_brake":false,"reverse":false,"manual_gear_shift":false,"gear":0},"transform":{"location":{"x":-93.23067474365234,"y":12.599526405334473,"z":0.0017441177042201161},"rotation":{"pitch":-0.0015299622900784016,"yaw":-173.6567840576172,"roll":-0.0364684984087944}},"velocity":{"x":-4.877687454223633,"y":-0.801203727722168,"z":0.000761489849537611},"angular_velocity":{"x":-0.08163438737392426,"y":0.013313333503901958,"z":9.784923553466797},"acceleration":{"x":-0.27016639709472656,"y":-1.2588834762573242,"z":7.076305337250233e-05},"speed_mps":4.94305198174906,"speed_kph":17.79498713429662,"speed_limit_kph":30.0,"collisions_this_frame":[],"waypoint":{"x":-93.21971893310547,"y":12.55942153930664,"z":0.0},"lane_deviation_m":0.0416109599173069,"lane_width":3.5,"goal":{"x":102.31767272949219,"y":80.41472625732422,"z":0.5999999642372131},"fault":{"name":"degraded_brake_pads","severity":1.0},"capture_flags":{"save_rgb":true,"save_depth":false,"video_rgb":true,"video_depth":false}}
{"frame":79,"timestamp":{"delta_seconds":0.05000000074505806,"elapsed_seconds":5.714655954390764},"control":{"throttle":0.4059666395187378,"steer":0.1161700114607811,"brake":0.0,"hand_brake":false,"reverse":false,"manual_gear_shift":false,"gear":0},"transform":{"location":{"x":-93.47563934326172,"y":12.559572219848633,"z":0.001768836984410882},"rotation":{"pitch":0.0002527169999666512,"yaw":-173.10523986816406,"roll":-0.0436096154153347}},"velocity":{"x":-4.904685974121094,"y":-0.896702766418457,"z":0.000657100637909025},"angular_velocity":{"x":-0.12539070844650269,"y":0.02885434217751026,"z":11.51800537109375},"acceleration":{"x":-0.5399703979492188,"y":-1.9099807739257812,"z":-0.002087784232571721},"speed_mps":4.985982429554275,"speed_kph":17.94953674639539,"speed_limit_kph":30.0,"collisions_this_frame":[],"waypoint":{"x":-93.43343353271484,"y":12.5076265335083,"z":0.0},"lane_deviation_m":0.06695381551980972,"lane_width":3.5,"goal":{"x":102.31767272949219,"y":80.41472625732422,"z":0.5999999642372131},"fault":{"name":"degraded_brake_pads","severity":1.0},"capture_flags":{"save_rgb":true,"save_depth":false,"video_rgb":true,"video_depth":false}}
{"frame":80,"timestamp":{"delta_seconds":0.05000000074505806,"elapsed_seconds":5.764655955135822},"control":{"throttle":0.4059666395187378,"steer":0.1161700114607811,"brake":0.0,"hand_brake":false,"reverse":false,"manual_gear_shift":false,"gear":0},"transform":{"location":{"x":-93.72251892089844,"y":12.515982627868652,"z":0.0019128036219626665},"rotation":{"pitch":0.002861849032342434,"yaw":-172.5146484375,"roll":-0.0473327711224556}},"velocity":{"x":-4.945692539215088,"y":-0.967605471611023,"z":0.0064039514400064945},"angular_velocity":{"x":-0.055155400186777115,"y":0.051166076213121414,"z":11.946167945861816},"acceleration":{"x":-0.8201313018798828,"y":-1.4180541038513184,"z":0.11493701487779617},"speed_mps":5.03946188116682,"speed_kph":18.14206277220055,"speed_limit_kph":30.0,"collisions_this_frame":[],"waypoint":{"x":-93.64871978759766,"y":12.45189094543457,"z":0.0},"lane_deviation_m":0.09776356816291809,"lane_width":3.5,"goal":{"x":102.31767272949219,"y":80.41472625732422,"z":0.5999999642372131},"fault":{"name":"degraded_brake_pads","severity":1.0},"capture_flags":{"save_rgb":true,"save_depth":false,"video_rgb":true,"video_depth":false}}
{"frame":81,"timestamp":{"delta_seconds":0.05000000074505806,"elapsed_seconds":5.81465595588088},"control":{"throttle":0.08267011493444443,"steer":0.126624196767807,"brake":0.0,"hand_brake":false,"reverse":false,"manual_gear_shift":false,"gear":0},"transform":{"location":{"x":-93.970947265625,"y":12.46868896484375,"z":0.0020849991124123335},"rotation":{"pitch":0.0046376981772482395,"yaw":-171.86550903320312,"roll":-0.051025390625}},"velocity":{"x":-4.954701900482178,"y":-1.048262357711792,"z":0.002261533634737134},"angular_velocity":{"x":-0.0336570143699646,"y":0.0009817812824621797,"z":14.766407012939453},"acceleration":{"x":-0.18018722534179688,"y":-1.6131377220153809,"z":-0.08284835517406464},"speed_mps":5.064378541121465,"speed_kph":18.231762748037273,"speed_limit_kph":30.0,"collisions_this_frame":[],"waypoint":{"x":-93.8652114868164,"y":12.392197608947754,"z":0.0},"lane_deviation_m":0.13051946461200714,"lane_width":3.5,"goal":{"x":102.31767272949219,"y":80.41472625732422,"z":0.5999999642372131},"fault":{"name":"degraded_brake_pads","severity":1.0},"capture_flags":{"save_rgb":true,"save_depth":false,"video_rgb":true,"video_depth":false}}
{"frame":82,"timestamp":{"delta_seconds":0.05000000074505806,"elapsed_seconds":5.864655956625938},"control":{"throttle":0.08267011493444443,"steer":0.126624196767807,"brake":0.0,"hand_brake":false,"reverse":false,"manual_gear_shift":false,"gear":0},"transform":{"location":{"x":-94.21662139892578,"y":12.41889476776123,"z":0.0021040725987404585},"rotation":{"pitch":0.001673396211117506,"yaw":-171.26234436035156,"roll":-0.0490722581744194}},"velocity":{"x":-4.881913185119629,"y":-1.086276650428772,"z":0.0016009998507797718},"angular_velocity":{"x":0.02368280664086342,"y":-0.06302959471940994,"z":13.063061714172363},"acceleration":{"x":1.4557743072509766,"y":-0.7602858543395996,"z":-0.013210675679147243},"speed_mps":5.001307416217498,"speed_kph":18.004706698382996,"speed_limit_kph":30.0,"collisions_this_frame":[],"waypoint":{"x":-94.16580200195312,"y":12.303159713745117,"z":0.0},"lane_deviation_m":0.12641851603984833,"lane_width":3.5,"goal":{"x":102.31767272949219,"y":80.41472625732422,"z":0.5999999642372131},"fault":{"name":"degraded_brake_pads","severity":1.0},"capture_flags":{"save_rgb":true,"save_depth":false,"video_rgb":true,"video_depth":false}}
{"frame":83,"timestamp":{"delta_seconds":0.05000000074505806,"elapsed_seconds":5.9146559573709965},"control":{"throttle":0.15554846823215485,"steer":0.15214946866035461,"brake":0.0,"hand_brake":false,"reverse":false,"manual_gear_shift":false,"gear":0},"transform":{"location":{"x":-94.46038818359375,"y":12.364957809448242,"z":0.0019225310534238815},"rotation":{"pitch":-0.00012294339830987155,"yaw":-170.54299926757812,"roll":-0.05618283897638321}},"velocity":{"x":-4.846168518066406,"y":-1.201560378074646,"z":-0.0027203464414924383},"angular_velocity":{"x":-0.13106738030910492,"y":-0.05500112473964691,"z":14.934897422790527},"acceleration":{"x":0.7148933410644531,"y":-2.3056745529174805,"z":-0.08642692118883133},"speed_mps":4.992905371418689,"speed_kph":17.97445933710728,"speed_limit_kph":30.0,"collisions_this_frame":[],"waypoint":{"x":-94.37653350830078,"y":12.236407279968262,"z":0.0},"lane_deviation_m":0.1534944325685501,"lane_width":3.5,"goal":{"x":102.31767272949219,"y":80.41472625732422,"z":0.5999999642372131},"fault":{"name":"degraded_brake_pads","severity":1.0},"capture_flags":{"save_rgb":true,"save_depth":false,"video_rgb":true,"video_depth":false}}
{"frame":84,"timestamp":{"delta_seconds":0.05000000074505806,"elapsed_seconds":5.9646559581160545},"control":{"throttle":0.15554846823215485,"steer":0.15214946866035461,"brake":0.0,"hand_brake":false,"reverse":false,"manual_gear_shift":false,"gear":0},"transform":{"location":{"x":-94.7021484375,"y":12.306955337524414,"z":0.0018500137375667691},"rotation":{"pitch":-0.0017075472278520465,"yaw":-169.78271484375,"roll":-0.05993650108575821}},"velocity":{"x":-4.802558898925781,"y":-1.2753020524978638,"z":-0.0010684585431590676},"angular_velocity":{"x":-0.030730247497558594,"y":-0.03769536688923836,"z":15.288737297058105},"acceleration":{"x":0.8721923828125,"y":-1.4748334884643555,"z":0.033037759363651276},"speed_mps":4.969000749080255,"speed_kph":17.888402696688917,"speed_limit_kph":30.0,"collisions_this_frame":[],"waypoint":{"x":-94.58568572998047,"y":12.1665620803833,"z":0.0},"lane_deviation_m":0.1824205368757248,"lane_width":3.5,"goal":{"x":102.31767272949219,"y":80.41472625732422,"z":0.5999999642372131},"fault":{"name":"degraded_brake_pads","severity":1.0},"capture_flags":{"save_rgb":true,"save_depth":false,"video_rgb":true,"video_depth":false}}
{"frame":85,"timestamp":{"delta_seconds":0.05000000074505806,"elapsed_seconds":6.014655958861113},"control":{"throttle":0.3513354957103729,"steer":0.15766163170337677,"brake":0.0,"hand_brake":false,"reverse":false,"manual_gear_shift":false,"gear":0},"transform":{"location":{"x":-94.94175720214844,"y":12.245387077331543,"z":0.0018310165032744408},"rotation":{"pitch":-0.0030872453935444355,"yaw":-169.0020294189453,"roll":-0.0615539476275444}},"velocity":{"x":-4.761929988861084,"y":-1.3503693342208862,"z":-0.00026678084395825863},"angular_velocity":{"x":-0.012983717955648899,"y":-0.02190251275897026,"z":15.735973358154297},"acceleration":{"x":0.8125782012939453,"y":-1.5013456344604492,"z":0.016033554449677467},"speed_mps":4.949694397514931,"speed_kph":17.818899831053752,"speed_limit_kph":30.0,"collisions_this_frame":[],"waypoint":{"x":-94.79296875,"y":12.093753814697266,"z":0.0},"lane_deviation_m":0.2124476432800293,"lane_width":3.5,"goal":{"x":102.31767272949219,"y":80.41472625732422,"z":0.5999999642372131},"fault":{"name":"degraded_brake_pads","severity":1.0},"capture_flags":{"save_rgb":true,"save_depth":false,"video_rgb":true,"video_depth":false}}
{"frame":86,"timestamp":{"delta_seconds":0.05000000074505806,"elapsed_seconds":6.064655959606171},"control":{"throttle":0.3513354957103729,"steer":0.15766163170337677,"brake":0.0,"hand_brake":false,"reverse":false,"manual_gear_shift":false,"gear":0},"transform":{"location":{"x":-95.18025970458984,"y":12.180281639099121,"z":0.0018300628289580345},"rotation":{"pitch":-0.0031760376878082752,"yaw":-168.2111358642578,"roll":-0.061492908746004105}},"velocity":{"x":-4.747862815856934,"y":-1.4217294454574585,"z":8.276939479401335e-05},"angular_velocity":{"x":0.007958644069731236,"y":0.010345039889216423,"z":15.858298301696777},"acceleration":{"x":0.2813434600830078,"y":-1.4272022247314453,"z":0.006991005036979914},"speed_mps":4.956159394241521,"speed_kph":17.842173819269476,"speed_limit_kph":30.0,"collisions_this_frame":[],"waypoint":{"x":-95.07927703857422,"y":11.98720932006836,"z":0.0},"lane_deviation_m":0.21789392828941345,"lane_width":3.5,"goal":{"x":102.31767272949219,"y":80.41472625732422,"z":0.5999999642372131},"fault":{"name":"degraded_brake_pads","severity":1.0},"capture_flags":{"save_rgb":true,"save_depth":false,"video_rgb":true,"video_depth":false}}
{"frame":87,"timestamp":{"delta_seconds":0.05000000074505806,"elapsed_seconds":6.114655960351229},"control":{"throttle":0.38515377044677734,"steer":0.17078395187854767,"brake":0.0,"hand_brake":false,"reverse":false,"manual_gear_shift":false,"gear":0},"transform":{"location":{"x":-95.41835021972656,"y":12.110852241516113,"z":0.0018332289764657617},"rotation":{"pitch":-0.002226641634479165,"yaw":-167.37814331054688,"roll":-0.0642394945025444}},"velocity":{"x":-4.74050760269165,"y":-1.5218677520751953,"z":0.000213623046875},"angular_velocity":{"x":-0.05719823017716408,"y":0.014679194428026676,"z":16.98025894165039},"acceleration":{"x":0.14710426330566406,"y":-2.0027661323547363,"z":0.002617072779685259},"speed_mps":4.978804458062051,"speed_kph":17.923696049023384,"speed_limit_kph":30.0,"collisions_this_frame":[],"waypoint":{"x":-95.28369140625,"y":11.906811714172363,"z":0.0},"lane_deviation_m":0.244476780295372,"lane_width":3.5,"goal":{"x":102.31767272949219,"y":80.41472625732422,"z":0.5999999642372131},"fault":{"name":"degraded_brake_pads","severity":1.0},"capture_flags":{"save_rgb":true,"save_depth":false,"video_rgb":true,"video_depth":false}}
{"frame":88,"timestamp":{"delta_seconds":0.05000000074505806,"elapsed_seconds":6.164655961096287},"control":{"throttle":0.38515377044677734,"steer":0.17078395187854767,"brake":0.0,"hand_brake":false,"reverse":false,"manual_gear_shift":false,"gear":0},"transform":{"location":{"x":-95.65678405761719,"y":12.036993026733398,"z":0.0018344115233048797},"rotation":{"pitch":-0.0004917735932394862,"yaw":-166.51841735839844,"roll":-0.0656738132238388}},"velocity":{"x":-4.7510480880737305,"y":-1.6103038787841797,"z":0.00023302077897824347},"angular_velocity":{"x":-0.023872511461377144,"y":0.03497428819537163,"z":17.299720764160156},"acceleration":{"x":-0.21080970764160156,"y":-1.7687225341796875,"z":0.0003879546420648694},"speed_mps":5.016526345143132,"speed_kph":18.059494842515274,"speed_limit_kph":30.0,"collisions_this_frame":[],"waypoint":{"x":-95.48847198486328,"y":11.822577476501465,"z":0.0},"lane_deviation_m":0.2725919187068939,"lane_width":3.5,"goal":{"x":102.31767272949219,"y":80.41472625732422,"z":0.5999999642372131},"fault":{"name":"degraded_brake_pads","severity":1.0},"capture_flags":{"save_rgb":true,"save_depth":false,"video_rgb":true,"video_depth":false}}
{"frame":89,"timestamp":{"delta_seconds":0.05000000074505806,"elapsed_seconds":6.214655961841345},"control":{"throttle":0.05921066179871559,"steer":0.1362733691930771,"brake":0.0,"hand_brake":false,"reverse":false,"manual_gear_shift":false,"gear":0},"transform":{"location":{"x":-95.89655303955078,"y":11.960905075073242,"z":0.0020489501766860485},"rotation":{"pitch":0.0016187547007575631,"yaw":-165.75927734375,"roll":-0.054870594292879105}},"velocity":{"x":-4.77542781829834,"y":-1.6166733503341675,"z":0.004062461666762829},"angular_velocity":{"x":0.19811224937438965,"y":0.07082369178533554,"z":14.022309303283691},"acceleration":{"x":-0.4875946044921875,"y":-0.12738943099975586,"z":0.07658881694078445},"speed_mps":5.041662431485585,"speed_kph":18.149984753348104,"speed_limit_kph":30.0,"collisions_this_frame":[],"waypoint":{"x":-95.76822662353516,"y":11.701401710510254,"z":0.0},"lane_deviation_m":0.2895062267780304,"lane_width":3.5,"goal":{"x":102.31767272949219,"y":80.41472625732422,"z":0.5999999642372131},"fault":{"name":"degraded_brake_pads","severity":1.0},"capture_flags":{"save_rgb":true,"save_depth":false,"video_rgb":true,"video_depth":false}}
{"frame":90,"timestamp":{"delta_seconds":0.05000000074505806,"elapsed_seconds":6.264655962586403},"control":{"throttle":0.05921066179871559,"steer":0.1362733691930771,"brake":0.0,"hand_brake":false,"reverse":false,"manual_gear_shift":false,"gear":0},"transform":{"location":{"x":-96.1344985961914,"y":11.883377075195312,"z":0.0020008848514407873},"rotation":{"pitch":0.00021856604143977165,"yaw":-165.07408142089844,"roll":-0.0487060509622097}},"velocity":{"x":-4.7229766845703125,"y":-1.6450072526931763,"z":-0.0032936858478933573},"angular_velocity":{"x":0.07076467573642731,"y":-0.011925664730370045,"z":13.858592987060547},"acceleration":{"x":1.0490226745605469,"y":-0.5666780471801758,"z":-0.14712294936180115},"speed_mps":5.001256689350627,"speed_kph":18.004524081662257,"speed_limit_kph":30.0,"collisions_this_frame":[],"waypoint":{"x":-95.96920013427734,"y":11.609901428222656,"z":0.0},"lane_deviation_m":0.31955674290657043,"lane_width":3.5,"goal":{"x":102.31767272949219,"y":80.41472625732422,"z":0.5999999642372131},"fault":{"name":"degraded_brake_pads","severity":1.0},"capture_flags":{"save_rgb":true,"save_depth":false,"video_rgb":true,"video_depth":false}}
{"frame":91,"timestamp":{"delta_seconds":0.05000000074505806,"elapsed_seconds":6.314655963331461},"control":{"throttle":0.14144694805145264,"steer":0.1677180528640747,"brake":0.0,"hand_brake":false,"reverse":false,"manual_gear_shift":false,"gear":0},"transform":{"location":{"x":-96.36946105957031,"y":11.80211067199707,"z":0.0019072722643613815},"rotation":{"pitch":-0.001857811352238059,"yaw":-164.29537963867188,"roll":-0.0551147423684597}},"velocity":{"x":-4.645965099334717,"y":-1.7503762245178223,"z":-0.001487522036768496},"angular_velocity":{"x":-0.12754029035568237,"y":-0.08169079571962357,"z":16.259122848510742},"acceleration":{"x":1.540231704711914,"y":-2.10737943649292,"z":0.03612327575683594},"speed_mps":4.964756876657237,"speed_kph":17.873124755966053,"speed_limit_kph":30.0,"collisions_this_frame":[],"waypoint":{"x":-96.16787719726562,"y":11.515702247619629,"z":0.0},"lane_deviation_m":0.350242018699646,"lane_width":3.5,"goal":{"x":102.31767272949219,"y":80.41472625732422,"z":0.5999999642372131},"fault":{"name":"degraded_brake_pads","severity":1.0},"capture_flags":{"save_rgb":true,"save_depth":false,"video_rgb":true,"video_depth":false}}
{"frame":92,"timestamp":{"delta_seconds":0.05000000074505806,"elapsed_seconds":6.364655964076519},"control":{"throttle":0.14144694805145264,"steer":0.1677180528640747,"brake":0.0,"hand_brake":false,"reverse":false,"manual_gear_shift":false,"gear":0},"transform":{"location":{"x":-96.60103607177734,"y":11.717111587524414,"z":0.0018754958873614669},"rotation":{"pitch":-0.003968339879065752,"yaw":-163.4680938720703,"roll":-0.0595703125}},"velocity":{"x":-4.57817268371582,"y":-1.8183475732803345,"z":-0.0005686378572136164},"angular_velocity":{"x":-0.03942149505019188,"y":-0.05420216917991638,"z":16.63114356994629},"acceleration":{"x":1.3558483123779297,"y":-1.3594269752502441,"z":0.01837768405675888},"speed_mps":4.926058601206974,"speed_kph":17.733810964345107,"speed_limit_kph":30.0,"collisions_this_frame":[],"waypoint":{"x":-96.36393737792969,"y":11.419014930725098,"z":0.0},"lane_deviation_m":0.38089489936828613,"lane_width":3.5,"goal":{"x":102.31767272949219,"y":80.41472625732422,"z":0.5999999642372131},"fault":{"name":"degraded_brake_pads","severity":1.0},"capture_flags":{"save_rgb":true,"save_depth":false,"video_rgb":true,"video_depth":false}}
