{"frame":24272,"timestamp":{"delta_seconds":0.05000000074505806,"elapsed_seconds":233.4584029186517},"control":{"throttle":0.0,"steer":0.0,"brake":1.0,"hand_brake":false,"reverse":false,"manual_gear_shift":false,"gear":0},"transform":{"location":{"x":-64.64484405517578,"y":24.471010208129883,"z":0.48239994049072266},"rotation":{"pitch":0.0,"yaw":0.15919795632362366,"roll":0.0}},"velocity":{"x":0.0,"y":0.0,"z":-1.470000147819519},"angular_velocity":{"x":0.0,"y":0.0,"z":0.0},"acceleration":{"x":0.0,"y":0.0,"z":-9.80000114440918},"speed_mps":1.470000147819519,"speed_kph":5.2920005321502686,"speed_limit_kph":30.0,"collisions_this_frame":[],"waypoint":{"x":-64.64469146728516,"y":24.504404067993164,"z":0.0},"lane_deviation_m":0.4835544228553772,"lane_width":3.5,"goal":{"x":40.38964080810547,"y":41.94549560546875,"z":0.5999999642372131},"fault":{"name":"degraded_brake_pads","severity":1.0},"capture_flags":{"save_rgb":true,"save_depth":false,"video_rgb":true,"video_depth":false}}
{"frame":24273,"timestamp":{"delta_seconds":0.05000000074505806,"elapsed_seconds":233.50840291939676},"control":{"throttle":1.0,"steer":0.4259999990463257,"brake":0.0,"hand_brake":false,"reverse":false,"manual_gear_shift":false,"gear":0},"transform":{"location":{"x":-64.64484405517578,"y":24.471010208129883,"z":0.394199937582016},"rotation":{"pitch":0.0,"yaw":0.15919795632362366,"roll":0.0}},"velocity":{"x":0.0,"y":0.0,"z":-1.9600002765655518},"angular_velocity":{"x":0.0,"y":0.0,"z":0.0},"acceleration":{"x":0.0,"y":0.0,"z":-9.800003051757812},"speed_mps":1.9600002765655518,"speed_kph":7.056000995635986,"speed_limit_kph":30.0,"collisions_this_frame":[],"waypoint":{"x":-64.64469146728516,"y":24.504404067993164,"z":0.0},"lane_deviation_m":0.39561188220977783,"lane_width":3.5,"goal":{"x":40.38964080810547,"y":41.94549560546875,"z":0.5999999642372131},"fault":{"name":"degraded_brake_pads","severity":1.0},"capture_flags":{"save_rgb":true,"save_depth":false,"video_rgb":true,"video_depth":false}}
{"frame":24274,"timestamp":{"delta_seconds":0.05000000074505806,"elapsed_seconds":233.55840292014182},"control":{"throttle":1.0,"steer":0.5289999842643738,"brake":0.0,"hand_brake":false,"reverse":false,"manual_gear_shift":false,"gear":0},"transform":{"location":{"x":-64.64484405517578,"y":24.471010208129883,"z":0.28150004148483276},"rotation":{"pitch":0.0,"yaw":0.15919795632362366,"roll":0.0}},"velocity":{"x":0.0,"y":0.0,"z":-2.450000286102295},"angular_velocity":{"x":0.0,"y":0.0,"z":0.0},"acceleration":{"x":0.0,"y":0.0,"z":-9.800000190734863},"speed_mps":2.450000286102295,"speed_kph":8.820001029968262,"speed_limit_kph":30.0,"collisions_this_frame":[],"waypoint":{"x":-64.64469146728516,"y":24.504404067993164,"z":0.0},"lane_deviation_m":0.2834738790988922,"lane_width":3.5,"goal":{"x":40.38964080810547,"y":41.94549560546875,"z":0.5999999642372131},"fault":{"name":"degraded_brake_pads","severity":1.0},"capture_flags":{"save_rgb":true,"save_depth":false,"video_rgb":true,"video_depth":false}}
{"frame":24275,"timestamp":{"delta_seconds":0.05000000074505806,"elapsed_seconds":233.60840292088687},"control":{"throttle":0.9653801321983337,"steer":0.7730000019073486,"brake":0.0,"hand_brake":false,"reverse":false,"manual_gear_shift":false,"gear":0},"transform":{"location":{"x":-64.64484405517578,"y":24.471010208129883,"z":0.1442999690771103},"rotation":{"pitch":0.0,"yaw":0.15919795632362366,"roll":0.0}},"velocity":{"x":0.0,"y":0.0,"z":-2.93999981880188},"angular_velocity":{"x":0.0,"y":0.0,"z":0.0},"acceleration":{"x":0.0,"y":0.0,"z":-9.7999906539917},"speed_mps":2.93999981880188,"speed_kph":10.583999347686769,"speed_limit_kph":30.0,"collisions_this_frame":[],"waypoint":{"x":-64.64469146728516,"y":24.504404067993164,"z":0.0},"lane_deviation_m":0.1481136530637741,"lane_width":3.5,"goal":{"x":40.38964080810547,"y":41.94549560546875,"z":0.5999999642372131},"fault":{"name":"degraded_brake_pads","severity":1.0},"capture_flags":{"save_rgb":true,"save_depth":false,"video_rgb":true,"video_depth":false}}
{"frame":24276,"timestamp":{"delta_seconds":0.05000000074505806,"elapsed_seconds":233.65840292163193},"control":{"throttle":0.0,"steer":0.7950000166893005,"brake":1.0,"hand_brake":false,"reverse":false,"manual_gear_shift":false,"gear":0},"transform":{"location":{"x":-64.64484405517578,"y":24.471010208129883,"z":0.008085555396974087},"rotation":{"pitch":0.0,"yaw":0.15919795632362366,"roll":0.0}},"velocity":{"x":-1.4789030444717355e-07,"y":-2.2099350189819233e-06,"z":-2.06459641456604},"angular_velocity":{"x":0.0009198705083690584,"y":-0.0008250255486927927,"z":1.682183938100934e-05},"acceleration":{"x":-2.95780614578689e-06,"y":-4.4198699470143765e-05,"z":17.508068084716797},"speed_mps":2.064596414567228,"speed_kph":7.432547092442021,"speed_limit_kph":30.0,"collisions_this_frame":[],"waypoint":{"x":-64.64469146728516,"y":24.504404067993164,"z":0.0},"lane_deviation_m":0.034359123557806015,"lane_width":3.5,"goal":{"x":40.38964080810547,"y":41.94549560546875,"z":0.5999999642372131},"fault":{"name":"degraded_brake_pads","severity":1.0},"capture_flags":{"save_rgb":true,"save_depth":false,"video_rgb":true,"video_depth":false}}
{"frame":24277,"timestamp":{"delta_seconds":0.05000000074505806,"elapsed_seconds":233.708402922377},"control":{"throttle":0.0,"steer":0.7429999709129333,"brake":1.0,"hand_brake":false,"reverse":false,"manual_gear_shift":false,"gear":0},"transform":{"location":{"x":-64.64484405517578,"y":24.471010208129883,"z":-0.05158817023038864},"rotation":{"pitch":0.0,"yaw":0.15919795632362366,"roll":0.0}},"velocity":{"x":-1.556880988573539e-07,"y":-2.781507362215052e-07,"z":-0.7380887269973755},"angular_velocity":{"x":0.0001741829328238964,"y":-0.0002616539422888309,"z":3.809247800745652e-06},"acceleration":{"x":-1.5595588820360717e-07,"y":3.863568417727947e-05,"z":26.530153274536133},"speed_mps":0.7380887269974443,"speed_kph":2.6571194171907995,"speed_limit_kph":30.0,"collisions_this_frame":[],"waypoint":{"x":-64.64469146728516,"y":24.504404067993164,"z":0.0},"lane_deviation_m":0.061453334987163544,"lane_width":3.5,"goal":{"x":40.38964080810547,"y":41.94549560546875,"z":0.5999999642372131},"fault":{"name":"degraded_brake_pads","severity":1.0},"capture_flags":{"save_rgb":true,"save_depth":false,"video_rgb":true,"video_depth":false}}
{"frame":24278,"timestamp":{"delta_seconds":0.05000000074505806,"elapsed_seconds":233.75840292312205},"control":{"throttle":0.0,"steer":0.9559999704360962,"brake":1.0,"hand_brake":false,"reverse":false,"manual_gear_shift":false,"gear":0},"transform":{"location":{"x":-64.64484405517578,"y":24.471010208129883,"z":-0.06773189455270767},"rotation":{"pitch":0.0,"yaw":0.15919795632362366,"roll":0.0}},"velocity":{"x":-5.1942624423872985e-08,"y":2.0024689462161405e-08,"z":-0.1120968759059906},"angular_velocity":{"x":4.161716788075864e-05,"y":-4.7643694415455684e-05,"z":-6.684462050543516e-07},"acceleration":{"x":2.074909616567311e-06,"y":5.9635085563058965e-06,"z":12.51983642578125},"speed_mps":0.11209687590600442,"speed_kph":0.40354875326161593,"speed_limit_kph":30.0,"collisions_this_frame":[],"waypoint":{"x":-64.64469146728516,"y":24.504404067993164,"z":0.0},"lane_deviation_m":0.07551676779985428,"lane_width":3.5,"goal":{"x":40.38964080810547,"y":41.94549560546875,"z":0.5999999642372131},"fault":{"name":"degraded_brake_pads","severity":1.0},"capture_flags":{"save_rgb":true,"save_depth":false,"video_rgb":true,"video_depth":false}}
{"frame":24279,"timestamp":{"delta_seconds":0.05000000074505806,"elapsed_seconds":233.8084029238671},"control":{"throttle":0.0,"steer":0.7900000214576721,"brake":1.0,"hand_brake":false,"reverse":false,"manual_gear_shift":false,"gear":0},"transform":{"location":{"x":-64.64484405517578,"y":24.471010208129883,"z":-0.06445319950580597},"rotation":{"pitch":0.0,"yaw":0.15919795632362366,"roll":0.0}},"velocity":{"x":-1.0350322821039981e-09,"y":5.001293956752306e-08,"z":0.15056157112121582},"angular_velocity":{"x":-5.228104782872833e-05,"y":7.356480637099594e-06,"z":-9.876725926005747e-08},"acceleration":{"x":1.0181518064200645e-06,"y":5.997650305289426e-07,"z":5.253169059753418},"speed_mps":0.15056157112122412,"speed_kph":0.5420216560364068,"speed_limit_kph":30.0,"collisions_this_frame":[],"waypoint":{"x":-64.64469146728516,"y":24.504404067993164,"z":0.0},"lane_deviation_m":0.07259055227041245,"lane_width":3.5,"goal":{"x":40.38964080810547,"y":41.94549560546875,"z":0.5999999642372131},"fault":{"name":"degraded_brake_pads","severity":1.0},"capture_flags":{"save_rgb":true,"save_depth":false,"video_rgb":true,"video_depth":false}}
{"frame":24280,"timestamp":{"delta_seconds":0.05000000074505806,"elapsed_seconds":233.85840292461216},"control":{"throttle":0.0,"steer":0.8859999775886536,"brake":1.0,"hand_brake":false,"reverse":false,"manual_gear_shift":false,"gear":0},"transform":{"location":{"x":-64.64484405517578,"y":24.471010208129883,"z":-0.05396205931901932},"rotation":{"pitch":0.0,"yaw":0.15919795632362366,"roll":0.0}},"velocity":{"x":2.0382534771101746e-08,"y":9.600307215862358e-09,"z":0.23337243497371674},"angular_velocity":{"x":-4.1060389776248485e-05,"y":2.1053763703093864e-05,"z":5.705213652618113e-07},"acceleration":{"x":4.2835131353058387e-07,"y":-8.082526505859278e-07,"z":1.656217336654663},"speed_mps":0.23337243497371782,"speed_kph":0.8401407659053841,"speed_limit_kph":30.0,"collisions_this_frame":[],"waypoint":{"x":-64.64469146728516,"y":24.504404067993164,"z":0.0},"lane_deviation_m":0.06345925480127335,"lane_width":3.5,"goal":{"x":40.38964080810547,"y":41.94549560546875,"z":0.5999999642372131},"fault":{"name":"degraded_brake_pads","severity":1.0},"capture_flags":{"save_rgb":true,"save_depth":false,"video_rgb":true,"video_depth":false}}
{"frame":24281,"timestamp":{"delta_seconds":0.05000000074505806,"elapsed_seconds":233.90840292535722},"control":{"throttle":1.0,"steer":0.847000002861023,"brake":0.0,"hand_brake":false,"reverse":false,"manual_gear_shift":false,"gear":0},"transform":{"location":{"x":-64.64484405517578,"y":24.471010208129883,"z":-0.04207824543118477},"rotation":{"pitch":0.0,"yaw":0.15919795632362366,"roll":0.0}},"velocity":{"x":2.8325763068437482e-08,"y":-3.1018769774959765e-09,"z":0.23370583355426788},"angular_velocity":{"x":-6.907358510943595e-06,"y":3.062868563574739e-05,"z":5.517575019098331e-08},"acceleration":{"x":1.5886456594671472e-07,"y":-2.540436980780214e-07,"z":0.006667971611022949},"speed_mps":0.23370583355426963,"speed_kph":0.8413410007953707,"speed_limit_kph":30.0,"collisions_this_frame":[],"waypoint":{"x":-64.64469146728516,"y":24.504404067993164,"z":0.0},"lane_deviation_m":0.05371919646859169,"lane_width":3.5,"goal":{"x":40.38964080810547,"y":41.94549560546875,"z":0.5999999642372131},"fault":{"name":"degraded_brake_pads","severity":1.0},"capture_flags":{"save_rgb":true,"save_depth":false,"video_rgb":true,"video_depth":false}}
{"frame":24282,"timestamp":{"delta_seconds":0.05000000074505806,"elapsed_seconds":233.95840292610228},"control":{"throttle":0.0,"steer":0.746999979019165,"brake":1.0,"hand_brake":false,"reverse":false,"manual_gear_shift":false,"gear":0},"transform":{"location":{"x":-64.64484405517578,"y":24.471010208129883,"z":-0.03129245713353157},"rotation":{"pitch":0.0,"yaw":0.15919795632362366,"roll":0.0}},"velocity":{"x":3.721751085095093e-08,"y":3.182159602488355e-08,"z":0.20143479108810425},"angular_velocity":{"x":-3.050784107472282e-05,"y":5.310217966325581e-05,"z":-1.7016445497120003e-07},"acceleration":{"x":1.778349485448416e-07,"y":6.984694778111589e-07,"z":-0.6454208493232727},"speed_mps":0.20143479108811022,"speed_kph":0.7251652479171968,"speed_limit_kph":30.0,"collisions_this_frame":[],"waypoint":{"x":-64.64469146728516,"y":24.504404067993164,"z":0.0},"lane_deviation_m":0.045764513313770294,"lane_width":3.5,"goal":{"x":40.38964080810547,"y":41.94549560546875,"z":0.5999999642372131},"fault":{"name":"degraded_brake_pads","severity":1.0},"capture_flags":{"save_rgb":true,"save_depth":false,"video_rgb":true,"video_depth":false}}
{"frame":24283,"timestamp":{"delta_seconds":0.05000000074505806,"elapsed_seconds":234.00840292684734},"control":{"throttle":1.0,"steer":0.7630000114440918,"brake":0.0,"hand_brake":false,"reverse":false,"manual_gear_shift":false,"gear":0},"transform":{"location":{"x":-64.64484405517578,"y":24.471010208129883,"z":-0.022435493767261505},"rotation":{"pitch":0.0,"yaw":0.15919795632362366,"roll":0.0}},"velocity":{"x":-3.93331189840751e-09,"y":2.988605629639096e-08,"z":0.16076640784740448},"angular_velocity":{"x":-4.820527828997001e-05,"y":-1.05402541521471e-05,"z":1.3375427876383128e-08},"acceleration":{"x":-8.230164780798077e-07,"y":-3.8710794569851714e-08,"z":-0.8133676648139954},"speed_mps":0.1607664078474073,"speed_kph":0.5787590682506664,"speed_limit_kph":30.0,"collisions_this_frame":[],"waypoint":{"x":-64.64469146728516,"y":24.504404067993164,"z":0.0},"lane_deviation_m":0.0402308888733387,"lane_width":3.5,"goal":{"x":40.38964080810547,"y":41.94549560546875,"z":0.5999999642372131},"fault":{"name":"degraded_brake_pads","severity":1.0},"capture_flags":{"save_rgb":true,"save_depth":false,"video_rgb":true,"video_depth":false}}
{"frame":24284,"timestamp":{"delta_seconds":0.05000000074505806,"elapsed_seconds":234.0584029275924},"control":{"throttle":0.0,"steer":0.8420000076293945,"brake":1.0,"hand_brake":false,"reverse":false,"manual_gear_shift":false,"gear":0},"transform":{"location":{"x":-64.64484405517578,"y":24.471010208129883,"z":-0.015568007715046406},"rotation":{"pitch":0.0,"yaw":0.15919795632362366,"roll":0.0}},"velocity":{"x":-6.684722109184804e-09,"y":8.059792122594445e-08,"z":0.12242141366004944},"angular_velocity":{"x":-6.791294435970485e-05,"y":1.7142224351118784e-06,"z":-7.811258910805918e-07},"acceleration":{"x":-5.5028202439189045e-08,"y":1.0142373412236338e-06,"z":-0.7668998837471008},"speed_mps":0.12242141366007615,"speed_kph":0.44071708917627417,"speed_limit_kph":30.0,"collisions_this_frame":[],"waypoint":{"x":-64.64469146728516,"y":24.504404067993164,"z":0.0},"lane_deviation_m":0.036844756454229355,"lane_width":3.5,"goal":{"x":40.38964080810547,"y":41.94549560546875,"z":0.5999999642372131},"fault":{"name":"degraded_brake_pads","severity":1.0},"capture_flags":{"save_rgb":true,"save_depth":false,"video_rgb":true,"video_depth":false}}
{"frame":24285,"timestamp":{"delta_seconds":0.05000000074505806,"elapsed_seconds":234.10840292833745},"control":{"throttle":0.0,"steer":0.781000018119812,"brake":1.0,"hand_brake":false,"reverse":false,"manual_gear_shift":false,"gear":0},"transform":{"location":{"x":-64.64484405517578,"y":24.471010208129883,"z":-0.010438041761517525},"rotation":{"pitch":0.0,"yaw":0.15919795632362366,"roll":0.0}},"velocity":{"x":-1.9011480389963253e-08,"y":6.511692873800712e-08,"z":0.09031114727258682},"angular_velocity":{"x":-3.715769707923755e-05,"y":-8.115323907986749e-06,"z":-7.83899963607837e-07},"acceleration":{"x":-2.46535165615569e-07,"y":-3.0961984975874657e-07,"z":-0.6422053575515747},"speed_mps":0.0903111472726123,"speed_kph":0.3251201301814043,"speed_limit_kph":30.0,"collisions_this_frame":[],"waypoint":{"x":-64.64469146728516,"y":24.504404067993164,"z":0.0},"lane_deviation_m":0.03498750925064087,"lane_width":3.5,"goal":{"x":40.38964080810547,"y":41.94549560546875,"z":0.5999999642372131},"fault":{"name":"degraded_brake_pads","severity":1.0},"capture_flags":{"save_rgb":true,"save_depth":false,"video_rgb":true,"video_depth":false}}
{"frame":24286,"timestamp":{"delta_seconds":0.05000000074505806,"elapsed_seconds":234.1584029290825},"control":{"throttle":0.0,"steer":0.8690000176429749,"brake":1.0,"hand_brake":false,"reverse":false,"manual_gear_shift":false,"gear":0},"transform":{"location":{"x":-64.64484405517578,"y":24.471010208129883,"z":-0.006705284118652344},"rotation":{"pitch":0.0,"yaw":0.15919795632362366,"roll":0.0}},"velocity":{"x":1.0451128851229896e-09,"y":4.375128170863718e-08,"z":0.06511277705430984},"angular_velocity":{"x":-4.7480687499046326e-05,"y":3.0931835226510884e-07,"z":-2.5364337830069417e-07},"acceleration":{"x":4.0113184240908595e-07,"y":-4.273129547982535e-07,"z":-0.5039674043655396},"speed_mps":0.06511277705432456,"speed_kph":0.23440599739556842,"speed_limit_kph":30.0,"collisions_this_frame":[],"waypoint":{"x":-64.64469146728516,"y":24.504404067993164,"z":0.0},"lane_deviation_m":0.03406073898077011,"lane_width":3.5,"goal":{"x":40.38964080810547,"y":41.94549560546875,"z":0.5999999642372131},"fault":{"name":"degraded_brake_pads","severity":1.0},"capture_flags":{"save_rgb":true,"save_depth":false,"video_rgb":true,"video_depth":false}}
{"frame":24287,"timestamp":{"delta_seconds":0.05000000074505806,"elapsed_seconds":234.20840292982757},"control":{"throttle":0.0,"steer":0.8379999995231628,"brake":1.0,"hand_brake":false,"reverse":false,"manual_gear_shift":false,"gear":0},"transform":{"location":{"x":-64.64484405517578,"y":24.471010208129883,"z":-0.004041633568704128},"rotation":{"pitch":0.0,"yaw":0.15919795632362366,"roll":0.0}},"velocity":{"x":-7.474390883999149e-09,"y":9.223575858641198e-08,"z":0.04613765701651573},"angular_velocity":{"x":-5.511160270543769e-05,"y":6.955775916139828e-06,"z":-1.1626947298282175e-06},"acceleration":{"x":-1.7039006650065858e-07,"y":9.696894949229318e-07,"z":-0.37950241565704346},"speed_mps":0.04613765701660853,"speed_kph":0.16609556525979072,"speed_limit_kph":30.0,"collisions_this_frame":[],"waypoint":{"x":-64.64469146728516,"y":24.504404067993164,"z":0.0},"lane_deviation_m":0.033637892454862595,"lane_width":3.5,"goal":{"x":40.38964080810547,"y":41.94549560546875,"z":0.5999999642372131},"fault":{"name":"degraded_brake_pads","severity":1.0},"capture_flags":{"save_rgb":true,"save_depth":false,"video_rgb":true,"video_depth":false}}
{"frame":24288,"timestamp":{"delta_seconds":0.05000000074505806,"elapsed_seconds":234.25840293057263},"control":{"throttle":0.0,"steer":0.8159999847412109,"brake":1.0,"hand_brake":false,"reverse":false,"manual_gear_shift":false,"gear":0},"transform":{"location":{"x":-64.64484405517578,"y":24.471010208129883,"z":-0.002169380197301507},"rotation":{"pitch":0.0,"yaw":0.15919795632362366,"roll":0.0}},"velocity":{"x":-2.7736872354466868e-08,"y":7.038402571879487e-08,"z":0.032249804586172104},"angular_velocity":{"x":-6.576903979294002e-05,"y":-2.8558382837218232e-05,"z":-5.087898102829058e-07},"acceleration":{"x":-4.0524963651478174e-07,"y":-4.3703465735234204e-07,"z":-0.27775704860687256},"speed_mps":0.03224980458626084,"speed_kph":0.11609929651053902,"speed_limit_kph":30.0,"collisions_this_frame":[],"waypoint":{"x":-64.64469146728516,"y":24.504404067993164,"z":0.0},"lane_deviation_m":0.03346459940075874,"lane_width":3.5,"goal":{"x":40.38964080810547,"y":41.94549560546875,"z":0.5999999642372131},"fault":{"name":"degraded_brake_pads","severity":1.0},"capture_flags":{"save_rgb":true,"save_depth":false,"video_rgb":true,"video_depth":false}}
{"frame":24289,"timestamp":{"delta_seconds":0.05000000074505806,"elapsed_seconds":234.3084029313177},"control":{"throttle":0.0,"steer":0.8240000009536743,"brake":1.0,"hand_brake":false,"reverse":false,"manual_gear_shift":false,"gear":0},"transform":{"location":{"x":-64.64484405517578,"y":24.471010208129883,"z":-0.0008690643007867038},"rotation":{"pitch":0.0,"yaw":0.15919795632362366,"roll":0.0}},"velocity":{"x":-1.2253208225843082e-08,"y":5.030430472174885e-08,"z":0.022295692935585976},"angular_velocity":{"x":-2.3320122636505403e-05,"y":-4.926196652377257e-06,"z":-7.508724593208171e-07},"acceleration":{"x":3.0967328257247573e-07,"y":-4.015944341517752e-07,"z":-0.19908222556114197},"speed_mps":0.02229569293564609,"speed_kph":0.08026449456832593,"speed_limit_kph":30.0,"collisions_this_frame":[],"waypoint":{"x":-64.64469146728516,"y":24.504404067993164,"z":0.0},"lane_deviation_m":0.03340551629662514,"lane_width":3.5,"goal":{"x":40.38964080810547,"y":41.94549560546875,"z":0.5999999642372131},"fault":{"name":"degraded_brake_pads","severity":1.0},"capture_flags":{"save_rgb":true,"save_depth":false,"video_rgb":true,"video_depth":false}}
{"frame":24290,"timestamp":{"delta_seconds":0.05000000074505806,"elapsed_seconds":234.35840293206275},"control":{"throttle":0.0,"steer":0.8759999871253967,"brake":1.0,"hand_brake":false,"reverse":false,"manual_gear_shift":false,"gear":0},"transform":{"location":{"x":-64.64484405517578,"y":24.471010208129883,"z":2.5138853743555956e-05},"rotation":{"pitch":0.0,"yaw":0.15919795632362366,"roll":0.0}},"velocity":{"x":3.428976880215373e-09,"y":9.694863223330685e-08,"z":0.015274162404239178},"angular_velocity":{"x":-7.093091699061915e-05,"y":1.7553011275595054e-05,"z":-1.1029071629309328e-06},"acceleration":{"x":3.1364368169306545e-07,"y":9.328865644420148e-07,"z":-0.14043061435222626},"speed_mps":0.01527416240454724,"speed_kph":0.054986984656370065,"speed_limit_kph":30.0,"collisions_this_frame":[],"waypoint":{"x":-64.64469146728516,"y":24.504404067993164,"z":0.0},"lane_deviation_m":0.0333942174911499,"lane_width":3.5,"goal":{"x":40.38964080810547,"y":41.94549560546875,"z":0.5999999642372131},"fault":{"name":"degraded_brake_pads","severity":1.0},"capture_flags":{"save_rgb":true,"save_depth":false,"video_rgb":true,"video_depth":false}}
{"frame":24291,"timestamp":{"delta_seconds":0.05000000074505806,"elapsed_seconds":234.4084029328078},"control":{"throttle":1.0,"steer":0.7379999756813049,"brake":0.0,"hand_brake":false,"reverse":false,"manual_gear_shift":false,"gear":0},"transform":{"location":{"x":-64.64484405517578,"y":24.471010208129883,"z":0.0006350326584652066},"rotation":{"pitch":0.0,"yaw":0.15919795632362366,"roll":0.0}},"velocity":{"x":1.276092920221572e-08,"y":-1.628991874724761e-08,"z":0.01038485486060381},"angular_velocity":{"x":3.171380012645386e-05,"y":1.960673398571089e-05,"z":-1.4421605953884864e-07},"acceleration":{"x":1.8663904199911485e-07,"y":-2.264770955662243e-06,"z":-0.09778615087270737},"speed_mps":0.010384854860624427,"speed_kph":0.037385477498247936,"speed_limit_kph":30.0,"collisions_this_frame":[],"waypoint":{"x":-64.64469146728516,"y":24.504404067993164,"z":0.0},"lane_deviation_m":0.033400245010852814,"lane_width":3.5,"goal":{"x":40.38964080810547,"y":41.94549560546875,"z":0.5999999642372131},"fault":{"name":"degraded_brake_pads","severity":1.0},"capture_flags":{"save_rgb":true,"save_depth":false,"video_rgb":true,"video_depth":false}}
{"frame":24292,"timestamp":{"delta_seconds":0.05000000074505806,"elapsed_seconds":234.45840293355286},"control":{"throttle":1.0,"steer":0.8840000033378601,"brake":0.0,"hand_brake":false,"reverse":false,"manual_gear_shift":false,"gear":0},"transform":{"location":{"x":-64.64484405517578,"y":24.471010208129883,"z":0.0010481261415407062},"rotation":{"pitch":0.0,"yaw":0.15919795632362366,"roll":0.0}},"velocity":{"x":-1.9932844708137054e-08,"y":2.354190620224017e-09,"z":0.007015428505837917},"angular_velocity":{"x":2.9067075956845656e-05,"y":-1.9953478840761818e-05,"z":-6.254366553548607e-07},"acceleration":{"x":-6.538754746543418e-07,"y":3.728821695858642e-07,"z":-0.06738852709531784},"speed_mps":0.00701542850586663,"speed_kph":0.025255542621119866,"speed_limit_kph":30.0,"collisions_this_frame":[],"waypoint":{"x":-64.64469146728516,"y":24.504404067993164,"z":0.0},"lane_deviation_m":0.033410653471946716,"lane_width":3.5,"goal":{"x":40.38964080810547,"y":41.94549560546875,"z":0.5999999642372131},"fault":{"name":"degraded_brake_pads","severity":1.0},"capture_flags":{"save_rgb":true,"save_depth":false,"video_rgb":true,"video_depth":false}}
{"frame":24293,"timestamp":{"delta_seconds":0.05000000074505806,"elapsed_seconds":234.50840293429792},"control":{"throttle":0.0,"steer":0.9100000262260437,"brake":1.0,"hand_brake":false,"reverse":false,"manual_gear_shift":false,"gear":0},"transform":{"location":{"x":-64.64484405517578,"y":24.471010208129883,"z":0.0013262557331472635},"rotation":{"pitch":0.0,"yaw":0.15919795632362366,"roll":0.0}},"velocity":{"x":1.8609295215910038e-09,"y":1.2353167377909813e-08,"z":0.004712648224085569},"angular_velocity":{"x":-1.5056880329211708e-05,"y":1.649419004934316e-06,"z":-7.237364485490616e-08},"acceleration":{"x":4.35875477933223e-07,"y":1.999795387064296e-07,"z":-0.04605560749769211},"speed_mps":0.004712648224102127,"speed_kph":0.01696553360676766,"speed_limit_kph":30.0,"collisions_this_frame":[],"waypoint":{"x":-64.64469146728516,"y":24.504404067993164,"z":0.0},"lane_deviation_m":0.03342053294181824,"lane_width":3.5,"goal":{"x":40.38964080810547,"y":41.94549560546875,"z":0.5999999642372131},"fault":{"name":"degraded_brake_pads","severity":1.0},"capture_flags":{"save_rgb":true,"save_depth":false,"video_rgb":true,"video_depth":false}}
{"frame":24294,"timestamp":{"delta_seconds":0.05000000074505806,"elapsed_seconds":234.55840293504298},"control":{"throttle":1.0,"steer":0.7200000286102295,"brake":0.0,"hand_brake":false,"reverse":false,"manual_gear_shift":false,"gear":0},"transform":{"location":{"x":-64.64484405517578,"y":24.471010208129883,"z":0.00151256553363055},"rotation":{"pitch":0.0,"yaw":0.15919795632362366,"roll":0.0}},"velocity":{"x":-1.3699600565075798e-08,"y":-1.5136031095153157e-08,"z":0.0031505392398685217},"angular_velocity":{"x":3.0796822102274746e-05,"y":-1.6520660210517235e-05,"z":-2.212082250707681e-07},"acceleration":{"x":-3.112106128355663e-07,"y":-5.497839765666868e-07,"z":-0.03124218061566353},"speed_mps":0.003150539239934666,"speed_kph":0.011341941263764798,"speed_limit_kph":30.0,"collisions_this_frame":[],"waypoint":{"x":-64.64469146728516,"y":24.504404067993164,"z":0.0},"lane_deviation_m":0.03342844545841217,"lane_width":3.5,"goal":{"x":40.38964080810547,"y":41.94549560546875,"z":0.5999999642372131},"fault":{"name":"degraded_brake_pads","severity":1.0},"capture_flags":{"save_rgb":true,"save_depth":false,"video_rgb":true,"video_depth":false}}
{"frame":24295,"timestamp":{"delta_seconds":0.05000000074505806,"elapsed_seconds":234.60840293578804},"control":{"throttle":0.0,"steer":0.8539999723434448,"brake":1.0,"hand_brake":false,"reverse":false,"manual_gear_shift":false,"gear":0},"transform":{"location":{"x":-64.64484405517578,"y":24.471010208129883,"z":0.0015981292817741632},"rotation":{"pitch":0.0,"yaw":0.15919795632362366,"roll":0.0}},"velocity":{"x":2.0251922805414324e-08,"y":2.2836855961827496e-08,"z":0.0005041980766691267},"angular_velocity":{"x":-4.29319406975992e-05,"y":1.9997129129478708e-05,"z":4.864793012870905e-08},"acceleration":{"x":6.79030449646234e-07,"y":7.594577482450404e-07,"z":-0.05292682349681854},"speed_mps":0.0005041980775930319,"speed_kph":0.0018151130793349149,"speed_limit_kph":30.0,"collisions_this_frame":[],"waypoint":{"x":-64.64469146728516,"y":24.504404067993164,"z":0.0},"lane_deviation_m":0.033432427793741226,"lane_width":3.5,"goal":{"x":40.38964080810547,"y":41.94549560546875,"z":0.5999999642372131},"fault":{"name":"degraded_brake_pads","severity":1.0},"capture_flags":{"save_rgb":true,"save_depth":false,"video_rgb":true,"video_depth":false}}
{"frame":24296,"timestamp":{"delta_seconds":0.05000000074505806,"elapsed_seconds":234.6584029365331},"control":{"throttle":1.0,"steer":0.7210000157356262,"brake":0.0,"hand_brake":false,"reverse":false,"manual_gear_shift":false,"gear":0},"transform":{"location":{"x":-64.64484405517578,"y":24.471010208129883,"z":0.0016386413481086493},"rotation":{"pitch":0.0,"yaw":0.15919795632362366,"roll":0.0}},"velocity":{"x":-1.821485962061331e-09,"y":-2.2134999611012063e-08,"z":0.0009400462731719017},"angular_velocity":{"x":1.3869522263121326e-05,"y":-4.221725703246193e-06,"z":1.7668183716068597e-07},"acceleration":{"x":-4.4146815980639076e-07,"y":-8.994371114567912e-07,"z":0.008716964162886143},"speed_mps":0.0009400462734342696,"speed_kph":0.0033841665843633707,"speed_limit_kph":30.0,"collisions_this_frame":[],"waypoint":{"x":-64.64469146728516,"y":24.504404067993164,"z":0.0},"lane_deviation_m":0.03343438729643822,"lane_width":3.5,"goal":{"x":40.38964080810547,"y":41.94549560546875,"z":0.5999999642372131},"fault":{"name":"degraded_brake_pads","severity":1.0},"capture_flags":{"save_rgb":true,"save_depth":false,"video_rgb":true,"video_depth":false}}
{"frame":24297,"timestamp":{"delta_seconds":0.05000000074505806,"elapsed_seconds":234.70840293727815},"control":{"throttle":0.0,"steer":0.9359999895095825,"brake":1.0,"hand_brake":false,"reverse":false,"manual_gear_shift":false,"gear":0},"transform":{"location":{"x":-64.64484405517578,"y":24.471010208129883,"z":0.0016878509195521474},"rotation":{"pitch":0.0,"yaw":0.15919795632362366,"roll":0.0}},"velocity":{"x":7.250275046999377e-09,"y":4.003776155059313e-08,"z":0.0009805298177525401},"angular_velocity":{"x":-4.482020085561089e-05,"y":1.0819015187735204e-05,"z":-1.2376803226743505e-07},"acceleration":{"x":1.814352259543739e-07,"y":1.243455244548386e-06,"z":0.0008096708916127682},"speed_mps":0.000980529818596772,"speed_kph":0.003529907346948379,"speed_limit_kph":30.0,"collisions_this_frame":[],"waypoint":{"x":-64.64469146728516,"y":24.504404067993164,"z":0.0},"lane_deviation_m":0.03343683481216431,"lane_width":3.5,"goal":{"x":40.38964080810547,"y":41.94549560546875,"z":0.5999999642372131},"fault":{"name":"degraded_brake_pads","severity":1.0},"capture_flags":{"save_rgb":true,"save_depth":false,"video_rgb":true,"video_depth":false}}
{"frame":24298,"timestamp":{"delta_seconds":0.05000000074505806,"elapsed_seconds":234.7584029380232},"control":{"throttle":1.0,"steer":0.6909999847412109,"brake":0.0,"hand_brake":false,"reverse":false,"manual_gear_shift":false,"gear":0},"transform":{"location":{"x":-64.64484405517578,"y":24.471010208129883,"z":0.0017336654709652066},"rotation":{"pitch":0.0,"yaw":0.15919795632362366,"roll":0.0}},"velocity":{"x":-8.194565026542477e-09,"y":-1.942478533578651e-08,"z":0.0008598041604273021},"angular_velocity":{"x":2.990760731336195e-05,"y":-1.1497763807710726e-05,"z":-8.351747027290912e-08},"acceleration":{"x":-3.088968014708371e-07,"y":-1.1892509519384475e-06,"z":-0.00241451314650476},"speed_mps":0.0008598041606857757,"speed_kph":0.0030952949784687927,"speed_limit_kph":30.0,"collisions_this_frame":[],"waypoint":{"x":-64.64469146728516,"y":24.504404067993164,"z":0.0},"lane_deviation_m":0.03343917801976204,"lane_width":3.5,"goal":{"x":40.38964080810547,"y":41.94549560546875,"z":0.5999999642372131},"fault":{"name":"degraded_brake_pads","severity":1.0},"capture_flags":{"save_rgb":true,"save_depth":false,"video_rgb":true,"video_depth":false}}
{"frame":24299,"timestamp":{"delta_seconds":0.05000000074505806,"elapsed_seconds":234.80840293876827},"control":{"throttle":0.0,"steer":1.0,"brake":1.0,"hand_brake":false,"reverse":false,"manual_gear_shift":false,"gear":0},"transform":{"location":{"x":-64.64484405517578,"y":24.471010208129883,"z":0.0017717360751703382},"rotation":{"pitch":0.0,"yaw":0.15919795632362366,"roll":0.0}},"velocity":{"x":-1.549503103603911e-08,"y":-1.0087061852459556e-08,"z":0.0006946182111278176},"angular_velocity":{"x":3.559114702511579e-05,"y":-1.1122245268779807e-05,"z":9.695313707425157e-08},"acceleration":{"x":-1.4600931308450527e-07,"y":1.8675447677196644e-07,"z":-0.00330371898598969},"speed_mps":0.0006946182113738844,"speed_kph":0.002500625560945984,"speed_limit_kph":30.0,"collisions_this_frame":[],"waypoint":{"x":-64.64469146728516,"y":24.504404067993164,"z":0.0},"lane_deviation_m":0.033441174775362015,"lane_width":3.5,"goal":{"x":40.38964080810547,"y":41.94549560546875,"z":0.5999999642372131},"fault":{"name":"degraded_brake_pads","severity":1.0},"capture_flags":{"save_rgb":true,"save_depth":false,"video_rgb":true,"video_depth":false}}
{"frame":24300,"timestamp":{"delta_seconds":0.05000000074505806,"elapsed_seconds":234.85840293951333},"control":{"throttle":0.0,"steer":0.7950000166893005,"brake":1.0,"hand_brake":false,"reverse":false,"manual_gear_shift":false,"gear":0},"transform":{"location":{"x":-64.64484405517578,"y":24.471010208129883,"z":0.001801567035727203},"rotation":{"pitch":0.0,"yaw":0.15919795632362366,"roll":0.0}},"velocity":{"x":2.2822405298938975e-08,"y":-1.3154867417597416e-08,"z":0.0005330085405148566},"angular_velocity":{"x":2.123673948517535e-05,"y":2.949673762486782e-05,"z":-1.0820450313531182e-07},"acceleration":{"x":7.663487622266985e-07,"y":-6.13561113027572e-08,"z":-0.003232193412259221},"speed_mps":0.0005330085411657962,"speed_kph":0.0019188307481968663,"speed_limit_kph":30.0,"collisions_this_frame":[],"waypoint":{"x":-64.64469146728516,"y":24.504404067993164,"z":0.0},"lane_deviation_m":0.033442769199609756,"lane_width":3.5,"goal":{"x":40.38964080810547,"y":41.94549560546875,"z":0.5999999642372131},"fault":{"name":"degraded_brake_pads","severity":1.0},"capture_flags":{"save_rgb":true,"save_depth":false,"video_rgb":true,"video_depth":false}}
{"frame":24301,"timestamp":{"delta_seconds":0.05000000074505806,"elapsed_seconds":234.90840294025838},"control":{"throttle":1.0,"steer":0.8410000205039978,"brake":0.0,"hand_brake":false,"reverse":false,"manual_gear_shift":false,"gear":0},"transform":{"location":{"x":-64.64484405517578,"y":24.471010208129883,"z":0.001823921105824411},"rotation":{"pitch":0.0,"yaw":0.15919795632362366,"roll":0.0}},"velocity":{"x":1.7167385735206153e-08,"y":-3.2238629543712705e-09,"z":0.0003941821923945099},"angular_velocity":{"x":-3.967892553191632e-05,"y":8.679653547005728e-06,"z":1.665143116724721e-07},"acceleration":{"x":-1.1310039127465643e-07,"y":1.9862008571180922e-07,"z":-0.0027765268459916115},"speed_mps":0.0003941821927815295,"speed_kph":0.0014190558940135062,"speed_limit_kph":30.0,"collisions_this_frame":[],"waypoint":{"x":-64.64469146728516,"y":24.504404067993164,"z":0.0},"lane_deviation_m":0.03344397991895676,"lane_width":3.5,"goal":{"x":40.38964080810547,"y":41.94549560546875,"z":0.5999999642372131},"fault":{"name":"degraded_brake_pads","severity":1.0},"capture_flags":{"save_rgb":true,"save_depth":false,"video_rgb":true,"video_depth":false}}
{"frame":24302,"timestamp":{"delta_seconds":0.05000000074505806,"elapsed_seconds":234.95840294100344},"control":{"throttle":1.0,"steer":0.6890000104904175,"brake":0.0,"hand_brake":false,"reverse":false,"manual_gear_shift":false,"gear":0},"transform":{"location":{"x":-64.64484405517578,"y":24.471010208129883,"z":0.0018402481218799949},"rotation":{"pitch":0.0,"yaw":0.15919795632362366,"roll":0.0}},"velocity":{"x":9.195727734834236e-09,"y":1.2184877995480292e-08,"z":0.00028620718512684107},"angular_velocity":{"x":-3.605421807151288e-05,"y":8.214315130317118e-06,"z":1.2475427979552478e-07},"acceleration":{"x":-1.5943315645472467e-07,"y":3.0817483320788597e-07,"z":-0.002159500028938055},"speed_mps":0.0002862071855339459,"speed_kph":0.0010303458679222052,"speed_limit_kph":30.0,"collisions_this_frame":[],"waypoint":{"x":-64.64469146728516,"y":24.504404067993164,"z":0.0},"lane_deviation_m":0.03344487398862839,"lane_width":3.5,"goal":{"x":40.38964080810547,"y":41.94549560546875,"z":0.5999999642372131},"fault":{"name":"degraded_brake_pads","severity":1.0},"capture_flags":{"save_rgb":true,"save_depth":false,"video_rgb":true,"video_depth":false}}
{"frame":24303,"timestamp":{"delta_seconds":0.05000000074505806,"elapsed_seconds":235.0084029417485},"control":{"throttle":1.0,"steer":0.8059999942779541,"brake":0.0,"hand_brake":false,"reverse":false,"manual_gear_shift":false,"gear":0},"transform":{"location":{"x":-64.64484405517578,"y":24.471010208129883,"z":0.0018519210861995816},"rotation":{"pitch":0.0,"yaw":0.15919795632362366,"roll":0.0}},"velocity":{"x":9.244338627922843e-09,"y":-1.173847685720375e-08,"z":0.0002031898475252092},"angular_velocity":{"x":-4.427983640198363e-06,"y":7.769549483782612e-06,"z":1.7074032143682416e-07},"acceleration":{"x":9.72217861772151e-10,"y":-4.784670863955398e-07,"z":-0.0016603467520326376},"speed_mps":0.00020318984807457137,"speed_kph":0.0007314834530684569,"speed_limit_kph":30.0,"collisions_this_frame":[],"waypoint":{"x":-64.64469146728516,"y":24.504404067993164,"z":0.0},"lane_deviation_m":0.03344551846385002,"lane_width":3.5,"goal":{"x":40.38964080810547,"y":41.94549560546875,"z":0.5999999642372131},"fault":{"name":"degraded_brake_pads","severity":1.0},"capture_flags":{"save_rgb":true,"save_depth":false,"video_rgb":true,"video_depth":false}}
{"frame":24304,"timestamp":{"delta_seconds":0.05000000074505806,"elapsed_seconds":235.05840294249356},"control":{"throttle":1.0,"steer":0.7789999842643738,"brake":0.0,"hand_brake":false,"reverse":false,"manual_gear_shift":false,"gear":0},"transform":{"location":{"x":-64.64484405517578,"y":24.471010208129883,"z":0.0018543624319136143},"rotation":{"pitch":0.0,"yaw":0.15919795632362366,"roll":0.0}},"velocity":{"x":3.1033506320277127e-10,"y":1.172460240006501e-09,"z":7.500648644054309e-05},"angular_velocity":{"x":5.769925905951823e-07,"y":1.351539935967594e-06,"z":-4.132942876822199e-09},"acceleration":{"x":-1.7868006807475467e-07,"y":2.5821873350651003e-07,"z":-0.002563667483627796},"speed_mps":7.500648645034872e-05,"speed_kph":0.0002700233512212554,"speed_limit_kph":30.0,"collisions_this_frame":[],"waypoint":{"x":-64.64469146728516,"y":24.504404067993164,"z":0.0},"lane_deviation_m":0.033445652574300766,"lane_width":3.5,"goal":{"x":40.38964080810547,"y":41.94549560546875,"z":0.5999999642372131},"fault":{"name":"degraded_brake_pads","severity":1.0},"capture_flags":{"save_rgb":true,"save_depth":false,"video_rgb":true,"video_depth":false}}
{"frame":24305,"timestamp":{"delta_seconds":0.05000000074505806,"elapsed_seconds":235.10840294323862},"control":{"throttle":1.0,"steer":0.8849999904632568,"brake":0.0,"hand_brake":false,"reverse":false,"manual_gear_shift":false,"gear":0},"transform":{"location":{"x":-64.64484405517578,"y":24.471010208129883,"z":0.0018587493104860187},"rotation":{"pitch":0.0,"yaw":0.15919795632362366,"roll":0.0}},"velocity":{"x":1.6826953164184033e-09,"y":1.1384592824015272e-08,"z":9.126662916969508e-05},"angular_velocity":{"x":-1.597926348040346e-05,"y":2.5560966605553403e-06,"z":3.0904356407290834e-08},"acceleration":{"x":2.744720362102271e-08,"y":2.0424265301244304e-07,"z":0.0003252028545830399},"speed_mps":9.126662989526377e-05,"speed_kph":0.0003285598676229496,"speed_limit_kph":30.0,"collisions_this_frame":[],"waypoint":{"x":-64.64469146728516,"y":24.504404067993164,"z":0.0},"lane_deviation_m":0.033445898443460464,"lane_width":3.5,"goal":{"x":40.38964080810547,"y":41.94549560546875,"z":0.5999999642372131},"fault":{"name":"degraded_brake_pads","severity":1.0},"capture_flags":{"save_rgb":true,"save_depth":false,"video_rgb":true,"video_depth":false}}
{"frame":24306,"timestamp":{"delta_seconds":0.05000000074505806,"elapsed_seconds":235.15840294398367},"control":{"throttle":1.0,"steer":0.7149999737739563,"brake":0.0,"hand_brake":false,"reverse":false,"manual_gear_shift":false,"gear":0},"transform":{"location":{"x":-64.63878631591797,"y":24.47294044494629,"z":0.0018173599382862449},"rotation":{"pitch":0.00786837749183178,"yaw":0.263237327337265,"roll":-0.013275146484375}},"velocity":{"x":0.3672897219657898,"y":0.13978546857833862,"z":8.349418203579262e-05},"angular_velocity":{"x":0.6726722121238708,"y":-0.4427599608898163,"z":5.81527853012085},"acceleration":{"x":7.345794677734375,"y":2.7957091331481934,"z":-0.0001554489426780492},"speed_mps":0.3929907429681408,"speed_kph":1.414766674685307,"speed_limit_kph":30.0,"collisions_this_frame":[],"waypoint":{"x":-64.6386489868164,"y":24.50442123413086,"z":0.0},"lane_deviation_m":0.03153350204229355,"lane_width":3.5,"goal":{"x":40.38964080810547,"y":41.94549560546875,"z":0.5999999642372131},"fault":{"name":"degraded_brake_pads","severity":1.0},"capture_flags":{"save_rgb":true,"save_depth":false,"video_rgb":true,"video_depth":false}}
{"frame":24307,"timestamp":{"delta_seconds":0.05000000074505806,"elapsed_seconds":235.20840294472873},"control":{"throttle":1.0,"steer":0.8420000076293945,"brake":0.0,"hand_brake":false,"reverse":false,"manual_gear_shift":false,"gear":0},"transform":{"location":{"x":-64.59928894042969,"y":24.488080978393555,"z":0.0016486358363181353},"rotation":{"pitch":0.037306491285562515,"yaw":0.9575324654579163,"roll":-0.0653381273150444}},"velocity":{"x":1.014479398727417,"y":0.5363531112670898,"z":6.46495827822946e-05},"angular_velocity":{"x":1.2045972347259521,"y":-0.5609432458877563,"z":19.156982421875},"acceleration":{"x":12.943793296813965,"y":7.931352615356445,"z":-0.00037689198506996036},"speed_mps":1.1475378488693946,"speed_kph":4.131136255929821,"speed_limit_kph":30.0,"collisions_this_frame":[],"waypoint":{"x":-64.59927368164062,"y":24.50452995300293,"z":0.0},"lane_deviation_m":0.01653139479458332,"lane_width":3.5,"goal":{"x":40.38964080810547,"y":41.94549560546875,"z":0.5999999642372131},"fault":{"name":"degraded_brake_pads","severity":1.0},"capture_flags":{"save_rgb":true,"save_depth":false,"video_rgb":true,"video_depth":false}}
{"frame":24308,"timestamp":{"delta_seconds":0.05000000074505806,"elapsed_seconds":235.2584029454738},"control":{"throttle":1.0,"steer":1.0,"brake":0.0,"hand_brake":false,"reverse":false,"manual_gear_shift":false,"gear":0},"transform":{"location":{"x":-64.53604125976562,"y":24.51949691772461,"z":0.0015257644699886441},"rotation":{"pitch":0.05884890630841255,"yaw":2.281175374984741,"roll":-0.12014772742986679}},"velocity":{"x":1.3845661878585815,"y":0.9353092908859253,"z":4.166602957411669e-05},"angular_velocity":{"x":1.0601258277893066,"y":-0.2781255841255188,"z":31.376312255859375},"acceleration":{"x":7.401735782623291,"y":7.979123592376709,"z":-0.0004596710787154734},"speed_mps":1.6708761174649769,"speed_kph":6.015154022873917,"speed_limit_kph":30.0,"collisions_this_frame":[],"waypoint":{"x":-64.53600311279297,"y":24.50470733642578,"z":0.0},"lane_deviation_m":0.014868124388158321,"lane_width":3.5,"goal":{"x":40.38964080810547,"y":41.94549560546875,"z":0.5999999642372131},"fault":{"name":"degraded_brake_pads","severity":1.0},"capture_flags":{"save_rgb":true,"save_depth":false,"video_rgb":true,"video_depth":false}}
{"frame":24309,"timestamp":{"delta_seconds":0.05000000074505806,"elapsed_seconds":235.30840294621885},"control":{"throttle":1.0,"steer":1.0,"brake":0.0,"hand_brake":false,"reverse":false,"manual_gear_shift":false,"gear":0},"transform":{"location":{"x":-64.45924377441406,"y":24.567007064819336,"z":0.0014770888956263661},"rotation":{"pitch":0.06754373759031296,"yaw":4.173786163330078,"roll":-0.1630248874425888}},"velocity":{"x":1.6040632724761963,"y":1.3130472898483276,"z":2.231597864010837e-05},"angular_velocity":{"x":0.7180564999580383,"y":-0.04232754185795784,"z":41.68367385864258},"acceleration":{"x":4.389941692352295,"y":7.554759979248047,"z":-0.00038700102595612407},"speed_mps":2.0729477002527306,"speed_kph":7.46261172090983,"speed_limit_kph":30.0,"collisions_this_frame":[],"waypoint":{"x":-64.45906829833984,"y":24.504920959472656,"z":0.0},"lane_deviation_m":0.06210392341017723,"lane_width":3.5,"goal":{"x":40.38964080810547,"y":41.94549560546875,"z":0.5999999642372131},"fault":{"name":"degraded_brake_pads","severity":1.0},"capture_flags":{"save_rgb":true,"save_depth":false,"video_rgb":true,"video_depth":false}}
{"frame":24310,"timestamp":{"delta_seconds":0.05000000074505806,"elapsed_seconds":235.3584029469639},"control":{"throttle":1.0,"steer":0.5059999823570251,"brake":0.0,"hand_brake":false,"reverse":false,"manual_gear_shift":false,"gear":0},"transform":{"location":{"x":-64.36528015136719,"y":24.62653350830078,"z":0.0014321135822683573},"rotation":{"pitch":0.07544626295566559,"yaw":6.313847541809082,"roll":-0.1693115085363388}},"velocity":{"x":2.055882215499878,"y":1.4881922006607056,"z":1.9264220100012608e-05},"angular_velocity":{"x":-0.2654362916946411,"y":-0.24167107045650482,"z":42.18505096435547},"acceleration":{"x":9.036378860473633,"y":3.5028982162475586,"z":-6.103517080191523e-05},"speed_mps":2.537984970500643,"speed_kph":9.136745893802315,"speed_limit_kph":30.0,"collisions_this_frame":[],"waypoint":{"x":-64.36494445800781,"y":24.50518226623535,"z":0.0},"lane_deviation_m":0.12136015295982361,"lane_width":3.5,"goal":{"x":40.38964080810547,"y":41.94549560546875,"z":0.5999999642372131},"fault":{"name":"degraded_brake_pads","severity":1.0},"capture_flags":{"save_rgb":true,"save_depth":false,"video_rgb":true,"video_depth":false}}
{"frame":24311,"timestamp":{"delta_seconds":0.05000000074505806,"elapsed_seconds":235.40840294770896},"control":{"throttle":1.0,"steer":0.9100000262260437,"brake":0.0,"hand_brake":false,"reverse":false,"manual_gear_shift":false,"gear":0},"transform":{"location":{"x":-64.25216674804688,"y":24.69495391845703,"z":0.0014039230300113559},"rotation":{"pitch":0.08041181415319443,"yaw":8.585536003112793,"roll":-0.1658019721508026}},"velocity":{"x":2.3003592491149902,"y":1.759424090385437,"z":1.9073486328125e-05},"angular_velocity":{"x":0.16834203898906708,"y":0.018945051357150078,"z":48.763492584228516},"acceleration":{"x":4.889540672302246,"y":5.424637794494629,"z":-3.8146754377521574e-06},"speed_mps":2.8960707527927045,"speed_kph":10.425854710053736,"speed_limit_kph":30.0,"collisions_this_frame":[],"waypoint":{"x":-64.25164031982422,"y":24.505496978759766,"z":0.0},"lane_deviation_m":0.18946287035942078,"lane_width":3.5,"goal":{"x":40.38964080810547,"y":41.94549560546875,"z":0.5999999642372131},"fault":{"name":"degraded_brake_pads","severity":1.0},"capture_flags":{"save_rgb":true,"save_depth":false,"video_rgb":true,"video_depth":false}}
{"frame":24312,"timestamp":{"delta_seconds":0.05000000074505806,"elapsed_seconds":235.45840294845402},"control":{"throttle":1.0,"steer":0.6700000166893005,"brake":0.0,"hand_brake":false,"reverse":false,"manual_gear_shift":false,"gear":0},"transform":{"location":{"x":-64.12360382080078,"y":24.774826049804688,"z":0.001386947580613196},"rotation":{"pitch":0.08343758434057236,"yaw":11.017910957336426,"roll":-0.15814208984375}},"velocity":{"x":2.6960556507110596,"y":1.931626796722412,"z":1.4572143300028984e-05},"angular_velocity":{"x":-0.3736882507801056,"y":-0.1697615683078766,"z":47.4164924621582},"acceleration":{"x":7.913928031921387,"y":3.444054126739502,"z":-9.002686419989914e-05},"speed_mps":3.3166094364213987,"speed_kph":11.939793971117036,"speed_limit_kph":30.0,"collisions_this_frame":[],"waypoint":{"x":-64.12285614013672,"y":24.505855560302734,"z":0.0},"lane_deviation_m":0.2689751088619232,"lane_width":3.5,"goal":{"x":40.38964080810547,"y":41.94549560546875,"z":0.5999999642372131},"fault":{"name":"degraded_brake_pads","severity":1.0},"capture_flags":{"save_rgb":true,"save_depth":false,"video_rgb":true,"video_depth":false}}
{"frame":24313,"timestamp":{"delta_seconds":0.05000000074505806,"elapsed_seconds":235.50840294919908},"control":{"throttle":1.0,"steer":0.3869999945163727,"brake":0.0,"hand_brake":false,"reverse":false,"manual_gear_shift":false,"gear":0},"transform":{"location":{"x":-63.97126388549805,"y":24.85934066772461,"z":0.0013489914126694202},"rotation":{"pitch":0.08993309736251831,"yaw":13.138883590698242,"roll":-0.1170959398150444}},"velocity":{"x":3.2030324935913086,"y":1.9177610874176025,"z":2.2010803149896674e-05},"angular_velocity":{"x":-1.0233666896820068,"y":-0.381736159324646,"z":38.18821716308594},"acceleration":{"x":10.13953685760498,"y":-0.2773141860961914,"z":0.000148773193359375},"speed_mps":3.7332592655613106,"speed_kph":13.439733356020719,"speed_limit_kph":30.0,"collisions_this_frame":[],"waypoint":{"x":-63.97028350830078,"y":24.50627899169922,"z":0.0},"lane_deviation_m":0.3530656099319458,"lane_width":3.5,"goal":{"x":40.38964080810547,"y":41.94549560546875,"z":0.5999999642372131},"fault":{"name":"degraded_brake_pads","severity":1.0},"capture_flags":{"save_rgb":true,"save_depth":false,"video_rgb":true,"video_depth":false}}
{"frame":24314,"timestamp":{"delta_seconds":0.05000000074505806,"elapsed_seconds":235.55840294994414},"control":{"throttle":1.0,"steer":1.0,"brake":0.0,"hand_brake":false,"reverse":false,"manual_gear_shift":false,"gear":0},"transform":{"location":{"x":-63.79859161376953,"y":24.949064254760742,"z":0.0013343048049136996},"rotation":{"pitch":0.09255588799715042,"yaw":15.089584350585938,"roll":-0.0953979417681694}},"velocity":{"x":3.482913017272949,"y":2.134002447128296,"z":1.605033867235761e-05},"angular_velocity":{"x":0.06980366259813309,"y":0.03778185695409775,"z":41.53996276855469},"acceleration":{"x":5.5976104736328125,"y":4.324827194213867,"z":-0.00011920928955078125},"speed_mps":4.084684752890549,"speed_kph":14.704865110405978,"speed_limit_kph":30.0,"collisions_this_frame":[],"waypoint":{"x":-63.79736328125,"y":24.506759643554688,"z":0.0},"lane_deviation_m":0.44230830669403076,"lane_width":3.5,"goal":{"x":40.38964080810547,"y":41.94549560546875,"z":0.5999999642372131},"fault":{"name":"degraded_brake_pads","severity":1.0},"capture_flags":{"save_rgb":true,"save_depth":false,"video_rgb":true,"video_depth":false}}
{"frame":24315,"timestamp":{"delta_seconds":0.05000000074505806,"elapsed_seconds":235.6084029506892},"control":{"throttle":1.0,"steer":0.8410000205039978,"brake":0.0,"hand_brake":false,"reverse":false,"manual_gear_shift":false,"gear":0},"transform":{"location":{"x":-63.618446350097656,"y":25.05477523803711,"z":0.0013661956181749701},"rotation":{"pitch":0.08725566416978836,"yaw":17.464357376098633,"roll":-0.1259765326976776}},"velocity":{"x":3.536022186279297,"y":2.5533390045166016,"z":5.4931638260313775e-06},"angular_velocity":{"x":0.7791945338249207,"y":0.4009236991405487,"z":51.74971389770508},"acceleration":{"x":1.0621833801269531,"y":8.386731147766113,"z":-0.00021114348783157766},"speed_mps":4.361535621071485,"speed_kph":15.701528235857346,"speed_limit_kph":30.0,"collisions_this_frame":[],"waypoint":{"x":-63.61692428588867,"y":24.507261276245117,"z":0.0},"lane_deviation_m":0.5475178360939026,"lane_width":3.5,"goal":{"x":40.38964080810547,"y":41.94549560546875,"z":0.5999999642372131},"fault":{"name":"degraded_brake_pads","severity":1.0},"capture_flags":{"save_rgb":true,"save_depth":false,"video_rgb":true,"video_depth":false}}
{"frame":24316,"timestamp":{"delta_seconds":0.05000000074505806,"elapsed_seconds":235.65840295143425},"control":{"throttle":1.0,"steer":0.4569999873638153,"brake":0.0,"hand_brake":false,"reverse":false,"manual_gear_shift":false,"gear":0},"transform":{"location":{"x":-63.42913055419922,"y":25.176429748535156,"z":0.0013834381243214011},"rotation":{"pitch":0.08433917164802551,"yaw":19.98123550415039,"roll":-0.1385803073644638}},"velocity":{"x":3.8381869792938232,"y":2.7772982120513916,"z":-3.8146970382513246e-07},"angular_velocity":{"x":-0.18630915880203247,"y":-0.07183222472667694,"z":47.46319580078125},"acceleration":{"x":6.043295860290527,"y":4.479184150695801,"z":-0.00011749267287086695},"speed_mps":4.737622256647805,"speed_kph":17.0554401239321,"speed_limit_kph":30.0,"collisions_this_frame":[],"waypoint":{"x":-63.42727279663086,"y":24.507787704467773,"z":0.0},"lane_deviation_m":0.6686460375785828,"lane_width":3.5,"goal":{"x":40.38964080810547,"y":41.94549560546875,"z":0.5999999642372131},"fault":{"name":"degraded_brake_pads","severity":1.0},"capture_flags":{"save_rgb":true,"save_depth":false,"video_rgb":true,"video_depth":false}}
{"frame":24317,"timestamp":{"delta_seconds":0.05000000074505806,"elapsed_seconds":235.7084029521793},"control":{"throttle":1.0,"steer":0.04399999976158142,"brake":0.0,"hand_brake":false,"reverse":false,"manual_gear_shift":false,"gear":0},"transform":{"location":{"x":-63.21916198730469,"y":25.30430030822754,"z":0.0013672256609424949},"rotation":{"pitch":0.08705075830221176,"yaw":21.954639434814453,"roll":-0.0955505296587944}},"velocity":{"x":4.313360691070557,"y":2.7458858489990234,"z":1.2931823221151717e-05},"angular_velocity":{"x":-1.130858302116394,"y":-0.5268228650093079,"z":33.006813049316406},"acceleration":{"x":9.503474235534668,"y":-0.6282472610473633,"z":0.0002662658516783267},"speed_mps":5.113215186863642,"speed_kph":18.407574672709114,"speed_limit_kph":30.0,"collisions_this_frame":[],"waypoint":{"x":-63.216949462890625,"y":24.508373260498047,"z":0.0},"lane_deviation_m":0.7959312796592712,"lane_width":3.5,"goal":{"x":40.38964080810547,"y":41.94549560546875,"z":0.5999999642372131},"fault":{"name":"degraded_brake_pads","severity":1.0},"capture_flags":{"save_rgb":true,"save_depth":false,"video_rgb":true,"video_depth":false}}
{"frame":24318,"timestamp":{"delta_seconds":0.05000000074505806,"elapsed_seconds":235.75840295292437},"control":{"throttle":1.0,"steer":0.6600000262260437,"brake":0.0,"hand_brake":false,"reverse":false,"manual_gear_shift":false,"gear":0},"transform":{"location":{"x":-62.990150451660156,"y":25.437313079833984,"z":0.0016040802001953125},"rotation":{"pitch":0.08854656666517258,"yaw":23.51543617248535,"roll":-0.0639953464269638}},"velocity":{"x":4.590028762817383,"y":2.95123291015625,"z":0.0030757139902561903},"angular_velocity":{"x":0.1556963473558426,"y":0.08498745411634445,"z":33.133155822753906},"acceleration":{"x":5.533361434936523,"y":4.106941223144531,"z":0.06125564128160477},"speed_mps":5.456935879547858,"speed_kph":19.64496916637229,"speed_limit_kph":30.0,"collisions_this_frame":[],"waypoint":{"x":-62.987571716308594,"y":24.509010314941406,"z":0.0},"lane_deviation_m":0.9283077120780945,"lane_width":3.5,"goal":{"x":40.38964080810547,"y":41.94549560546875,"z":0.5999999642372131},"fault":{"name":"degraded_brake_pads","severity":1.0},"capture_flags":{"save_rgb":true,"save_depth":false,"video_rgb":true,"video_depth":false}}
{"frame":24319,"timestamp":{"delta_seconds":0.05000000074505806,"elapsed_seconds":235.80840295366943},"control":{"throttle":1.0,"steer":-0.009999999776482582,"brake":0.0,"hand_brake":false,"reverse":false,"manual_gear_shift":false,"gear":0},"transform":{"location":{"x":-62.755775451660156,"y":25.58370018005371,"z":0.0035909651778638363},"rotation":{"pitch":0.17761223018169403,"yaw":25.417537689208984,"roll":0.14424720406532288}},"velocity":{"x":4.546721935272217,"y":3.2739295959472656,"z":0.03285142034292221},"angular_velocity":{"x":0.32857775688171387,"y":-0.4994698166847229,"z":41.53303527832031},"acceleration":{"x":-0.8661365509033203,"y":6.4539337158203125,"z":0.5955141186714172},"speed_mps":5.602889841119804,"speed_kph":20.170403428031296,"speed_limit_kph":30.0,"collisions_this_frame":[],"waypoint":{"x":-62.75279235839844,"y":24.509662628173828,"z":0.0},"lane_deviation_m":1.0740476846694946,"lane_width":3.5,"goal":{"x":40.38964080810547,"y":41.94549560546875,"z":0.5999999642372131},"fault":{"name":"degraded_brake_pads","severity":1.0},"capture_flags":{"save_rgb":true,"save_depth":false,"video_rgb":true,"video_depth":false}}
{"frame":24320,"timestamp":{"delta_seconds":0.05000000074505806,"elapsed_seconds":235.8584029544145},"control":{"throttle":1.0,"steer":0.5329999923706055,"brake":0.0,"hand_brake":false,"reverse":false,"manual_gear_shift":false,"gear":0},"transform":{"location":{"x":-62.526126861572266,"y":25.749685287475586,"z":0.004868126008659601},"rotation":{"pitch":0.20638097822666168,"yaw":27.74434471130371,"roll":0.15357880294322968}},"velocity":{"x":4.400365352630615,"y":3.7319395542144775,"z":0.030310239642858505},"angular_velocity":{"x":-0.33800986409187317,"y":-0.9280626773834229,"z":48.486087799072266},"acceleration":{"x":-2.9271316528320312,"y":9.160199165344238,"z":-0.05082361400127411},"speed_mps":5.769879269410212,"speed_kph":20.771565369876765,"speed_limit_kph":30.0,"collisions_this_frame":[],"waypoint":{"x":-62.522682189941406,"y":24.51030158996582,"z":0.0},"lane_deviation_m":1.2393980026245117,"lane_width":3.5,"goal":{"x":40.38964080810547,"y":41.94549560546875,"z":0.5999999642372131},"fault":{"name":"degraded_brake_pads","severity":1.0},"capture_flags":{"save_rgb":true,"save_depth":false,"video_rgb":true,"video_depth":false}}
{"frame":24321,"timestamp":{"delta_seconds":0.05000000074505806,"elapsed_seconds":235.90840295515954},"control":{"throttle":1.0,"steer":0.5049999952316284,"brake":0.0,"hand_brake":false,"reverse":false,"manual_gear_shift":false,"gear":0},"transform":{"location":{"x":-62.30025100708008,"y":25.93443489074707,"z":0.003236923133954406},"rotation":{"pitch":0.0974053218960762,"yaw":30.387968063354492,"roll":-0.14840693771839142}},"velocity":{"x":4.380111217498779,"y":4.039481163024902,"z":-0.032828252762556076},"angular_velocity":{"x":1.1885992288589478,"y":2.08473539352417,"z":53.961669921875},"acceleration":{"x":-0.40508270263671875,"y":6.150832176208496,"z":-1.2627698183059692},"speed_mps":5.95851156231748,"speed_kph":21.45064162434293,"speed_limit_kph":30.0,"collisions_this_frame":[],"waypoint":{"x":-62.296295166015625,"y":24.51093101501465,"z":0.0},"lane_deviation_m":1.4235131740570068,"lane_width":3.5,"goal":{"x":40.38964080810547,"y":41.94549560546875,"z":0.5999999642372131},"fault":{"name":"degraded_brake_pads","severity":1.0},"capture_flags":{"save_rgb":true,"save_depth":false,"video_rgb":true,"video_depth":false}}
{"frame":24322,"timestamp":{"delta_seconds":0.05000000074505806,"elapsed_seconds":235.9584029559046},"control":{"throttle":1.0,"steer":0.7369999885559082,"brake":0.0,"hand_brake":false,"reverse":false,"manual_gear_shift":false,"gear":0},"transform":{"location":{"x":-62.07877731323242,"y":26.135597229003906,"z":0.002375106792896986},"rotation":{"pitch":0.06403301656246185,"yaw":33.39362335205078,"roll":-0.2178954929113388}},"velocity":{"x":4.146867752075195,"y":4.511415481567383,"z":-0.015120934695005417},"angular_velocity":{"x":0.8863723874092102,"y":1.1184743642807007,"z":65.2679443359375},"acceleration":{"x":-4.66486930847168,"y":9.43868637084961,"z":0.3541463613510132},"speed_mps":6.127773693862486,"speed_kph":22.05998529790495,"speed_limit_kph":30.0,"collisions_this_frame":[],"waypoint":{"x":-62.07426452636719,"y":24.511547088623047,"z":0.0},"lane_deviation_m":1.6240581274032593,"lane_width":3.5,"goal":{"x":40.38964080810547,"y":41.94549560546875,"z":0.5999999642372131},"fault":{"name":"degraded_brake_pads","severity":1.0},"capture_flags":{"save_rgb":true,"save_depth":false,"video_rgb":true,"video_depth":false}}
{"frame":24323,"timestamp":{"delta_seconds":0.05000000074505806,"elapsed_seconds":236.00840295664966},"control":{"throttle":1.0,"steer":0.8709999918937683,"brake":0.0,"hand_brake":false,"reverse":false,"manual_gear_shift":false,"gear":0},"transform":{"location":{"x":-61.8682861328125,"y":26.35977554321289,"z":0.001978912390768528},"rotation":{"pitch":0.050522904843091965,"yaw":36.90154266357422,"roll":-0.27789306640625}},"velocity":{"x":3.856065273284912,"y":5.049336910247803,"z":-0.006665410939604044},"angular_velocity":{"x":0.9082632660865784,"y":0.8826231956481934,"z":75.0206069946289},"acceleration":{"x":-5.816049575805664,"y":10.758428573608398,"z":0.1691104769706726},"speed_mps":6.353352426296503,"speed_kph":22.872068734667412,"speed_limit_kph":30.0,"collisions_this_frame":[],"waypoint":{"x":-61.87287521362305,"y":28.012121200561523,"z":0.0},"lane_deviation_m":1.6523531675338745,"lane_width":3.5,"goal":{"x":40.38964080810547,"y":41.94549560546875,"z":0.5999999642372131},"fault":{"name":"degraded_brake_pads","severity":1.0},"capture_flags":{"save_rgb":true,"save_depth":false,"video_rgb":true,"video_depth":false}}
