{"frame":3020,"timestamp":{"delta_seconds":0.05000000074505806,"elapsed_seconds":33.802956415340304},"control":{"throttle":0.0,"steer":0.0,"brake":1.0,"hand_brake":false,"reverse":false,"manual_gear_shift":false,"gear":0},"transform":{"location":{"x":55.54227828979492,"y":130.46006774902344,"z":0.48242926597595215},"rotation":{"pitch":0.0,"yaw":-179.67953491210938,"roll":0.0}},"velocity":{"x":0.0,"y":0.0,"z":-1.470000147819519},"angular_velocity":{"x":0.0,"y":0.0,"z":0.0},"acceleration":{"x":0.0,"y":0.0,"z":-9.80000114440918},"speed_mps":1.470000147819519,"speed_kph":5.2920005321502686,"speed_limit_kph":30.0,"collisions_this_frame":[],"waypoint":{"x":55.541141510009766,"y":130.66226196289062,"z":0.0},"lane_deviation_m":0.5230886936187744,"lane_width":3.5,"goal":{"x":-87.27606201171875,"y":24.441530227661133,"z":0.5999999642372131},"fault":{"name":"degraded_brake_pads","severity":1.0},"capture_flags":{"save_rgb":true,"save_depth":false,"video_rgb":true,"video_depth":false}}
{"frame":3021,"timestamp":{"delta_seconds":0.05000000074505806,"elapsed_seconds":33.85295641608536},"control":{"throttle":0.0,"steer":-0.4480000138282776,"brake":1.0,"hand_brake":false,"reverse":false,"manual_gear_shift":false,"gear":0},"transform":{"location":{"x":55.54227828979492,"y":130.46006774902344,"z":0.3942292630672455},"rotation":{"pitch":0.0,"yaw":-179.67953491210938,"roll":0.0}},"velocity":{"x":0.0,"y":0.0,"z":-1.9600002765655518},"angular_velocity":{"x":0.0,"y":0.0,"z":0.0},"acceleration":{"x":0.0,"y":0.0,"z":-9.800003051757812},"speed_mps":1.9600002765655518,"speed_kph":7.056000995635986,"speed_limit_kph":30.0,"collisions_this_frame":[],"waypoint":{"x":55.541141510009766,"y":130.66226196289062,"z":0.0},"lane_deviation_m":0.4430581331253052,"lane_width":3.5,"goal":{"x":-87.27606201171875,"y":24.441530227661133,"z":0.5999999642372131},"fault":{"name":"degraded_brake_pads","severity":1.0},"capture_flags":{"save_rgb":true,"save_depth":false,"video_rgb":true,"video_depth":false}}
{"frame":3022,"timestamp":{"delta_seconds":0.05000000074505806,"elapsed_seconds":33.90295641683042},"control":{"throttle":0.0,"steer":-0.43799999356269836,"brake":1.0,"hand_brake":false,"reverse":false,"manual_gear_shift":false,"gear":0},"transform":{"location":{"x":55.54227828979492,"y":130.46006774902344,"z":0.2815293073654175},"rotation":{"pitch":0.0,"yaw":-179.67953491210938,"roll":0.0}},"velocity":{"x":0.0,"y":0.0,"z":-2.450000286102295},"angular_velocity":{"x":0.0,"y":0.0,"z":0.0},"acceleration":{"x":0.0,"y":0.0,"z":-9.800000190734863},"speed_mps":2.450000286102295,"speed_kph":8.820001029968262,"speed_limit_kph":30.0,"collisions_this_frame":[],"waypoint":{"x":55.541141510009766,"y":130.66226196289062,"z":0.0},"lane_deviation_m":0.34661585092544556,"lane_width":3.5,"goal":{"x":-87.27606201171875,"y":24.441530227661133,"z":0.5999999642372131},"fault":{"name":"degraded_brake_pads","severity":1.0},"capture_flags":{"save_rgb":true,"save_depth":false,"video_rgb":true,"video_depth":false}}
{"frame":3023,"timestamp":{"delta_seconds":0.05000000074505806,"elapsed_seconds":33.95295641757548},"control":{"throttle":1.0,"steer":-0.17499999701976776,"brake":0.0,"hand_brake":false,"reverse":false,"manual_gear_shift":false,"gear":0},"transform":{"location":{"x":55.54227828979492,"y":130.46006774902344,"z":0.1443292200565338},"rotation":{"pitch":0.0,"yaw":-179.67953491210938,"roll":0.0}},"velocity":{"x":0.0,"y":0.0,"z":-2.93999981880188},"angular_velocity":{"x":0.0,"y":0.0,"z":0.0},"acceleration":{"x":0.0,"y":0.0,"z":-9.7999906539917},"speed_mps":2.93999981880188,"speed_kph":10.583999347686769,"speed_limit_kph":30.0,"collisions_this_frame":[],"waypoint":{"x":55.541141510009766,"y":130.66226196289062,"z":0.0},"lane_deviation_m":0.2484244704246521,"lane_width":3.5,"goal":{"x":-87.27606201171875,"y":24.441530227661133,"z":0.5999999642372131},"fault":{"name":"degraded_brake_pads","severity":1.0},"capture_flags":{"save_rgb":true,"save_depth":false,"video_rgb":true,"video_depth":false}}
{"frame":3024,"timestamp":{"delta_seconds":0.05000000074505806,"elapsed_seconds":34.00295641832054},"control":{"throttle":1.0,"steer":-0.1080000028014183,"brake":0.0,"hand_brake":false,"reverse":false,"manual_gear_shift":false,"gear":0},"transform":{"location":{"x":55.54227828979492,"y":130.46006774902344,"z":0.008101386949419975},"rotation":{"pitch":0.0,"yaw":-179.67953491210938,"roll":0.0}},"velocity":{"x":8.715981607565482e-07,"y":8.678702215547673e-06,"z":-2.064970016479492},"angular_velocity":{"x":-0.0009277644567191601,"y":0.0008015037165023386,"z":-1.801110215637891e-06},"acceleration":{"x":1.7431962987757288e-05,"y":0.00017357405158691108,"z":17.500595092773438},"speed_mps":2.0649700164979135,"speed_kph":7.433892059392488,"speed_limit_kph":30.0,"collisions_this_frame":[],"waypoint":{"x":55.541141510009766,"y":130.66226196289062,"z":0.0},"lane_deviation_m":0.2023596465587616,"lane_width":3.5,"goal":{"x":-87.27606201171875,"y":24.441530227661133,"z":0.5999999642372131},"fault":{"name":"degraded_brake_pads","severity":1.0},"capture_flags":{"save_rgb":true,"save_depth":false,"video_rgb":true,"video_depth":false}}
{"frame":3025,"timestamp":{"delta_seconds":0.05000000074505806,"elapsed_seconds":34.052956419065595},"control":{"throttle":0.0,"steer":-0.03700000047683716,"brake":1.0,"hand_brake":false,"reverse":false,"manual_gear_shift":false,"gear":0},"transform":{"location":{"x":55.54227828979492,"y":130.46006774902344,"z":-0.05158466100692749},"rotation":{"pitch":0.0,"yaw":-179.67953491210938,"roll":0.0}},"velocity":{"x":1.9701016640283342e-07,"y":1.8156099486077437e-06,"z":-0.7382649779319763},"angular_velocity":{"x":-0.00017978150572162122,"y":0.00025608556461520493,"z":-1.41498844641319e-07},"acceleration":{"x":-1.3491760910255834e-05,"y":-0.0001372618426103145,"z":26.534099578857422},"speed_mps":0.7382649779342352,"speed_kph":2.6577539205632466,"speed_limit_kph":30.0,"collisions_this_frame":[],"waypoint":{"x":55.541141510009766,"y":130.66226196289062,"z":0.0},"lane_deviation_m":0.2086738497018814,"lane_width":3.5,"goal":{"x":-87.27606201171875,"y":24.441530227661133,"z":0.5999999642372131},"fault":{"name":"degraded_brake_pads","severity":1.0},"capture_flags":{"save_rgb":true,"save_depth":false,"video_rgb":true,"video_depth":false}}
{"frame":3026,"timestamp":{"delta_seconds":0.05000000074505806,"elapsed_seconds":34.10295641981065},"control":{"throttle":0.0,"steer":-0.07500000298023224,"brake":1.0,"hand_brake":false,"reverse":false,"manual_gear_shift":false,"gear":0},"transform":{"location":{"x":55.54227828979492,"y":130.46006774902344,"z":-0.067733533680439},"rotation":{"pitch":0.0,"yaw":-179.67953491210938,"roll":0.0}},"velocity":{"x":5.977113204380657e-08,"y":-2.214683014756247e-08,"z":-0.11216750741004944},"angular_velocity":{"x":3.580968041205779e-05,"y":8.401191735174507e-05,"z":-4.026093591846802e-08},"acceleration":{"x":-2.744780431385152e-06,"y":-3.675513653433882e-05,"z":12.52194881439209},"speed_mps":0.11216750741006755,"speed_kph":0.4038030266762432,"speed_limit_kph":30.0,"collisions_this_frame":[],"waypoint":{"x":55.541141510009766,"y":130.66226196289062,"z":0.0},"lane_deviation_m":0.21324077248573303,"lane_width":3.5,"goal":{"x":-87.27606201171875,"y":24.441530227661133,"z":0.5999999642372131},"fault":{"name":"degraded_brake_pads","severity":1.0},"capture_flags":{"save_rgb":true,"save_depth":false,"video_rgb":true,"video_depth":false}}
{"frame":3027,"timestamp":{"delta_seconds":0.05000000074505806,"elapsed_seconds":34.15295642055571},"control":{"throttle":0.0,"steer":-0.050999999046325684,"brake":1.0,"hand_brake":false,"reverse":false,"manual_gear_shift":false,"gear":0},"transform":{"location":{"x":55.54227828979492,"y":130.46006774902344,"z":-0.06445693969726562},"rotation":{"pitch":0.0,"yaw":-179.67953491210938,"roll":0.0}},"velocity":{"x":-1.1240997466188674e-08,"y":-1.7104667904277449e-07,"z":0.15053790807724},"angular_velocity":{"x":1.9153860193910077e-05,"y":-1.1806074326159433e-05,"z":9.08911790276079e-09},"acceleration":{"x":-1.4202425973053323e-06,"y":-2.977996928166249e-06,"z":5.254108428955078},"speed_mps":0.15053790807733758,"speed_kph":0.5419364690784153,"speed_limit_kph":30.0,"collisions_this_frame":[],"waypoint":{"x":55.541141510009766,"y":130.66226196289062,"z":0.0},"lane_deviation_m":0.21222274005413055,"lane_width":3.5,"goal":{"x":-87.27606201171875,"y":24.441530227661133,"z":0.5999999642372131},"fault":{"name":"degraded_brake_pads","severity":1.0},"capture_flags":{"save_rgb":true,"save_depth":false,"video_rgb":true,"video_depth":false}}
{"frame":3028,"timestamp":{"delta_seconds":0.05000000074505806,"elapsed_seconds":34.20295642130077},"control":{"throttle":0.0,"steer":-0.04500000178813934,"brake":1.0,"hand_brake":false,"reverse":false,"manual_gear_shift":false,"gear":0},"transform":{"location":{"x":55.54227828979492,"y":130.46006774902344,"z":-0.05396583303809166},"rotation":{"pitch":0.0,"yaw":-179.67953491210938,"roll":0.0}},"velocity":{"x":-1.6294020355189787e-08,"y":1.1232982188857932e-07,"z":0.2333775907754898},"angular_velocity":{"x":1.878142575151287e-05,"y":-2.41342877416173e-05,"z":2.0878050399630865e-09},"acceleration":{"x":-1.0106045778002226e-07,"y":5.667529876518529e-06,"z":1.6567935943603516},"speed_mps":0.23337759077551742,"speed_kph":0.8401593267918628,"speed_limit_kph":30.0,"collisions_this_frame":[],"waypoint":{"x":55.541141510009766,"y":130.66226196289062,"z":0.0},"lane_deviation_m":0.20927520096302032,"lane_width":3.5,"goal":{"x":-87.27606201171875,"y":24.441530227661133,"z":0.5999999642372131},"fault":{"name":"degraded_brake_pads","severity":1.0},"capture_flags":{"save_rgb":true,"save_depth":false,"video_rgb":true,"video_depth":false}}
{"frame":3029,"timestamp":{"delta_seconds":0.05000000074505806,"elapsed_seconds":34.25295642204583},"control":{"throttle":0.0,"steer":-0.04899999871850014,"brake":1.0,"hand_brake":false,"reverse":false,"manual_gear_shift":false,"gear":0},"transform":{"location":{"x":55.54227828979492,"y":130.46006774902344,"z":-0.0420817956328392},"rotation":{"pitch":0.0,"yaw":-179.67953491210938,"roll":0.0}},"velocity":{"x":-1.0102700009895216e-08,"y":-2.1264781935315114e-07,"z":0.2337147295475006},"angular_velocity":{"x":5.0595557695487514e-05,"y":-1.1270063623669557e-05,"z":1.3439750701227382e-10},"acceleration":{"x":1.238264104586051e-07,"y":-6.499552910099737e-06,"z":0.0067427754402160645},"speed_mps":0.23371472954759756,"speed_kph":0.8413730263713513,"speed_limit_kph":30.0,"collisions_this_frame":[],"waypoint":{"x":55.541141510009766,"y":130.66226196289062,"z":0.0},"lane_deviation_m":0.20653007924556732,"lane_width":3.5,"goal":{"x":-87.27606201171875,"y":24.441530227661133,"z":0.5999999642372131},"fault":{"name":"degraded_brake_pads","severity":1.0},"capture_flags":{"save_rgb":true,"save_depth":false,"video_rgb":true,"video_depth":false}}
{"frame":3030,"timestamp":{"delta_seconds":0.05000000074505806,"elapsed_seconds":34.302956422790885},"control":{"throttle":0.0,"steer":-0.03400000184774399,"brake":1.0,"hand_brake":false,"reverse":false,"manual_gear_shift":false,"gear":0},"transform":{"location":{"x":55.54227828979492,"y":130.46006774902344,"z":-0.03129516541957855},"rotation":{"pitch":0.0,"yaw":-179.67953491210938,"roll":0.0}},"velocity":{"x":-2.280192212822385e-08,"y":-3.6870787312182074e-08,"z":0.20145051181316376},"angular_velocity":{"x":7.332797395065427e-05,"y":-3.237684359191917e-05,"z":9.578291049194831e-09},"acceleration":{"x":-2.53984438813859e-07,"y":3.5155405839759624e-06,"z":-0.6452843546867371},"speed_mps":0.20145051181316842,"speed_kph":0.7252218425274063,"speed_limit_kph":30.0,"collisions_this_frame":[],"waypoint":{"x":55.541141510009766,"y":130.66226196289062,"z":0.0},"lane_deviation_m":0.20460493862628937,"lane_width":3.5,"goal":{"x":-87.27606201171875,"y":24.441530227661133,"z":0.5999999642372131},"fault":{"name":"degraded_brake_pads","severity":1.0},"capture_flags":{"save_rgb":true,"save_depth":false,"video_rgb":true,"video_depth":false}}
{"frame":3031,"timestamp":{"delta_seconds":0.05000000074505806,"elapsed_seconds":34.35295642353594},"control":{"throttle":0.0,"steer":-0.0430000014603138,"brake":1.0,"hand_brake":false,"reverse":false,"manual_gear_shift":false,"gear":0},"transform":{"location":{"x":55.54227828979492,"y":130.46006774902344,"z":-0.022437667474150658},"rotation":{"pitch":0.0,"yaw":-179.67953491210938,"roll":0.0}},"velocity":{"x":-7.322911166340873e-09,"y":8.917584182199789e-08,"z":0.16077634692192078},"angular_velocity":{"x":-2.860701351892203e-05,"y":-1.1418785106798168e-05,"z":1.2392267656480271e-08},"acceleration":{"x":3.0958020147409115e-07,"y":2.520932639527018e-06,"z":-0.8134832978248596},"speed_mps":0.16077634692194567,"speed_kph":0.5787948489190045,"speed_limit_kph":30.0,"collisions_this_frame":[],"waypoint":{"x":55.541141510009766,"y":130.66226196289062,"z":0.0},"lane_deviation_m":0.20343855023384094,"lane_width":3.5,"goal":{"x":-87.27606201171875,"y":24.441530227661133,"z":0.5999999642372131},"fault":{"name":"degraded_brake_pads","severity":1.0},"capture_flags":{"save_rgb":true,"save_depth":false,"video_rgb":true,"video_depth":false}}
{"frame":3032,"timestamp":{"delta_seconds":0.05000000074505806,"elapsed_seconds":34.402956424281},"control":{"throttle":0.0,"steer":-0.032999999821186066,"brake":1.0,"hand_brake":false,"reverse":false,"manual_gear_shift":false,"gear":0},"transform":{"location":{"x":55.54227828979492,"y":130.46006774902344,"z":-0.015569457784295082},"rotation":{"pitch":0.0,"yaw":-179.67953491210938,"roll":0.0}},"velocity":{"x":-2.743577143249354e-09,"y":4.1735557232414067e-08,"z":0.12243284285068512},"angular_velocity":{"x":4.5133321691537276e-05,"y":-4.757037459057756e-06,"z":5.348833820306709e-09},"acceleration":{"x":9.158668490272248e-08,"y":-9.488056775808218e-07,"z":-0.7668700814247131},"speed_mps":0.12243284285069227,"speed_kph":0.44075823426249217,"speed_limit_kph":30.0,"collisions_this_frame":[],"waypoint":{"x":55.541141510009766,"y":130.66226196289062,"z":0.0},"lane_deviation_m":0.20279596745967865,"lane_width":3.5,"goal":{"x":-87.27606201171875,"y":24.441530227661133,"z":0.5999999642372131},"fault":{"name":"degraded_brake_pads","severity":1.0},"capture_flags":{"save_rgb":true,"save_depth":false,"video_rgb":true,"video_depth":false}}
{"frame":3033,"timestamp":{"delta_seconds":0.05000000074505806,"elapsed_seconds":34.45295642502606},"control":{"throttle":0.0,"steer":-0.04800000041723251,"brake":1.0,"hand_brake":false,"reverse":false,"manual_gear_shift":false,"gear":0},"transform":{"location":{"x":55.54227828979492,"y":130.46006774902344,"z":-0.01043929997831583},"rotation":{"pitch":0.0,"yaw":-179.67953491210938,"roll":0.0}},"velocity":{"x":-1.1475748351585935e-08,"y":-1.2859659648256638e-07,"z":0.09031426906585693},"angular_velocity":{"x":5.869269443792291e-05,"y":-1.4526362974720541e-05,"z":3.280770100033692e-09},"acceleration":{"x":-1.746434321603374e-07,"y":-3.4066431453538826e-06,"z":-0.6423714756965637},"speed_mps":0.09031426906594922,"speed_kph":0.3251313686374172,"speed_limit_kph":30.0,"collisions_this_frame":[],"waypoint":{"x":55.541141510009766,"y":130.66226196289062,"z":0.0},"lane_deviation_m":0.20246672630310059,"lane_width":3.5,"goal":{"x":-87.27606201171875,"y":24.441530227661133,"z":0.5999999642372131},"fault":{"name":"degraded_brake_pads","severity":1.0},"capture_flags":{"save_rgb":true,"save_depth":false,"video_rgb":true,"video_depth":false}}
{"frame":3034,"timestamp":{"delta_seconds":0.05000000074505806,"elapsed_seconds":34.50295642577112},"control":{"throttle":0.0,"steer":-0.04899999871850014,"brake":1.0,"hand_brake":false,"reverse":false,"manual_gear_shift":false,"gear":0},"transform":{"location":{"x":55.54227828979492,"y":130.46006774902344,"z":-0.006706085056066513},"rotation":{"pitch":0.0,"yaw":-179.67953491210938,"roll":0.0}},"velocity":{"x":1.0169231678958113e-08,"y":-2.691196243631566e-07,"z":0.06512124836444855},"angular_velocity":{"x":-2.242037226096727e-05,"y":1.9522705770214088e-05,"z":1.4803099190885405e-08},"acceleration":{"x":4.3289958284731256e-07,"y":-2.810460500768386e-06,"z":-0.5038604140281677},"speed_mps":0.06512124836500542,"speed_kph":0.2344364941140195,"speed_limit_kph":30.0,"collisions_this_frame":[],"waypoint":{"x":55.541141510009766,"y":130.66226196289062,"z":0.0},"lane_deviation_m":0.20230859518051147,"lane_width":3.5,"goal":{"x":-87.27606201171875,"y":24.441530227661133,"z":0.5999999642372131},"fault":{"name":"degraded_brake_pads","severity":1.0},"capture_flags":{"save_rgb":true,"save_depth":false,"video_rgb":true,"video_depth":false}}
{"frame":3035,"timestamp":{"delta_seconds":0.05000000074505806,"elapsed_seconds":34.552956426516175},"control":{"throttle":0.0,"steer":-0.03500000014901161,"brake":1.0,"hand_brake":false,"reverse":false,"manual_gear_shift":false,"gear":0},"transform":{"location":{"x":55.54227828979492,"y":130.46006774902344,"z":-0.004042396321892738},"rotation":{"pitch":0.0,"yaw":-179.67953491210938,"roll":0.0}},"velocity":{"x":-1.797680049264727e-08,"y":2.961140666002393e-09,"z":0.04613979160785675},"angular_velocity":{"x":7.557908247690648e-05,"y":-2.6381771021988243e-05,"z":-3.617290689206243e-09},"acceleration":{"x":-5.629206611956761e-07,"y":5.4416154853242915e-06,"z":-0.37962913513183594},"speed_mps":0.046139791607860345,"speed_kph":0.16610324978829724,"speed_limit_kph":30.0,"collisions_this_frame":[],"waypoint":{"x":55.541141510009766,"y":130.66226196289062,"z":0.0},"lane_deviation_m":0.2022378146648407,"lane_width":3.5,"goal":{"x":-87.27606201171875,"y":24.441530227661133,"z":0.5999999642372131},"fault":{"name":"degraded_brake_pads","severity":1.0},"capture_flags":{"save_rgb":true,"save_depth":false,"video_rgb":true,"video_depth":false}}
{"frame":3036,"timestamp":{"delta_seconds":0.05000000074505806,"elapsed_seconds":34.60295642726123},"control":{"throttle":0.0,"steer":-0.0560000017285347,"brake":1.0,"hand_brake":false,"reverse":false,"manual_gear_shift":false,"gear":0},"transform":{"location":{"x":55.54227828979492,"y":130.46006774902344,"z":-0.002169723389670253},"rotation":{"pitch":0.0,"yaw":-179.67953491210938,"roll":0.0}},"velocity":{"x":-1.1326493520869008e-08,"y":-1.3178976132621756e-07,"z":0.03225536271929741},"angular_velocity":{"x":-7.002266647759825e-05,"y":-9.853650226432364e-06,"z":1.1563809465542363e-08},"acceleration":{"x":1.3300613943556527e-07,"y":-2.6950181108986726e-06,"z":-0.27768856287002563},"speed_mps":0.03225536271956863,"speed_kph":0.11611930579044707,"speed_limit_kph":30.0,"collisions_this_frame":[],"waypoint":{"x":55.541141510009766,"y":130.66226196289062,"z":0.0},"lane_deviation_m":0.20220905542373657,"lane_width":3.5,"goal":{"x":-87.27606201171875,"y":24.441530227661133,"z":0.5999999642372131},"fault":{"name":"degraded_brake_pads","severity":1.0},"capture_flags":{"save_rgb":true,"save_depth":false,"video_rgb":true,"video_depth":false}}
{"frame":3037,"timestamp":{"delta_seconds":0.05000000074505806,"elapsed_seconds":34.65295642800629},"control":{"throttle":0.0,"steer":-0.054999999701976776,"brake":1.0,"hand_brake":false,"reverse":false,"manual_gear_shift":false,"gear":0},"transform":{"location":{"x":55.54227828979492,"y":130.46006774902344,"z":-0.000869483919814229},"rotation":{"pitch":0.0,"yaw":-179.67953491210938,"roll":0.0}},"velocity":{"x":3.070257381665442e-09,"y":-1.589490636888513e-07,"z":0.022295521572232246},"angular_velocity":{"x":-5.076559773442568e-06,"y":7.289491350093158e-06,"z":1.3973365575736807e-08},"acceleration":{"x":2.879349949580501e-07,"y":-5.43186047252675e-07,"z":-0.19919681549072266},"speed_mps":0.022295521572799046,"speed_kph":0.08026387766207657,"speed_limit_kph":30.0,"collisions_this_frame":[],"waypoint":{"x":55.541141510009766,"y":130.66226196289062,"z":0.0},"lane_deviation_m":0.2021992802619934,"lane_width":3.5,"goal":{"x":-87.27606201171875,"y":24.441530227661133,"z":0.5999999642372131},"fault":{"name":"degraded_brake_pads","severity":1.0},"capture_flags":{"save_rgb":true,"save_depth":false,"video_rgb":true,"video_depth":false}}
{"frame":3038,"timestamp":{"delta_seconds":0.05000000074505806,"elapsed_seconds":34.70295642875135},"control":{"throttle":0.0,"steer":-0.04699999839067459,"brake":1.0,"hand_brake":false,"reverse":false,"manual_gear_shift":false,"gear":0},"transform":{"location":{"x":55.54227828979492,"y":130.46006774902344,"z":2.4948119971668348e-05},"rotation":{"pitch":0.0,"yaw":-179.67953491210938,"roll":0.0}},"velocity":{"x":3.6663339031406394e-09,"y":-3.464847608825039e-08,"z":0.01527915894985199},"angular_velocity":{"x":4.4770598606191925e-07,"y":4.561964487947989e-06,"z":2.2693256995776068e-10},"acceleration":{"x":1.1921530429503946e-08,"y":2.486011680957745e-06,"z":-0.14032724499702454},"speed_mps":0.015279158949891715,"speed_kph":0.055004972219610176,"speed_limit_kph":30.0,"collisions_this_frame":[],"waypoint":{"x":55.541141510009766,"y":130.66226196289062,"z":0.0},"lane_deviation_m":0.20219741761684418,"lane_width":3.5,"goal":{"x":-87.27606201171875,"y":24.441530227661133,"z":0.5999999642372131},"fault":{"name":"degraded_brake_pads","severity":1.0},"capture_flags":{"save_rgb":true,"save_depth":false,"video_rgb":true,"video_depth":false}}
{"frame":3039,"timestamp":{"delta_seconds":0.05000000074505806,"elapsed_seconds":34.75295642949641},"control":{"throttle":0.0,"steer":-0.05299999937415123,"brake":1.0,"hand_brake":false,"reverse":false,"manual_gear_shift":false,"gear":0},"transform":{"location":{"x":55.54227828979492,"y":130.46006774902344,"z":0.0006347274756990373},"rotation":{"pitch":0.0,"yaw":-179.67953491210938,"roll":0.0}},"velocity":{"x":-1.0573326214569079e-08,"y":6.05573191592157e-08,"z":0.010384445078670979},"angular_velocity":{"x":4.623430868377909e-05,"y":-1.603933924343437e-05,"z":-4.673534448329519e-09},"acceleration":{"x":-2.8479320235419436e-07,"y":1.9041158338950481e-06,"z":-0.09789428114891052},"speed_mps":0.010384445078852932,"speed_kph":0.03738400228387056,"speed_limit_kph":30.0,"collisions_this_frame":[],"waypoint":{"x":55.541141510009766,"y":130.66226196289062,"z":0.0},"lane_deviation_m":0.20219841599464417,"lane_width":3.5,"goal":{"x":-87.27606201171875,"y":24.441530227661133,"z":0.5999999642372131},"fault":{"name":"degraded_brake_pads","severity":1.0},"capture_flags":{"save_rgb":true,"save_depth":false,"video_rgb":true,"video_depth":false}}
{"frame":3040,"timestamp":{"delta_seconds":0.05000000074505806,"elapsed_seconds":34.802956430241466},"control":{"throttle":0.0,"steer":-0.04500000178813934,"brake":1.0,"hand_brake":false,"reverse":false,"manual_gear_shift":false,"gear":0},"transform":{"location":{"x":55.54227828979492,"y":130.46006774902344,"z":0.0010480880737304688},"rotation":{"pitch":0.0,"yaw":-179.67953491210938,"roll":0.0}},"velocity":{"x":1.9105865334267946e-08,"y":7.698513826426279e-08,"z":0.007018451578915119},"angular_velocity":{"x":4.6064957132330164e-05,"y":2.362624218221754e-05,"z":-6.224711857072407e-09},"acceleration":{"x":5.935838771620183e-07,"y":3.2855638210094185e-07,"z":-0.06731986999511719},"speed_mps":0.007018451579363348,"speed_kph":0.025266425685708055,"speed_limit_kph":30.0,"collisions_this_frame":[],"waypoint":{"x":55.541141510009766,"y":130.66226196289062,"z":0.0},"lane_deviation_m":0.20220012962818146,"lane_width":3.5,"goal":{"x":-87.27606201171875,"y":24.441530227661133,"z":0.5999999642372131},"fault":{"name":"degraded_brake_pads","severity":1.0},"capture_flags":{"save_rgb":true,"save_depth":false,"video_rgb":true,"video_depth":false}}
{"frame":3041,"timestamp":{"delta_seconds":0.05000000074505806,"elapsed_seconds":34.852956430986524},"control":{"throttle":0.0,"steer":-0.0560000017285347,"brake":1.0,"hand_brake":false,"reverse":false,"manual_gear_shift":false,"gear":0},"transform":{"location":{"x":55.54227828979492,"y":130.46006774902344,"z":0.0013261032290756702},"rotation":{"pitch":0.0,"yaw":-179.67953491210938,"roll":0.0}},"velocity":{"x":2.6505557748635056e-09,"y":6.134963825843442e-08,"z":0.00471076974645257},"angular_velocity":{"x":-1.287694976781495e-05,"y":2.4031426164583536e-06,"z":-3.5632499173487986e-09},"acceleration":{"x":-3.29106200069873e-07,"y":-3.1271000011656724e-07,"z":-0.046153634786605835},"speed_mps":0.004710769746852802,"speed_kph":0.016958771088670086,"speed_limit_kph":30.0,"collisions_this_frame":[],"waypoint":{"x":55.541141510009766,"y":130.66226196289062,"z":0.0},"lane_deviation_m":0.20220176875591278,"lane_width":3.5,"goal":{"x":-87.27606201171875,"y":24.441530227661133,"z":0.5999999642372131},"fault":{"name":"degraded_brake_pads","severity":1.0},"capture_flags":{"save_rgb":true,"save_depth":false,"video_rgb":true,"video_depth":false}}
{"frame":3042,"timestamp":{"delta_seconds":0.05000000074505806,"elapsed_seconds":34.90295643173158},"control":{"throttle":0.0,"steer":-0.05000000074505806,"brake":1.0,"hand_brake":false,"reverse":false,"manual_gear_shift":false,"gear":0},"transform":{"location":{"x":55.54227828979492,"y":130.46006774902344,"z":0.00151256553363055},"rotation":{"pitch":0.0,"yaw":-179.67953491210938,"roll":0.0}},"velocity":{"x":7.237481280952807e-09,"y":3.2603111321805045e-07,"z":0.0031518936157226562},"angular_velocity":{"x":-1.1761629139073193e-05,"y":1.9276017155789305e-06,"z":-1.4402905534893762e-08},"acceleration":{"x":9.17385136744997e-08,"y":5.293629783409415e-06,"z":-0.031177522614598274},"speed_mps":0.0031518936325932554,"speed_kph":0.01134681707733572,"speed_limit_kph":30.0,"collisions_this_frame":[],"waypoint":{"x":55.541141510009766,"y":130.66226196289062,"z":0.0},"lane_deviation_m":0.20220306515693665,"lane_width":3.5,"goal":{"x":-87.27606201171875,"y":24.441530227661133,"z":0.5999999642372131},"fault":{"name":"degraded_brake_pads","severity":1.0},"capture_flags":{"save_rgb":true,"save_depth":false,"video_rgb":true,"video_depth":false}}
{"frame":3043,"timestamp":{"delta_seconds":0.05000000074505806,"elapsed_seconds":34.95295643247664},"control":{"throttle":0.0,"steer":-0.05900000035762787,"brake":1.0,"hand_brake":false,"reverse":false,"manual_gear_shift":false,"gear":0},"transform":{"location":{"x":55.54227828979492,"y":130.46006774902344,"z":0.0015981292817741632},"rotation":{"pitch":0.0,"yaw":-179.67953491210938,"roll":0.0}},"velocity":{"x":4.3798864535204984e-10,"y":2.713766100725934e-08,"z":0.0005053615313954651},"angular_velocity":{"x":2.8280214792175684e-07,"y":-1.3291011669025465e-07,"z":-1.3002816601215272e-09},"acceleration":{"x":-1.3598985049156909e-07,"y":-5.977868568152189e-06,"z":-0.052930641919374466},"speed_mps":0.0005053615321242944,"speed_kph":0.0018193015156474598,"speed_limit_kph":30.0,"collisions_this_frame":[],"waypoint":{"x":55.541141510009766,"y":130.66226196289062,"z":0.0},"lane_deviation_m":0.20220373570919037,"lane_width":3.5,"goal":{"x":-87.27606201171875,"y":24.441530227661133,"z":0.5999999642372131},"fault":{"name":"degraded_brake_pads","severity":1.0},"capture_flags":{"save_rgb":true,"save_depth":false,"video_rgb":true,"video_depth":false}}
{"frame":3044,"timestamp":{"delta_seconds":0.05000000074505806,"elapsed_seconds":35.0029564332217},"control":{"throttle":0.0,"steer":-0.05400000140070915,"brake":1.0,"hand_brake":false,"reverse":false,"manual_gear_shift":false,"gear":0},"transform":{"location":{"x":55.54227828979492,"y":130.46006774902344,"z":0.0016384124755859375},"rotation":{"pitch":0.0,"yaw":-179.67953491210938,"roll":0.0}},"velocity":{"x":1.4343922494219896e-08,"y":3.592265329643851e-08,"z":0.0009361553238704801},"angular_velocity":{"x":-6.176330498419702e-05,"y":1.932222585310228e-05,"z":-4.655806407072305e-09},"acceleration":{"x":2.781186765332677e-07,"y":1.756998528890108e-07,"z":0.008615875616669655},"speed_mps":0.0009361553246695916,"speed_kph":0.00337015916881053,"speed_limit_kph":30.0,"collisions_this_frame":[],"waypoint":{"x":55.541141510009766,"y":130.66226196289062,"z":0.0},"lane_deviation_m":0.20220406353473663,"lane_width":3.5,"goal":{"x":-87.27606201171875,"y":24.441530227661133,"z":0.5999999642372131},"fault":{"name":"degraded_brake_pads","severity":1.0},"capture_flags":{"save_rgb":true,"save_depth":false,"video_rgb":true,"video_depth":false}}
{"frame":3045,"timestamp":{"delta_seconds":0.05000000074505806,"elapsed_seconds":35.052956433966756},"control":{"throttle":0.0,"steer":-0.05000000074505806,"brake":1.0,"hand_brake":false,"reverse":false,"manual_gear_shift":false,"gear":0},"transform":{"location":{"x":55.54227828979492,"y":130.46006774902344,"z":0.0016878127353265882},"rotation":{"pitch":0.0,"yaw":-179.67953491210938,"roll":0.0}},"velocity":{"x":1.5794567431726136e-08,"y":-1.635253354947963e-08,"z":0.0009837817633524537},"angular_velocity":{"x":4.0542890928918496e-05,"y":1.9442508346401155e-05,"z":-1.6600122165755238e-08},"acceleration":{"x":2.9012898750124805e-08,"y":-1.0455037227075081e-06,"z":0.000952528789639473},"speed_mps":0.0009837817636151511,"speed_kph":0.003541614349014544,"speed_limit_kph":30.0,"collisions_this_frame":[],"waypoint":{"x":55.541141510009766,"y":130.66226196289062,"z":0.0},"lane_deviation_m":0.20220446586608887,"lane_width":3.5,"goal":{"x":-87.27606201171875,"y":24.441530227661133,"z":0.5999999642372131},"fault":{"name":"degraded_brake_pads","severity":1.0},"capture_flags":{"save_rgb":true,"save_depth":false,"video_rgb":true,"video_depth":false}}
{"frame":3046,"timestamp":{"delta_seconds":0.05000000074505806,"elapsed_seconds":35.102956434711814},"control":{"throttle":0.0,"steer":-0.050999999046325684,"brake":1.0,"hand_brake":false,"reverse":false,"manual_gear_shift":false,"gear":0},"transform":{"location":{"x":55.54227828979492,"y":130.46006774902344,"z":0.0017334365984424949},"rotation":{"pitch":0.0,"yaw":-179.67953491210938,"roll":0.0}},"velocity":{"x":-1.598938759173052e-08,"y":-4.336008174732342e-08,"z":0.0008583545568399131},"angular_velocity":{"x":4.150335371377878e-05,"y":-2.1187868696870282e-05,"z":5.028641503201925e-09},"acceleration":{"x":-6.356791004691331e-07,"y":-5.401509497460211e-07,"z":-0.0025085441302508116},"speed_mps":0.0008583545580840128,"speed_kph":0.003090076409102446,"speed_limit_kph":30.0,"collisions_this_frame":[],"waypoint":{"x":55.541141510009766,"y":130.66226196289062,"z":0.0},"lane_deviation_m":0.2022048532962799,"lane_width":3.5,"goal":{"x":-87.27606201171875,"y":24.441530227661133,"z":0.5999999642372131},"fault":{"name":"degraded_brake_pads","severity":1.0},"capture_flags":{"save_rgb":true,"save_depth":false,"video_rgb":true,"video_depth":false}}
{"frame":3047,"timestamp":{"delta_seconds":0.05000000074505806,"elapsed_seconds":35.15295643545687},"control":{"throttle":0.0,"steer":-0.052000001072883606,"brake":1.0,"hand_brake":false,"reverse":false,"manual_gear_shift":false,"gear":0},"transform":{"location":{"x":55.54227828979492,"y":130.46006774902344,"z":0.0017717360751703382},"rotation":{"pitch":0.0,"yaw":-179.67953491210938,"roll":0.0}},"velocity":{"x":1.5823630405975564e-08,"y":-4.143658749455881e-09,"z":0.0006970500689931214},"angular_velocity":{"x":4.408169479575008e-05,"y":1.9214869098505005e-05,"z":-1.5402697783883923e-08},"acceleration":{"x":6.362603244269849e-07,"y":7.843284492992098e-07,"z":-0.003226089756935835},"speed_mps":0.0006970500691850424,"speed_kph":0.0025093802490661525,"speed_limit_kph":30.0,"collisions_this_frame":[],"waypoint":{"x":55.541141510009766,"y":130.66226196289062,"z":0.0},"lane_deviation_m":0.20220518112182617,"lane_width":3.5,"goal":{"x":-87.27606201171875,"y":24.441530227661133,"z":0.5999999642372131},"fault":{"name":"degraded_brake_pads","severity":1.0},"capture_flags":{"save_rgb":true,"save_depth":false,"video_rgb":true,"video_depth":false}}
{"frame":3048,"timestamp":{"delta_seconds":0.05000000074505806,"elapsed_seconds":35.20295643620193},"control":{"throttle":0.0,"steer":-0.06499999761581421,"brake":1.0,"hand_brake":false,"reverse":false,"manual_gear_shift":false,"gear":0},"transform":{"location":{"x":55.54227828979492,"y":130.46006774902344,"z":0.0018013381632044911},"rotation":{"pitch":0.0,"yaw":-179.67953491210938,"roll":0.0}},"velocity":{"x":-1.5777366968450224e-08,"y":-4.19687289365811e-08,"z":0.0005304431542754173},"angular_velocity":{"x":4.164296478847973e-05,"y":-2.0890323867206462e-05,"z":4.555143373607962e-09},"acceleration":{"x":-6.320199190668063e-07,"y":-7.565014357169275e-07,"z":-0.003332138294354081},"speed_mps":0.0005304431561703419,"speed_kph":0.0019095953622132308,"speed_limit_kph":30.0,"collisions_this_frame":[],"waypoint":{"x":55.541141510009766,"y":130.66226196289062,"z":0.0},"lane_deviation_m":0.20220543444156647,"lane_width":3.5,"goal":{"x":-87.27606201171875,"y":24.441530227661133,"z":0.5999999642372131},"fault":{"name":"degraded_brake_pads","severity":1.0},"capture_flags":{"save_rgb":true,"save_depth":false,"video_rgb":true,"video_depth":false}}
{"frame":3049,"timestamp":{"delta_seconds":0.05000000074505806,"elapsed_seconds":35.25295643694699},"control":{"throttle":0.0,"steer":-0.054999999701976776,"brake":1.0,"hand_brake":false,"reverse":false,"manual_gear_shift":false,"gear":0},"transform":{"location":{"x":55.54227828979492,"y":130.46006774902344,"z":0.001823921105824411},"rotation":{"pitch":0.0,"yaw":-179.67953491210938,"roll":0.0}},"velocity":{"x":-6.653149697832816e-10,"y":2.2826462942049375e-09,"z":0.00039606093196198344},"angular_velocity":{"x":-1.9696475646924227e-05,"y":-7.045619554446603e-07,"z":-7.853389605294581e-10},"acceleration":{"x":3.022410339781345e-07,"y":8.850275321492518e-07,"z":-0.0026876444462686777},"speed_mps":0.00039606093196912015,"speed_kph":0.0014258193550888325,"speed_limit_kph":30.0,"collisions_this_frame":[],"waypoint":{"x":55.541141510009766,"y":130.66226196289062,"z":0.0},"lane_deviation_m":0.20220564305782318,"lane_width":3.5,"goal":{"x":-87.27606201171875,"y":24.441530227661133,"z":0.5999999642372131},"fault":{"name":"degraded_brake_pads","severity":1.0},"capture_flags":{"save_rgb":true,"save_depth":false,"video_rgb":true,"video_depth":false}}
{"frame":3050,"timestamp":{"delta_seconds":0.05000000074505806,"elapsed_seconds":35.302956437692046},"control":{"throttle":0.0,"steer":-0.04800000041723251,"brake":1.0,"hand_brake":false,"reverse":false,"manual_gear_shift":false,"gear":0},"transform":{"location":{"x":55.54227828979492,"y":130.46006774902344,"z":0.0018400955013930798},"rotation":{"pitch":0.0,"yaw":-179.67953491210938,"roll":0.0}},"velocity":{"x":-3.525656155911605e-10,"y":2.6527413155008617e-08,"z":0.00028283119900152087},"angular_velocity":{"x":4.196610348117247e-07,"y":5.174807711227913e-07,"z":1.1544556421938523e-08},"acceleration":{"x":6.254987194864725e-09,"y":4.84895338104252e-07,"z":-0.0022645946592092514},"speed_mps":0.0002828312002457753,"speed_kph":0.0010181923208847912,"speed_limit_kph":30.0,"collisions_this_frame":[],"waypoint":{"x":55.541141510009766,"y":130.66226196289062,"z":0.0},"lane_deviation_m":0.20220579206943512,"lane_width":3.5,"goal":{"x":-87.27606201171875,"y":24.441530227661133,"z":0.5999999642372131},"fault":{"name":"degraded_brake_pads","severity":1.0},"capture_flags":{"save_rgb":true,"save_depth":false,"video_rgb":true,"video_depth":false}}
{"frame":3051,"timestamp":{"delta_seconds":0.05000000074505806,"elapsed_seconds":35.352956438437104},"control":{"throttle":0.0,"steer":-0.039000000804662704,"brake":1.0,"hand_brake":false,"reverse":false,"manual_gear_shift":false,"gear":0},"transform":{"location":{"x":55.54227828979492,"y":130.46006774902344,"z":0.0018519973382353783},"rotation":{"pitch":0.0,"yaw":-179.67953491210938,"roll":0.0}},"velocity":{"x":1.070054600482706e-09,"y":2.9169399340389646e-08,"z":0.000205564487259835},"angular_velocity":{"x":1.5349895647887024e-06,"y":-1.823267439249321e-07,"z":-1.2918158986963135e-08},"acceleration":{"x":2.8452404876588844e-08,"y":5.283972370762058e-08,"z":-0.0015453342348337173},"speed_mps":0.00020556448933217465,"speed_kph":0.0007400321615958288,"speed_limit_kph":30.0,"collisions_this_frame":[],"waypoint":{"x":55.541141510009766,"y":130.66226196289062,"z":0.0},"lane_deviation_m":0.20220589637756348,"lane_width":3.5,"goal":{"x":-87.27606201171875,"y":24.441530227661133,"z":0.5999999642372131},"fault":{"name":"degraded_brake_pads","severity":1.0},"capture_flags":{"save_rgb":true,"save_depth":false,"video_rgb":true,"video_depth":false}}
{"frame":3052,"timestamp":{"delta_seconds":0.05000000074505806,"elapsed_seconds":35.40295643918216},"control":{"throttle":0.0,"steer":-0.06700000166893005,"brake":1.0,"hand_brake":false,"reverse":false,"manual_gear_shift":false,"gear":0},"transform":{"location":{"x":55.54227828979492,"y":130.46006774902344,"z":0.0018545150524005294},"rotation":{"pitch":0.0,"yaw":-179.67953491210938,"roll":0.0}},"velocity":{"x":-8.807667373211814e-10,"y":-8.514242644253045e-09,"z":7.833480776753277e-05},"angular_velocity":{"x":1.1191390512976795e-05,"y":-1.2734603842545766e-06,"z":8.762716108279278e-10},"acceleration":{"x":-3.9016427422211564e-08,"y":-7.53672793507576e-07,"z":-0.002544593531638384},"speed_mps":7.833480823519254e-05,"speed_kph":0.00028200530964669315,"speed_limit_kph":30.0,"collisions_this_frame":[],"waypoint":{"x":55.541141510009766,"y":130.66226196289062,"z":0.0},"lane_deviation_m":0.20220591127872467,"lane_width":3.5,"goal":{"x":-87.27606201171875,"y":24.441530227661133,"z":0.5999999642372131},"fault":{"name":"degraded_brake_pads","severity":1.0},"capture_flags":{"save_rgb":true,"save_depth":false,"video_rgb":true,"video_depth":false}}
{"frame":3053,"timestamp":{"delta_seconds":0.05000000074505806,"elapsed_seconds":35.45295643992722},"control":{"throttle":0.0,"steer":-0.061000000685453415,"brake":1.0,"hand_brake":false,"reverse":false,"manual_gear_shift":false,"gear":0},"transform":{"location":{"x":55.54227828979492,"y":130.46006774902344,"z":0.0018587112426757812},"rotation":{"pitch":0.0,"yaw":-179.67953491210938,"roll":0.0}},"velocity":{"x":-1.2294530948864235e-09,"y":1.0469686229086506e-09,"z":8.808136044535786e-05},"angular_velocity":{"x":-7.3603309829195496e-06,"y":-1.6511160083609866e-06,"z":-1.470008670345635e-09},"acceleration":{"x":-6.973727373349448e-09,"y":1.9122423111639364e-07,"z":0.00019493105355650187},"speed_mps":8.808136046016065e-05,"speed_kph":0.00031709289765657835,"speed_limit_kph":30.0,"collisions_this_frame":[],"waypoint":{"x":55.541141510009766,"y":130.66226196289062,"z":0.0},"lane_deviation_m":0.20220595598220825,"lane_width":3.5,"goal":{"x":-87.27606201171875,"y":24.441530227661133,"z":0.5999999642372131},"fault":{"name":"degraded_brake_pads","severity":1.0},"capture_flags":{"save_rgb":true,"save_depth":false,"video_rgb":true,"video_depth":false}}
{"frame":3054,"timestamp":{"delta_seconds":0.05000000074505806,"elapsed_seconds":35.50295644067228},"control":{"throttle":0.0,"steer":-0.05400000140070915,"brake":1.0,"hand_brake":false,"reverse":false,"manual_gear_shift":false,"gear":0},"transform":{"location":{"x":55.54227828979492,"y":130.46006774902344,"z":0.0018632507417351007},"rotation":{"pitch":0.0,"yaw":-179.67953491210938,"roll":0.0}},"velocity":{"x":-7.104777877131596e-10,"y":9.360999086993615e-09,"z":8.577346306992695e-05},"angular_velocity":{"x":-9.011670044856146e-06,"y":-1.0377647186032846e-06,"z":-2.518874442358765e-09},"acceleration":{"x":1.0379506143465278e-08,"y":1.662806141666806e-07,"z":-4.6157947508618236e-05},"speed_mps":8.577346358368189e-05,"speed_kph":0.00030878446890125484,"speed_limit_kph":30.0,"collisions_this_frame":[],"waypoint":{"x":55.541141510009766,"y":130.66226196289062,"z":0.0},"lane_deviation_m":0.20220600068569183,"lane_width":3.5,"goal":{"x":-87.27606201171875,"y":24.441530227661133,"z":0.5999999642372131},"fault":{"name":"degraded_brake_pads","severity":1.0},"capture_flags":{"save_rgb":true,"save_depth":false,"video_rgb":true,"video_depth":false}}
{"frame":3055,"timestamp":{"delta_seconds":0.05000000074505806,"elapsed_seconds":35.55295644141734},"control":{"throttle":0.0,"steer":-0.05000000074505806,"brake":1.0,"hand_brake":false,"reverse":false,"manual_gear_shift":false,"gear":0},"transform":{"location":{"x":55.54227828979492,"y":130.46006774902344,"z":0.0018669128185138106},"rotation":{"pitch":0.0,"yaw":-179.67953491210938,"roll":0.0}},"velocity":{"x":-8.6279988709137e-10,"y":1.4380157065119192e-09,"z":6.692886381642893e-05},"angular_velocity":{"x":2.5744282083906e-06,"y":-1.2840746421716176e-06,"z":9.704229780860274e-11},"acceleration":{"x":-3.046441987564208e-09,"y":-1.5845967027416918e-07,"z":-0.00037689198506996036},"speed_mps":6.692886383743865e-05,"speed_kph":0.00024094390981477915,"speed_limit_kph":30.0,"collisions_this_frame":[],"waypoint":{"x":55.541141510009766,"y":130.66226196289062,"z":0.0},"lane_deviation_m":0.20220603048801422,"lane_width":3.5,"goal":{"x":-87.27606201171875,"y":24.441530227661133,"z":0.5999999642372131},"fault":{"name":"degraded_brake_pads","severity":1.0},"capture_flags":{"save_rgb":true,"save_depth":false,"video_rgb":true,"video_depth":false}}
{"frame":3056,"timestamp":{"delta_seconds":0.05000000074505806,"elapsed_seconds":35.602956442162395},"control":{"throttle":0.0,"steer":-0.052000001072883606,"brake":1.0,"hand_brake":false,"reverse":false,"manual_gear_shift":false,"gear":0},"transform":{"location":{"x":55.54227828979492,"y":130.46006774902344,"z":0.0018700789660215378},"rotation":{"pitch":0.0,"yaw":-179.67953491210938,"roll":0.0}},"velocity":{"x":-1.032962382296887e-09,"y":-1.9358122216317497e-08,"z":5.6476590543752536e-05},"angular_velocity":{"x":2.638284399836266e-07,"y":-1.1587861763473484e-06,"z":5.109644374279299e-10},"acceleration":{"x":-3.4032499041103392e-09,"y":-4.1592275579205307e-07,"z":-0.00020904546545352787},"speed_mps":5.647659387082923e-05,"speed_kph":0.00020331573793498523,"speed_limit_kph":30.0,"collisions_this_frame":[],"waypoint":{"x":55.541141510009766,"y":130.66226196289062,"z":0.0},"lane_deviation_m":0.2022060602903366,"lane_width":3.5,"goal":{"x":-87.27606201171875,"y":24.441530227661133,"z":0.5999999642372131},"fault":{"name":"degraded_brake_pads","severity":1.0},"capture_flags":{"save_rgb":true,"save_depth":false,"video_rgb":true,"video_depth":false}}
{"frame":3057,"timestamp":{"delta_seconds":0.05000000074505806,"elapsed_seconds":35.65295644290745},"control":{"throttle":0.0,"steer":-0.052000001072883606,"brake":1.0,"hand_brake":false,"reverse":false,"manual_gear_shift":false,"gear":0},"transform":{"location":{"x":55.54227828979492,"y":130.46006774902344,"z":0.0018721771193668246},"rotation":{"pitch":0.0,"yaw":-179.67953491210938,"roll":0.0}},"velocity":{"x":-2.71310363064714e-10,"y":-6.013551434591591e-09,"z":3.9768219721736386e-05},"angular_velocity":{"x":3.27529073729238e-06,"y":-4.4433770085561264e-07,"z":1.1247028863792252e-09},"acceleration":{"x":1.5233039718509644e-08,"y":2.668914191872318e-07,"z":-0.000334167416440323},"speed_mps":3.976822017733146e-05,"speed_kph":0.00014316559263839328,"speed_limit_kph":30.0,"collisions_this_frame":[],"waypoint":{"x":55.541141510009766,"y":130.66226196289062,"z":0.0},"lane_deviation_m":0.202206090092659,"lane_width":3.5,"goal":{"x":-87.27606201171875,"y":24.441530227661133,"z":0.5999999642372131},"fault":{"name":"degraded_brake_pads","severity":1.0},"capture_flags":{"save_rgb":true,"save_depth":false,"video_rgb":true,"video_depth":false}}
{"frame":3058,"timestamp":{"delta_seconds":0.05000000074505806,"elapsed_seconds":35.70295644365251},"control":{"throttle":0.0,"steer":-0.05999999865889549,"brake":1.0,"hand_brake":false,"reverse":false,"manual_gear_shift":false,"gear":0},"transform":{"location":{"x":55.54227828979492,"y":130.46006774902344,"z":0.0018740844679996371},"rotation":{"pitch":0.0,"yaw":-179.67953491210938,"roll":0.0}},"velocity":{"x":1.6652442980102933e-08,"y":7.083325215262448e-08,"z":3.187179390806705e-05},"angular_velocity":{"x":-5.4478779929922894e-05,"y":2.0375551684992388e-05,"z":-2.2272605093576203e-08},"acceleration":{"x":3.384750471013831e-07,"y":1.5369359971373342e-06,"z":-0.00015792851627338678},"speed_mps":3.187187696970116e-05,"speed_kph":0.00011473875709092418,"speed_limit_kph":30.0,"collisions_this_frame":[],"waypoint":{"x":55.541141510009766,"y":130.66226196289062,"z":0.0},"lane_deviation_m":0.2022061049938202,"lane_width":3.5,"goal":{"x":-87.27606201171875,"y":24.441530227661133,"z":0.5999999642372131},"fault":{"name":"degraded_brake_pads","severity":1.0},"capture_flags":{"save_rgb":true,"save_depth":false,"video_rgb":true,"video_depth":false}}
{"frame":3059,"timestamp":{"delta_seconds":0.05000000074505806,"elapsed_seconds":35.75295644439757},"control":{"throttle":0.0,"steer":-0.05400000140070915,"brake":1.0,"hand_brake":false,"reverse":false,"manual_gear_shift":false,"gear":0},"transform":{"location":{"x":55.54227828979492,"y":130.46006774902344,"z":0.0018751525785773993},"rotation":{"pitch":0.0,"yaw":-179.67953491210938,"roll":0.0}},"velocity":{"x":7.115605882290765e-10,"y":-1.1516493536589678e-08,"z":1.9197463188902475e-05},"angular_velocity":{"x":4.991900368622737e-06,"y":1.1556808203749824e-06,"z":1.2721206310573052e-09},"acceleration":{"x":-3.188176549429045e-07,"y":-1.646994860493578e-06,"z":-0.00025348662165924907},"speed_mps":1.9197466656442132e-05,"speed_kph":6.911087996319168e-05,"speed_limit_kph":30.0,"collisions_this_frame":[],"waypoint":{"x":55.541141510009766,"y":130.66226196289062,"z":0.0},"lane_deviation_m":0.2022061049938202,"lane_width":3.5,"goal":{"x":-87.27606201171875,"y":24.441530227661133,"z":0.5999999642372131},"fault":{"name":"degraded_brake_pads","severity":1.0},"capture_flags":{"save_rgb":true,"save_depth":false,"video_rgb":true,"video_depth":false}}
{"frame":3060,"timestamp":{"delta_seconds":0.05000000074505806,"elapsed_seconds":35.80295644514263},"control":{"throttle":0.0,"steer":-0.04500000178813934,"brake":1.0,"hand_brake":false,"reverse":false,"manual_gear_shift":false,"gear":0},"transform":{"location":{"x":55.54227828979492,"y":130.46006774902344,"z":0.0018751525785773993},"rotation":{"pitch":0.0,"yaw":-179.67953491210938,"roll":0.0}},"velocity":{"x":1.4250757018885452e-08,"y":3.9588474720630984e-08,"z":1.0871887070607045e-06},"angular_velocity":{"x":-4.0566221287008375e-05,"y":1.8846056264010258e-05,"z":-6.7329604114263475e-09},"acceleration":{"x":2.707839144022728e-07,"y":1.0220993544862722e-06,"z":-0.00036220549372956157},"speed_mps":1.0880025809558742e-06,"speed_kph":3.916809291441147e-06,"speed_limit_kph":30.0,"collisions_this_frame":[],"waypoint":{"x":55.541141510009766,"y":130.66226196289062,"z":0.0},"lane_deviation_m":0.2022061049938202,"lane_width":3.5,"goal":{"x":-87.27606201171875,"y":24.441530227661133,"z":0.5999999642372131},"fault":{"name":"degraded_brake_pads","severity":1.0},"capture_flags":{"save_rgb":true,"save_depth":false,"video_rgb":true,"video_depth":false}}
{"frame":3061,"timestamp":{"delta_seconds":0.05000000074505806,"elapsed_seconds":35.852956445887685},"control":{"throttle":0.0,"steer":-0.0560000017285347,"brake":1.0,"hand_brake":false,"reverse":false,"manual_gear_shift":false,"gear":0},"transform":{"location":{"x":55.54227828979492,"y":130.46006774902344,"z":0.0018751525785773993},"rotation":{"pitch":0.0,"yaw":-179.67953491210938,"roll":0.0}},"velocity":{"x":-2.5767024069978106e-09,"y":-1.496936441469643e-08,"z":1.0766982995846774e-05},"angular_velocity":{"x":2.527304968680255e-05,"y":-3.6676888157671783e-06,"z":-8.962961622893673e-11},"acceleration":{"x":-3.365491920703789e-07,"y":-1.091156718757702e-06,"z":0.00019359588623046875},"speed_mps":1.0766993710136542e-05,"speed_kph":3.876117735649155e-05,"speed_limit_kph":30.0,"collisions_this_frame":[],"waypoint":{"x":55.541141510009766,"y":130.66226196289062,"z":0.0},"lane_deviation_m":0.2022061049938202,"lane_width":3.5,"goal":{"x":-87.27606201171875,"y":24.441530227661133,"z":0.5999999642372131},"fault":{"name":"degraded_brake_pads","severity":1.0},"capture_flags":{"save_rgb":true,"save_depth":false,"video_rgb":true,"video_depth":false}}
{"frame":3062,"timestamp":{"delta_seconds":0.05000000074505806,"elapsed_seconds":35.90295644663274},"control":{"throttle":0.0,"steer":-0.04399999976158142,"brake":1.0,"hand_brake":false,"reverse":false,"manual_gear_shift":false,"gear":0},"transform":{"location":{"x":55.54227828979492,"y":130.46006774902344,"z":0.0018763351254165173},"rotation":{"pitch":0.0,"yaw":-179.67953491210938,"roll":0.0}},"velocity":{"x":1.0323613075513549e-08,"y":2.8185302980432425e-08,"z":5.645752025884576e-06},"angular_velocity":{"x":-1.364341915177647e-05,"y":1.3107445738569368e-05,"z":-8.753850977427646e-09},"acceleration":{"x":2.580063096502272e-07,"y":8.630933621134318e-07,"z":-0.00010242461576126516},"speed_mps":5.645831818790817e-06,"speed_kph":2.0324994547646943e-05,"speed_limit_kph":30.0,"collisions_this_frame":[],"waypoint":{"x":55.541141510009766,"y":130.66226196289062,"z":0.0},"lane_deviation_m":0.20220611989498138,"lane_width":3.5,"goal":{"x":-87.27606201171875,"y":24.441530227661133,"z":0.5999999642372131},"fault":{"name":"degraded_brake_pads","severity":1.0},"capture_flags":{"save_rgb":true,"save_depth":false,"video_rgb":true,"video_depth":false}}
{"frame":3063,"timestamp":{"delta_seconds":0.05000000074505806,"elapsed_seconds":35.9529564473778},"control":{"throttle":0.0,"steer":-0.03500000014901161,"brake":1.0,"hand_brake":false,"reverse":false,"manual_gear_shift":false,"gear":0},"transform":{"location":{"x":55.54227828979492,"y":130.46006774902344,"z":0.0018763351254165173},"rotation":{"pitch":0.0,"yaw":-179.67953491210938,"roll":0.0}},"velocity":{"x":-7.892230868833394e-09,"y":-2.934073073390664e-08,"z":9.527206202619709e-06},"angular_velocity":{"x":3.675375410239212e-05,"y":-9.8767532108468e-06,"z":1.0403970129857498e-08},"acceleration":{"x":-3.6431686112337047e-07,"y":-1.150520688497636e-06,"z":7.762908353470266e-05},"speed_mps":9.527254651421024e-06,"speed_kph":3.4298116745115686e-05,"speed_limit_kph":30.0,"collisions_this_frame":[],"waypoint":{"x":55.541141510009766,"y":130.66226196289062,"z":0.0},"lane_deviation_m":0.20220611989498138,"lane_width":3.5,"goal":{"x":-87.27606201171875,"y":24.441530227661133,"z":0.5999999642372131},"fault":{"name":"degraded_brake_pads","severity":1.0},"capture_flags":{"save_rgb":true,"save_depth":false,"video_rgb":true,"video_depth":false}}
{"frame":3064,"timestamp":{"delta_seconds":0.05000000074505806,"elapsed_seconds":36.00295644812286},"control":{"throttle":0.0,"steer":-0.06300000101327896,"brake":1.0,"hand_brake":false,"reverse":false,"manual_gear_shift":false,"gear":0},"transform":{"location":{"x":55.54227828979492,"y":130.46006774902344,"z":0.0018763351254165173},"rotation":{"pitch":0.0,"yaw":-179.67953491210938,"roll":0.0}},"velocity":{"x":5.80886139189829e-09,"y":3.8451542394568605e-08,"z":4.749298113893019e-06},"angular_velocity":{"x":-1.943352253874764e-05,"y":6.362413387250854e-06,"z":-1.6189215301665172e-08},"acceleration":{"x":2.7402182922742213e-07,"y":1.3558453701989492e-06,"z":-9.55581635935232e-05},"speed_mps":4.749457320432618e-06,"speed_kph":1.7098046353557424e-05,"speed_limit_kph":30.0,"collisions_this_frame":[],"waypoint":{"x":55.541141510009766,"y":130.66226196289062,"z":0.0},"lane_deviation_m":0.20220611989498138,"lane_width":3.5,"goal":{"x":-87.27606201171875,"y":24.441530227661133,"z":0.5999999642372131},"fault":{"name":"degraded_brake_pads","severity":1.0},"capture_flags":{"save_rgb":true,"save_depth":false,"video_rgb":true,"video_depth":false}}
{"frame":3065,"timestamp":{"delta_seconds":0.05000000074505806,"elapsed_seconds":36.05295644886792},"control":{"throttle":0.0,"steer":-0.04500000178813934,"brake":1.0,"hand_brake":false,"reverse":false,"manual_gear_shift":false,"gear":0},"transform":{"location":{"x":55.54227828979492,"y":130.46006774902344,"z":0.0018774414202198386},"rotation":{"pitch":0.0,"yaw":-179.67953491210938,"roll":0.0}},"velocity":{"x":4.55645121633097e-09,"y":2.4245208507522875e-08,"z":7.781982276355848e-06},"angular_velocity":{"x":-2.5571139303792734e-06,"y":4.844233444600832e-06,"z":-1.3988568525746814e-08},"acceleration":{"x":-2.50482035113464e-08,"y":-2.8412668484634196e-07,"z":6.065368506824598e-05},"speed_mps":7.782021378851371e-06,"speed_kph":2.8015276963864937e-05,"speed_limit_kph":30.0,"collisions_this_frame":[],"waypoint":{"x":55.541141510009766,"y":130.66226196289062,"z":0.0},"lane_deviation_m":0.20220613479614258,"lane_width":3.5,"goal":{"x":-87.27606201171875,"y":24.441530227661133,"z":0.5999999642372131},"fault":{"name":"degraded_brake_pads","severity":1.0},"capture_flags":{"save_rgb":true,"save_depth":false,"video_rgb":true,"video_depth":false}}
{"frame":3066,"timestamp":{"delta_seconds":0.05000000074505806,"elapsed_seconds":36.102956449612975},"control":{"throttle":0.0,"steer":-0.03500000014901161,"brake":1.0,"hand_brake":false,"reverse":false,"manual_gear_shift":false,"gear":0},"transform":{"location":{"x":55.54227828979492,"y":130.46006774902344,"z":0.0018774414202198386},"rotation":{"pitch":0.0,"yaw":-179.67953491210938,"roll":0.0}},"velocity":{"x":-1.2158559492547738e-08,"y":-4.2610786010754964e-08,"z":4.0054320038507285e-07},"angular_velocity":{"x":4.109719884581864e-05,"y":-1.582134427735582e-05,"z":7.965655690611584e-09},"acceleration":{"x":-3.3430018220315105e-07,"y":-1.3371198974709841e-06,"z":-0.00014762877253815532},"speed_mps":4.0298680502977367e-07,"speed_kph":1.4507524981071852e-06,"speed_limit_kph":30.0,"collisions_this_frame":[],"waypoint":{"x":55.541141510009766,"y":130.66226196289062,"z":0.0},"lane_deviation_m":0.20220613479614258,"lane_width":3.5,"goal":{"x":-87.27606201171875,"y":24.441530227661133,"z":0.5999999642372131},"fault":{"name":"degraded_brake_pads","severity":1.0},"capture_flags":{"save_rgb":true,"save_depth":false,"video_rgb":true,"video_depth":false}}
{"frame":3067,"timestamp":{"delta_seconds":0.05000000074505806,"elapsed_seconds":36.15295645035803},"control":{"throttle":0.0,"steer":-0.052000001072883606,"brake":1.0,"hand_brake":false,"reverse":false,"manual_gear_shift":false,"gear":0},"transform":{"location":{"x":55.54227828979492,"y":130.46006774902344,"z":0.0018774414202198386},"rotation":{"pitch":0.0,"yaw":-179.67953491210938,"roll":0.0}},"velocity":{"x":2.2682100642157366e-09,"y":2.48139198077979e-09,"z":5.569457698584301e-06},"angular_velocity":{"x":-1.7788524928619154e-05,"y":3.4577385576994857e-06,"z":2.500416762529767e-09},"acceleration":{"x":2.8853537514805794e-07,"y":9.018435775942635e-07,"z":0.00010337829007767141},"speed_mps":5.569458713232642e-06,"speed_kph":2.0050051367637513e-05,"speed_limit_kph":30.0,"collisions_this_frame":[],"waypoint":{"x":55.541141510009766,"y":130.66226196289062,"z":0.0},"lane_deviation_m":0.20220613479614258,"lane_width":3.5,"goal":{"x":-87.27606201171875,"y":24.441530227661133,"z":0.5999999642372131},"fault":{"name":"degraded_brake_pads","severity":1.0},"capture_flags":{"save_rgb":true,"save_depth":false,"video_rgb":true,"video_depth":false}}
{"frame":3068,"timestamp":{"delta_seconds":0.05000000074505806,"elapsed_seconds":36.20295645110309},"control":{"throttle":0.0,"steer":-0.054999999701976776,"brake":1.0,"hand_brake":false,"reverse":false,"manual_gear_shift":false,"gear":0},"transform":{"location":{"x":55.54227828979492,"y":130.46006774902344,"z":0.0018774414202198386},"rotation":{"pitch":0.0,"yaw":-179.67953491210938,"roll":0.0}},"velocity":{"x":0.0,"y":0.0,"z":0.0},"angular_velocity":{"x":0.0,"y":0.0,"z":0.0},"acceleration":{"x":-4.536420306067157e-08,"y":-4.9627839615595803e-08,"z":-0.00011138915579067543},"speed_mps":0.0,"speed_kph":0.0,"speed_limit_kph":30.0,"collisions_this_frame":[],"waypoint":{"x":55.541141510009766,"y":130.66226196289062,"z":0.0},"lane_deviation_m":0.20220613479614258,"lane_width":3.5,"goal":{"x":-87.27606201171875,"y":24.441530227661133,"z":0.5999999642372131},"fault":{"name":"degraded_brake_pads","severity":1.0},"capture_flags":{"save_rgb":true,"save_depth":false,"video_rgb":true,"video_depth":false}}
{"frame":3069,"timestamp":{"delta_seconds":0.05000000074505806,"elapsed_seconds":36.25295645184815},"control":{"throttle":0.0,"steer":-0.057999998331069946,"brake":1.0,"hand_brake":false,"reverse":false,"manual_gear_shift":false,"gear":0},"transform":{"location":{"x":55.54227828979492,"y":130.46006774902344,"z":0.0018774414202198386},"rotation":{"pitch":0.0,"yaw":-179.67953491210938,"roll":0.0}},"velocity":{"x":-1.3506677720709348e-10,"y":-2.0819141965944254e-08,"z":-4.577636616431846e-07},"angular_velocity":{"x":-3.222229133825749e-05,"y":-6.268023184929916e-07,"z":-1.1559940560346149e-08},"acceleration":{"x":-2.701335599653021e-09,"y":-4.1638284642431245e-07,"z":-9.155272891803179e-06},"speed_mps":4.582368654268319e-07,"speed_kph":1.649652715536595e-06,"speed_limit_kph":30.0,"collisions_this_frame":[],"waypoint":{"x":55.541141510009766,"y":130.66226196289062,"z":0.0},"lane_deviation_m":0.20220613479614258,"lane_width":3.5,"goal":{"x":-87.27606201171875,"y":24.441530227661133,"z":0.5999999642372131},"fault":{"name":"degraded_brake_pads","severity":1.0},"capture_flags":{"save_rgb":true,"save_depth":false,"video_rgb":true,"video_depth":false}}
{"frame":3070,"timestamp":{"delta_seconds":0.05000000074505806,"elapsed_seconds":36.30295645259321},"control":{"throttle":0.0,"steer":-0.052000001072883606,"brake":1.0,"hand_brake":false,"reverse":false,"manual_gear_shift":false,"gear":0},"transform":{"location":{"x":55.54227828979492,"y":130.46006774902344,"z":0.0018774414202198386},"rotation":{"pitch":0.0,"yaw":-179.67953491210938,"roll":0.0}},"velocity":{"x":-1.0561516938789595e-10,"y":-1.0761967983441423e-09,"z":3.1185149964585435e-06},"angular_velocity":{"x":9.754674010764575e-07,"y":-1.3062124537555064e-07,"z":-2.887457495326373e-10},"acceleration":{"x":5.890321563839507e-10,"y":3.948588869207015e-07,"z":7.152557373046875e-05},"speed_mps":3.1185151839442664e-06,"speed_kph":1.122665466219936e-05,"speed_limit_kph":30.0,"collisions_this_frame":[],"waypoint":{"x":55.541141510009766,"y":130.66226196289062,"z":0.0},"lane_deviation_m":0.20220613479614258,"lane_width":3.5,"goal":{"x":-87.27606201171875,"y":24.441530227661133,"z":0.5999999642372131},"fault":{"name":"degraded_brake_pads","severity":1.0},"capture_flags":{"save_rgb":true,"save_depth":false,"video_rgb":true,"video_depth":false}}
{"frame":3071,"timestamp":{"delta_seconds":0.05000000074505806,"elapsed_seconds":36.352956453338265},"control":{"throttle":0.0,"steer":-0.039000000804662704,"brake":1.0,"hand_brake":false,"reverse":false,"manual_gear_shift":false,"gear":0},"transform":{"location":{"x":55.54227828979492,"y":130.46006774902344,"z":0.0018774414202198386},"rotation":{"pitch":0.0,"yaw":-179.67953491210938,"roll":0.0}},"velocity":{"x":4.716376733604477e-10,"y":1.3034206602924314e-08,"z":-2.422332727292087e-06},"angular_velocity":{"x":-2.793356543406844e-05,"y":7.95888013271906e-07,"z":-1.9325287203830754e-10},"acceleration":{"x":1.1545057354567234e-08,"y":2.8220807735124254e-07,"z":-0.0001108169526560232},"speed_mps":2.4223678405011455e-06,"speed_kph":8.720524225804125e-06,"speed_limit_kph":30.0,"collisions_this_frame":[],"waypoint":{"x":55.541141510009766,"y":130.66226196289062,"z":0.0},"lane_deviation_m":0.20220613479614258,"lane_width":3.5,"goal":{"x":-87.27606201171875,"y":24.441530227661133,"z":0.5999999642372131},"fault":{"name":"degraded_brake_pads","severity":1.0},"capture_flags":{"save_rgb":true,"save_depth":false,"video_rgb":true,"video_depth":false}}
