{"frame":5418,"timestamp":{"delta_seconds":0.05000000074505806,"elapsed_seconds":56.77707828208804},"control":{"throttle":0.75,"steer":0.0,"brake":0.0,"hand_brake":false,"reverse":false,"manual_gear_shift":false,"gear":0},"transform":{"location":{"x":-87.6230239868164,"y":12.967159271240234,"z":0.48239994049072266},"rotation":{"pitch":0.0,"yaw":-179.84078979492188,"roll":0.0}},"velocity":{"x":0.0,"y":0.0,"z":-1.470000147819519},"angular_velocity":{"x":0.0,"y":0.0,"z":0.0},"acceleration":{"x":0.0,"y":0.0,"z":-9.80000114440918},"speed_mps":1.470000147819519,"speed_kph":5.2920005321502686,"speed_limit_kph":30.0,"collisions_this_frame":[],"waypoint":{"x":-87.62295532226562,"y":12.94051742553711,"z":0.0},"lane_deviation_m":0.48313507437705994,"lane_width":3.5,"goal":{"x":83.07522583007812,"y":13.414804458618164,"z":0.5999999642372131},"fault":{"name":"degraded_brake_pads","severity":1.0},"capture_flags":{"save_rgb":true,"save_depth":false,"video_rgb":true,"video_depth":false}}
{"frame":5419,"timestamp":{"delta_seconds":0.05000000074505806,"elapsed_seconds":56.8270782828331},"control":{"throttle":0.75,"steer":0.0,"brake":0.0,"hand_brake":false,"reverse":false,"manual_gear_shift":false,"gear":0},"transform":{"location":{"x":-87.6230239868164,"y":12.967159271240234,"z":0.394199937582016},"rotation":{"pitch":0.0,"yaw":-179.84078979492188,"roll":0.0}},"velocity":{"x":0.0,"y":0.0,"z":-1.9600002765655518},"angular_velocity":{"x":0.0,"y":0.0,"z":0.0},"acceleration":{"x":0.0,"y":0.0,"z":-9.800003051757812},"speed_mps":1.9600002765655518,"speed_kph":7.056000995635986,"speed_limit_kph":30.0,"collisions_this_frame":[],"waypoint":{"x":-87.62295532226562,"y":12.94051742553711,"z":0.0},"lane_deviation_m":0.3950991928577423,"lane_width":3.5,"goal":{"x":83.07522583007812,"y":13.414804458618164,"z":0.5999999642372131},"fault":{"name":"degraded_brake_pads","severity":1.0},"capture_flags":{"save_rgb":true,"save_depth":false,"video_rgb":true,"video_depth":false}}
{"frame":5420,"timestamp":{"delta_seconds":0.05000000074505806,"elapsed_seconds":56.87707828357816},"control":{"throttle":0.75,"steer":0.0,"brake":0.0,"hand_brake":false,"reverse":false,"manual_gear_shift":false,"gear":0},"transform":{"location":{"x":-87.6230239868164,"y":12.967159271240234,"z":0.281499981880188},"rotation":{"pitch":0.0,"yaw":-179.84078979492188,"roll":0.0}},"velocity":{"x":0.0,"y":0.0,"z":-2.450000286102295},"angular_velocity":{"x":0.0,"y":0.0,"z":0.0},"acceleration":{"x":0.0,"y":0.0,"z":-9.800000190734863},"speed_mps":2.450000286102295,"speed_kph":8.820001029968262,"speed_limit_kph":30.0,"collisions_this_frame":[],"waypoint":{"x":-87.62295532226562,"y":12.94051742553711,"z":0.0},"lane_deviation_m":0.2827579081058502,"lane_width":3.5,"goal":{"x":83.07522583007812,"y":13.414804458618164,"z":0.5999999642372131},"fault":{"name":"degraded_brake_pads","severity":1.0},"capture_flags":{"save_rgb":true,"save_depth":false,"video_rgb":true,"video_depth":false}}
{"frame":5421,"timestamp":{"delta_seconds":0.05000000074505806,"elapsed_seconds":56.927078284323215},"control":{"throttle":0.75,"steer":0.0,"brake":0.0,"hand_brake":false,"reverse":false,"manual_gear_shift":false,"gear":0},"transform":{"location":{"x":-87.6230239868164,"y":12.967159271240234,"z":0.14429987967014313},"rotation":{"pitch":0.0,"yaw":-179.84078979492188,"roll":0.0}},"velocity":{"x":0.0,"y":0.0,"z":-2.93999981880188},"angular_velocity":{"x":0.0,"y":0.0,"z":0.0},"acceleration":{"x":0.0,"y":0.0,"z":-9.7999906539917},"speed_mps":2.93999981880188,"speed_kph":10.583999347686769,"speed_limit_kph":30.0,"collisions_this_frame":[],"waypoint":{"x":-87.62295532226562,"y":12.94051742553711,"z":0.0},"lane_deviation_m":0.1467387080192566,"lane_width":3.5,"goal":{"x":83.07522583007812,"y":13.414804458618164,"z":0.5999999642372131},"fault":{"name":"degraded_brake_pads","severity":1.0},"capture_flags":{"save_rgb":true,"save_depth":false,"video_rgb":true,"video_depth":false}}
{"frame":5422,"timestamp":{"delta_seconds":0.05000000074505806,"elapsed_seconds":56.97707828506827},"control":{"throttle":0.75,"steer":0.0,"brake":0.0,"hand_brake":false,"reverse":false,"manual_gear_shift":false,"gear":0},"transform":{"location":{"x":-87.62357330322266,"y":12.96517276763916,"z":0.009365997277200222},"rotation":{"pitch":0.07286445051431656,"yaw":-179.8075408935547,"roll":-0.1875305026769638}},"velocity":{"x":0.0027095067780464888,"y":-0.022531399503350258,"z":-2.008272886276245},"angular_velocity":{"x":-5.179205417633057,"y":2.2222490310668945,"z":0.21223808825016022},"acceleration":{"x":0.05419013649225235,"y":-0.45062798261642456,"z":18.634538650512695},"speed_mps":2.0084011031521767,"speed_kph":7.230243971347837,"speed_limit_kph":30.0,"collisions_this_frame":[],"waypoint":{"x":-87.62350463867188,"y":12.940515518188477,"z":0.0},"lane_deviation_m":0.026376251131296158,"lane_width":3.5,"goal":{"x":83.07522583007812,"y":13.414804458618164,"z":0.5999999642372131},"fault":{"name":"degraded_brake_pads","severity":1.0},"capture_flags":{"save_rgb":true,"save_depth":false,"video_rgb":true,"video_depth":false}}
{"frame":5423,"timestamp":{"delta_seconds":0.05000000074505806,"elapsed_seconds":57.02707828581333},"control":{"throttle":0.75,"steer":0.0,"brake":0.0,"hand_brake":false,"reverse":false,"manual_gear_shift":false,"gear":0},"transform":{"location":{"x":-87.62406921386719,"y":12.96351146697998,"z":-0.04846011847257614},"rotation":{"pitch":0.15083788335323334,"yaw":-179.8032989501953,"roll":-0.33303821086883545}},"velocity":{"x":-0.0006389307673089206,"y":-0.006589831784367561,"z":-0.7027705311775208},"angular_velocity":{"x":-1.4378985166549683,"y":1.0056092739105225,"z":-0.048369329422712326},"acceleration":{"x":-0.06696875393390656,"y":0.31883135437965393,"z":26.110048294067383},"speed_mps":0.702801717134361,"speed_kph":2.5300861816837,"speed_limit_kph":30.0,"collisions_this_frame":[],"waypoint":{"x":-87.62400817871094,"y":12.940513610839844,"z":0.0},"lane_deviation_m":0.05364036187529564,"lane_width":3.5,"goal":{"x":83.07522583007812,"y":13.414804458618164,"z":0.5999999642372131},"fault":{"name":"degraded_brake_pads","severity":1.0},"capture_flags":{"save_rgb":true,"save_depth":false,"video_rgb":true,"video_depth":false}}
{"frame":5424,"timestamp":{"delta_seconds":0.05000000074505806,"elapsed_seconds":57.07707828655839},"control":{"throttle":0.75,"steer":0.0,"brake":0.0,"hand_brake":false,"reverse":false,"manual_gear_shift":false,"gear":0},"transform":{"location":{"x":-87.62419128417969,"y":12.963289260864258,"z":-0.06371334195137024},"rotation":{"pitch":0.17248958349227905,"yaw":-179.8021240234375,"roll":-0.34954833984375}},"velocity":{"x":0.0011277806479483843,"y":-0.00022247667948249727,"z":-0.1011342778801918},"angular_velocity":{"x":0.21106195449829102,"y":0.11070902645587921,"z":0.06372814625501633},"acceleration":{"x":0.035334229469299316,"y":0.12734709680080414,"z":12.032724380493164},"speed_mps":0.10114081049413562,"speed_kph":0.36410691777888826,"speed_limit_kph":30.0,"collisions_this_frame":[],"waypoint":{"x":-87.62413024902344,"y":12.940513610839844,"z":0.0},"lane_deviation_m":0.0676618367433548,"lane_width":3.5,"goal":{"x":83.07522583007812,"y":13.414804458618164,"z":0.5999999642372131},"fault":{"name":"degraded_brake_pads","severity":1.0},"capture_flags":{"save_rgb":true,"save_depth":false,"video_rgb":true,"video_depth":false}}
{"frame":5425,"timestamp":{"delta_seconds":0.05000000074505806,"elapsed_seconds":57.12707828730345},"control":{"throttle":0.75,"steer":0.0,"brake":0.0,"hand_brake":false,"reverse":false,"manual_gear_shift":false,"gear":0},"transform":{"location":{"x":-87.62409973144531,"y":12.96371078491211,"z":-0.06023666262626648},"rotation":{"pitch":0.15232686698436737,"yaw":-179.80409240722656,"roll":-0.29660025238990784}},"velocity":{"x":-0.001690506935119629,"y":0.0026213484816253185,"z":0.14474524557590485},"angular_velocity":{"x":1.149038314819336,"y":-0.4998834431171417,"z":-0.0935584306716919},"acceleration":{"x":-0.05636575073003769,"y":0.05687650293111801,"z":4.917590618133545},"speed_mps":0.1447788499691471,"speed_kph":0.5212038598889296,"speed_limit_kph":30.0,"collisions_this_frame":[],"waypoint":{"x":-87.62403869628906,"y":12.940513610839844,"z":0.0},"lane_deviation_m":0.06454896181821823,"lane_width":3.5,"goal":{"x":83.07522583007812,"y":13.414804458618164,"z":0.5999999642372131},"fault":{"name":"degraded_brake_pads","severity":1.0},"capture_flags":{"save_rgb":true,"save_depth":false,"video_rgb":true,"video_depth":false}}
{"frame":5426,"timestamp":{"delta_seconds":0.05000000074505806,"elapsed_seconds":57.177078288048506},"control":{"throttle":0.75,"steer":0.0,"brake":0.0,"hand_brake":false,"reverse":false,"manual_gear_shift":false,"gear":0},"transform":{"location":{"x":-87.62395477294922,"y":12.964290618896484,"z":-0.050149381160736084},"rotation":{"pitch":0.12685710191726685,"yaw":-179.8055877685547,"roll":-0.245391845703125}},"velocity":{"x":5.244612566457363e-06,"y":0.005225048400461674,"z":0.2200310230255127},"angular_velocity":{"x":0.9269015789031982,"y":-0.49148479104042053,"z":-6.928906077519059e-05},"acceleration":{"x":0.03391503170132637,"y":0.05207400023937225,"z":1.5057156085968018},"speed_mps":0.22009305362038764,"speed_kph":0.7923349930333955,"speed_limit_kph":30.0,"collisions_this_frame":[],"waypoint":{"x":-87.62389373779297,"y":12.940513610839844,"z":0.0},"lane_deviation_m":0.05550054460763931,"lane_width":3.5,"goal":{"x":83.07522583007812,"y":13.414804458618164,"z":0.5999999642372131},"fault":{"name":"degraded_brake_pads","severity":1.0},"capture_flags":{"save_rgb":true,"save_depth":false,"video_rgb":true,"video_depth":false}}
{"frame":5427,"timestamp":{"delta_seconds":0.05000000074505806,"elapsed_seconds":57.227078288793564},"control":{"throttle":0.75,"steer":0.0,"brake":0.0,"hand_brake":false,"reverse":false,"manual_gear_shift":false,"gear":0},"transform":{"location":{"x":-87.62382507324219,"y":12.964905738830566,"z":-0.03888813033699989},"rotation":{"pitch":0.10226842015981674,"yaw":-179.80819702148438,"roll":-0.1998290717601776}},"velocity":{"x":-0.001454890938475728,"y":0.0064743999391794205,"z":0.21779030561447144},"angular_velocity":{"x":0.8898360133171082,"y":-0.47551146149635315,"z":-0.08678608387708664},"acceleration":{"x":-0.029202710837125778,"y":0.024987030774354935,"z":-0.044814348220825195},"speed_mps":0.2178913761071332,"speed_kph":0.7844089539856794,"speed_limit_kph":30.0,"collisions_this_frame":[],"waypoint":{"x":-87.62376403808594,"y":12.940513610839844,"z":0.0},"lane_deviation_m":0.0459049716591835,"lane_width":3.5,"goal":{"x":83.07522583007812,"y":13.414804458618164,"z":0.5999999642372131},"fault":{"name":"degraded_brake_pads","severity":1.0},"capture_flags":{"save_rgb":true,"save_depth":false,"video_rgb":true,"video_depth":false}}
{"frame":5428,"timestamp":{"delta_seconds":0.05000000074505806,"elapsed_seconds":57.27707828953862},"control":{"throttle":0.75,"steer":0.0,"brake":0.0,"hand_brake":false,"reverse":false,"manual_gear_shift":false,"gear":0},"transform":{"location":{"x":-87.62371063232422,"y":12.965472221374512,"z":-0.028712119907140732},"rotation":{"pitch":0.08295947313308716,"yaw":-179.80992126464844,"roll":-0.1660766452550888}},"velocity":{"x":7.454991282429546e-05,"y":0.006701248697936535,"z":0.18824395537376404},"angular_velocity":{"x":0.536929726600647,"y":-0.32188013195991516,"z":-0.0026958035305142403},"acceleration":{"x":0.030588816851377487,"y":0.004536975175142288,"z":-0.590927004814148},"speed_mps":0.1883632103850451,"speed_kph":0.6781075573861625,"speed_limit_kph":30.0,"collisions_this_frame":[],"waypoint":{"x":-87.62364196777344,"y":12.940515518188477,"z":0.0},"lane_deviation_m":0.03804244473576546,"lane_width":3.5,"goal":{"x":83.07522583007812,"y":13.414804458618164,"z":0.5999999642372131},"fault":{"name":"degraded_brake_pads","severity":1.0},"capture_flags":{"save_rgb":true,"save_depth":false,"video_rgb":true,"video_depth":false}}
{"frame":5429,"timestamp":{"delta_seconds":0.05000000074505806,"elapsed_seconds":57.32707829028368},"control":{"throttle":0.75,"steer":0.0,"brake":0.0,"hand_brake":false,"reverse":false,"manual_gear_shift":false,"gear":0},"transform":{"location":{"x":-87.63607025146484,"y":12.965995788574219,"z":-0.020585402846336365},"rotation":{"pitch":0.07563751190900803,"yaw":-179.82827758789062,"roll":-0.12274166941642761}},"velocity":{"x":-0.5698153972625732,"y":0.003159251529723406,"z":0.14755013585090637},"angular_velocity":{"x":0.4818536043167114,"y":0.2622916102409363,"z":-0.6147181391716003},"acceleration":{"x":-11.397799491882324,"y":-0.07083994150161743,"z":-0.8138763904571533},"speed_mps":0.5886175417173304,"speed_kph":2.1190231501823895,"speed_limit_kph":30.0,"collisions_this_frame":[],"waypoint":{"x":-87.63600158691406,"y":12.940481185913086,"z":0.0},"lane_deviation_m":0.03278350830078125,"lane_width":3.5,"goal":{"x":83.07522583007812,"y":13.414804458618164,"z":0.5999999642372131},"fault":{"name":"degraded_brake_pads","severity":1.0},"capture_flags":{"save_rgb":true,"save_depth":false,"video_rgb":true,"video_depth":false}}
{"frame":5430,"timestamp":{"delta_seconds":0.05000000074505806,"elapsed_seconds":57.37707829102874},"control":{"throttle":0.0,"steer":0.08558429777622223,"brake":1.0,"hand_brake":false,"reverse":false,"manual_gear_shift":false,"gear":0},"transform":{"location":{"x":-87.67372131347656,"y":12.966270446777344,"z":-0.014263457618653774},"rotation":{"pitch":0.08582132309675217,"yaw":-179.6280059814453,"roll":-0.11218259483575821}},"velocity":{"x":-0.7642897367477417,"y":-0.03261389955878258,"z":0.11259637773036957},"angular_velocity":{"x":0.34866002202033997,"y":-0.03868117183446884,"z":5.536618232727051},"acceleration":{"x":-3.889486789703369,"y":-0.7154630422592163,"z":-0.6990751624107361},"speed_mps":0.7732272708721303,"speed_kph":2.783618175139669,"speed_limit_kph":30.0,"collisions_this_frame":[],"waypoint":{"x":-87.67365264892578,"y":12.940376281738281,"z":0.0},"lane_deviation_m":0.02956279180943966,"lane_width":3.5,"goal":{"x":83.07522583007812,"y":13.414804458618164,"z":0.5999999642372131},"fault":{"name":"degraded_brake_pads","severity":1.0},"capture_flags":{"save_rgb":true,"save_depth":false,"video_rgb":true,"video_depth":false}}
{"frame":5431,"timestamp":{"delta_seconds":0.05000000074505806,"elapsed_seconds":57.427078291773796},"control":{"throttle":0.0,"steer":0.08558429777622223,"brake":1.0,"hand_brake":false,"reverse":false,"manual_gear_shift":false,"gear":0},"transform":{"location":{"x":-87.69764709472656,"y":12.966175079345703,"z":-0.009464912116527557},"rotation":{"pitch":0.058179549872875214,"yaw":-179.50526428222656,"roll":-0.0851745456457138}},"velocity":{"x":-0.18448226153850555,"y":-0.013913573697209358,"z":0.08183801174163818},"angular_velocity":{"x":0.3843475580215454,"y":-0.7938064336776733,"z":0.15043023228645325},"acceleration":{"x":11.596149444580078,"y":0.3740065097808838,"z":-0.6151673197746277},"speed_mps":0.2022986715755043,"speed_kph":0.7282752176718155,"speed_limit_kph":30.0,"collisions_this_frame":[],"waypoint":{"x":-87.69757843017578,"y":12.940309524536133,"z":0.0},"lane_deviation_m":0.02754298783838749,"lane_width":3.5,"goal":{"x":83.07522583007812,"y":13.414804458618164,"z":0.5999999642372131},"fault":{"name":"degraded_brake_pads","severity":1.0},"capture_flags":{"save_rgb":true,"save_depth":false,"video_rgb":true,"video_depth":false}}
{"frame":5432,"timestamp":{"delta_seconds":0.05000000074505806,"elapsed_seconds":57.477078292518854},"control":{"throttle":0.0,"steer":0.05747099220752716,"brake":1.0,"hand_brake":false,"reverse":false,"manual_gear_shift":false,"gear":0},"transform":{"location":{"x":-87.69747161865234,"y":12.966282844543457,"z":-0.0058503723703324795},"rotation":{"pitch":0.02861849032342434,"yaw":-179.5028533935547,"roll":-0.07260128855705261}},"velocity":{"x":0.0007339296862483025,"y":0.0019341822480782866,"z":0.06286200881004333},"angular_velocity":{"x":-0.08880407363176346,"y":-0.24382106959819794,"z":0.058561064302921295},"acceleration":{"x":3.7043237686157227,"y":0.3169551193714142,"z":-0.379520058631897},"speed_mps":0.06289604014075213,"speed_kph":0.2264257445067077,"speed_limit_kph":30.0,"collisions_this_frame":[],"waypoint":{"x":-87.69740295410156,"y":12.940309524536133,"z":0.0},"lane_deviation_m":0.02662414126098156,"lane_width":3.5,"goal":{"x":83.07522583007812,"y":13.414804458618164,"z":0.5999999642372131},"fault":{"name":"degraded_brake_pads","severity":1.0},"capture_flags":{"save_rgb":true,"save_depth":false,"video_rgb":true,"video_depth":false}}
{"frame":5433,"timestamp":{"delta_seconds":0.05000000074505806,"elapsed_seconds":57.52707829326391},"control":{"throttle":0.0,"steer":0.05747099220752716,"brake":1.0,"hand_brake":false,"reverse":false,"manual_gear_shift":false,"gear":0},"transform":{"location":{"x":-87.69741821289062,"y":12.966365814208984,"z":-0.0031388471834361553},"rotation":{"pitch":0.02827015146613121,"yaw":-179.50006103515625,"roll":-0.08508297801017761}},"velocity":{"x":0.0008584383176639676,"y":0.003585107158869505,"z":0.04857352748513222},"angular_velocity":{"x":-0.29859673976898193,"y":0.09134940803050995,"z":0.054938770830631256},"acceleration":{"x":0.002490172628313303,"y":0.03301849961280823,"z":-0.28576964139938354},"speed_mps":0.04871321670793981,"speed_kph":0.1753675801485833,"speed_limit_kph":30.0,"collisions_this_frame":[],"waypoint":{"x":-87.69734954833984,"y":12.940309524536133,"z":0.0},"lane_deviation_m":0.0262447576969862,"lane_width":3.5,"goal":{"x":83.07522583007812,"y":13.414804458618164,"z":0.5999999642372131},"fault":{"name":"degraded_brake_pads","severity":1.0},"capture_flags":{"save_rgb":true,"save_depth":false,"video_rgb":true,"video_depth":false}}
{"frame":5434,"timestamp":{"delta_seconds":0.05000000074505806,"elapsed_seconds":57.57707829400897},"control":{"throttle":0.0,"steer":0.0028442798648029566,"brake":1.0,"hand_brake":false,"reverse":false,"manual_gear_shift":false,"gear":0},"transform":{"location":{"x":-87.69741821289062,"y":12.966408729553223,"z":-0.0011220169253647327},"rotation":{"pitch":0.03650736063718796,"yaw":-179.49757385253906,"roll":-0.10168454796075821}},"velocity":{"x":0.00080637022620067,"y":0.002971717156469822,"z":0.036719050258398056},"angular_velocity":{"x":-0.3313804566860199,"y":0.187666654586792,"z":0.04686102643609047},"acceleration":{"x":-0.0010413618292659521,"y":-0.01226780004799366,"z":-0.23708954453468323},"speed_mps":0.03684793057525106,"speed_kph":0.13265255007090382,"speed_limit_kph":30.0,"collisions_this_frame":[],"waypoint":{"x":-87.69734954833984,"y":12.940309524536133,"z":0.0},"lane_deviation_m":0.026123402640223503,"lane_width":3.5,"goal":{"x":83.07522583007812,"y":13.414804458618164,"z":0.5999999642372131},"fault":{"name":"degraded_brake_pads","severity":1.0},"capture_flags":{"save_rgb":true,"save_depth":false,"video_rgb":true,"video_depth":false}}
{"frame":5435,"timestamp":{"delta_seconds":0.05000000074505806,"elapsed_seconds":57.62707829475403},"control":{"throttle":0.0,"steer":0.0028442798648029566,"brake":1.0,"hand_brake":false,"reverse":false,"manual_gear_shift":false,"gear":0},"transform":{"location":{"x":-87.69744873046875,"y":12.966445922851562,"z":0.0003677749482449144},"rotation":{"pitch":0.04671166092157364,"yaw":-179.49551391601562,"roll":-0.11813350766897202}},"velocity":{"x":0.0006863196031190455,"y":0.0027984322514384985,"z":0.027424471452832222},"angular_velocity":{"x":-0.31876859068870544,"y":0.20131564140319824,"z":0.037726789712905884},"acceleration":{"x":-0.00240101246163249,"y":-0.0034656981006264687,"z":-0.18589156866073608},"speed_mps":0.027575421884909145,"speed_kph":0.09927151878567292,"speed_limit_kph":30.0,"collisions_this_frame":[],"waypoint":{"x":-87.69738006591797,"y":12.940309524536133,"z":0.0},"lane_deviation_m":0.02613907679915428,"lane_width":3.5,"goal":{"x":83.07522583007812,"y":13.414804458618164,"z":0.5999999642372131},"fault":{"name":"degraded_brake_pads","severity":1.0},"capture_flags":{"save_rgb":true,"save_depth":false,"video_rgb":true,"video_depth":false}}
{"frame":5436,"timestamp":{"delta_seconds":0.05000000074505806,"elapsed_seconds":57.677078295499086},"control":{"throttle":0.0,"steer":0.0028442798648029566,"brake":1.0,"hand_brake":false,"reverse":false,"manual_gear_shift":false,"gear":0},"transform":{"location":{"x":-87.69747161865234,"y":12.966476440429688,"z":0.0014624404720962048},"rotation":{"pitch":0.05662226676940918,"yaw":-179.49391174316406,"roll":-0.1335143744945526}},"velocity":{"x":0.0005683055496774614,"y":0.0025568369310349226,"z":0.020356671884655952},"angular_velocity":{"x":-0.29458144307136536,"y":0.18741543591022491,"z":0.03006773442029953},"acceleration":{"x":-0.002360281068831682,"y":-0.004831906408071518,"z":-0.1413559913635254},"speed_mps":0.02052448480496503,"speed_kph":0.07388814529787412,"speed_limit_kph":30.0,"collisions_this_frame":[],"waypoint":{"x":-87.69740295410156,"y":12.940309524536133,"z":0.0},"lane_deviation_m":0.02620784007012844,"lane_width":3.5,"goal":{"x":83.07522583007812,"y":13.414804458618164,"z":0.5999999642372131},"fault":{"name":"degraded_brake_pads","severity":1.0},"capture_flags":{"save_rgb":true,"save_depth":false,"video_rgb":true,"video_depth":false}}
{"frame":5437,"timestamp":{"delta_seconds":0.05000000074505806,"elapsed_seconds":57.727078296244144},"control":{"throttle":0.0,"steer":0.0028442798648029566,"brake":1.0,"hand_brake":false,"reverse":false,"manual_gear_shift":false,"gear":0},"transform":{"location":{"x":-87.69751739501953,"y":12.96650218963623,"z":0.0022653196938335896},"rotation":{"pitch":0.06552883237600327,"yaw":-179.4926300048828,"roll":-0.14752197265625}},"velocity":{"x":0.0004671281494665891,"y":0.0022899138275533915,"z":0.015080663375556469},"angular_velocity":{"x":-0.26648783683776855,"y":0.16551658511161804,"z":0.023974113166332245},"acceleration":{"x":-0.002023547887802124,"y":-0.005338462069630623,"z":-0.10552017390727997},"speed_mps":0.01526067894598712,"speed_kph":0.05493844420555363,"speed_limit_kph":30.0,"collisions_this_frame":[],"waypoint":{"x":-87.69744873046875,"y":12.940309524536133,"z":0.0},"lane_deviation_m":0.02629053220152855,"lane_width":3.5,"goal":{"x":83.07522583007812,"y":13.414804458618164,"z":0.5999999642372131},"fault":{"name":"degraded_brake_pads","severity":1.0},"capture_flags":{"save_rgb":true,"save_depth":false,"video_rgb":true,"video_depth":false}}
{"frame":5438,"timestamp":{"delta_seconds":0.05000000074505806,"elapsed_seconds":57.7770782969892},"control":{"throttle":0.0,"steer":0.0028442798648029566,"brake":1.0,"hand_brake":false,"reverse":false,"manual_gear_shift":false,"gear":0},"transform":{"location":{"x":-87.69756317138672,"y":12.966524124145508,"z":0.0028530501294881105},"rotation":{"pitch":0.07327426224946976,"yaw":-179.4916229248047,"roll":-0.16003413498401642}},"velocity":{"x":0.00038386849337257445,"y":0.0020256242714822292,"z":0.011174156330525875},"angular_velocity":{"x":-0.23672692477703094,"y":0.1424150913953781,"z":0.01919724978506565},"acceleration":{"x":-0.001665193121880293,"y":-0.0052857911214232445,"z":-0.07813014090061188},"speed_mps":0.011362758397873887,"speed_kph":0.040905930232346,"speed_limit_kph":30.0,"collisions_this_frame":[],"waypoint":{"x":-87.69749450683594,"y":12.940309524536133,"z":0.0},"lane_deviation_m":0.02636948600411415,"lane_width":3.5,"goal":{"x":83.07522583007812,"y":13.414804458618164,"z":0.5999999642372131},"fault":{"name":"degraded_brake_pads","severity":1.0},"capture_flags":{"save_rgb":true,"save_depth":false,"video_rgb":true,"video_depth":false}}
{"frame":5439,"timestamp":{"delta_seconds":0.05000000074505806,"elapsed_seconds":57.82707829773426},"control":{"throttle":0.0,"steer":0.0028442798648029566,"brake":1.0,"hand_brake":false,"reverse":false,"manual_gear_shift":false,"gear":0},"transform":{"location":{"x":-87.69761657714844,"y":12.96654224395752,"z":0.003283653175458312},"rotation":{"pitch":0.07984490692615509,"yaw":-179.4907989501953,"roll":-0.17095947265625}},"velocity":{"x":0.00031569672864861786,"y":0.001759034232236445,"z":0.008278732188045979},"angular_velocity":{"x":-0.20614348351955414,"y":0.1201724112033844,"z":0.015435359440743923},"acceleration":{"x":-0.0013634352944791317,"y":-0.005331800784915686,"z":-0.05790848284959793},"speed_mps":0.008469431651300319,"speed_kph":0.03048995394468115,"speed_limit_kph":30.0,"collisions_this_frame":[],"waypoint":{"x":-87.69754791259766,"y":12.940309524536133,"z":0.0},"lane_deviation_m":0.02643752470612526,"lane_width":3.5,"goal":{"x":83.07522583007812,"y":13.414804458618164,"z":0.5999999642372131},"fault":{"name":"degraded_brake_pads","severity":1.0},"capture_flags":{"save_rgb":true,"save_depth":false,"video_rgb":true,"video_depth":false}}
{"frame":5440,"timestamp":{"delta_seconds":0.05000000074505806,"elapsed_seconds":57.87707829847932},"control":{"throttle":0.0,"steer":0.0028442798648029566,"brake":1.0,"hand_brake":false,"reverse":false,"manual_gear_shift":false,"gear":0},"transform":{"location":{"x":-87.6976547241211,"y":12.966558456420898,"z":0.003599738935008645},"rotation":{"pitch":0.08535686880350113,"yaw":-179.49014282226562,"roll":-0.18045037984848022}},"velocity":{"x":0.0002613285032566637,"y":0.0015162561321631074,"z":0.00615405198186636},"angular_velocity":{"x":-0.17771299183368683,"y":0.1004435122013092,"z":0.012524254620075226},"acceleration":{"x":-0.0010873645078390837,"y":-0.004855562001466751,"z":-0.04249360412359238},"speed_mps":0.006343475470154343,"speed_kph":0.022836511692555635,"speed_limit_kph":30.0,"collisions_this_frame":[],"waypoint":{"x":-87.69758605957031,"y":12.940309524536133,"z":0.0},"lane_deviation_m":0.026494702324271202,"lane_width":3.5,"goal":{"x":83.07522583007812,"y":13.414804458618164,"z":0.5999999642372131},"fault":{"name":"degraded_brake_pads","severity":1.0},"capture_flags":{"save_rgb":true,"save_depth":false,"video_rgb":true,"video_depth":false}}
{"frame":5441,"timestamp":{"delta_seconds":0.05000000074505806,"elapsed_seconds":57.92707829922438},"control":{"throttle":0.0,"steer":0.0028442798648029566,"brake":1.0,"hand_brake":false,"reverse":false,"manual_gear_shift":false,"gear":0},"transform":{"location":{"x":-87.69768524169922,"y":12.966572761535645,"z":0.0038322447799146175},"rotation":{"pitch":0.08993992954492569,"yaw":-179.48960876464844,"roll":-0.18850703537464142}},"velocity":{"x":0.0002165408368455246,"y":0.001296185771934688,"z":0.004574872553348541},"angular_velocity":{"x":-0.1498258411884308,"y":0.08264533430337906,"z":0.01020266767591238},"acceleration":{"x":-0.0008957533282227814,"y":-0.004401407204568386,"z":-0.03158358857035637},"speed_mps":0.0047598788187063635,"speed_kph":0.01713556374734291,"speed_limit_kph":30.0,"collisions_this_frame":[],"waypoint":{"x":-87.69761657714844,"y":12.940309524536133,"z":0.0},"lane_deviation_m":0.026541447266936302,"lane_width":3.5,"goal":{"x":83.07522583007812,"y":13.414804458618164,"z":0.5999999642372131},"fault":{"name":"degraded_brake_pads","severity":1.0},"capture_flags":{"save_rgb":true,"save_depth":false,"video_rgb":true,"video_depth":false}}
{"frame":5442,"timestamp":{"delta_seconds":0.05000000074505806,"elapsed_seconds":57.977078299969435},"control":{"throttle":0.0,"steer":0.0028442798648029566,"brake":1.0,"hand_brake":false,"reverse":false,"manual_gear_shift":false,"gear":0},"transform":{"location":{"x":-87.69771575927734,"y":12.966585159301758,"z":0.004003677051514387},"rotation":{"pitch":0.09370335936546326,"yaw":-179.4891357421875,"roll":-0.1953430324792862}},"velocity":{"x":0.00018200591148342937,"y":0.0011021012905985117,"z":0.00342180416919291},"angular_velocity":{"x":-0.12691915035247803,"y":0.06806143373250961,"z":0.008443490602076054},"acceleration":{"x":-0.0006906985072419047,"y":-0.003881689626723528,"z":-0.023061368614435196},"speed_mps":0.0035995134641864865,"speed_kph":0.012958248471071352,"speed_limit_kph":30.0,"collisions_this_frame":[],"waypoint":{"x":-87.69764709472656,"y":12.940309524536133,"z":0.0},"lane_deviation_m":0.0265789981931448,"lane_width":3.5,"goal":{"x":83.07522583007812,"y":13.414804458618164,"z":0.5999999642372131},"fault":{"name":"degraded_brake_pads","severity":1.0},"capture_flags":{"save_rgb":true,"save_depth":false,"video_rgb":true,"video_depth":false}}
{"frame":5443,"timestamp":{"delta_seconds":0.05000000074505806,"elapsed_seconds":58.02707830071449},"control":{"throttle":0.0,"steer":0.0028442798648029566,"brake":1.0,"hand_brake":false,"reverse":false,"manual_gear_shift":false,"gear":0},"transform":{"location":{"x":-87.6977310180664,"y":12.966596603393555,"z":0.004130630288273096},"rotation":{"pitch":0.09679743647575378,"yaw":-179.48878479003906,"roll":-0.2011108249425888}},"velocity":{"x":0.0001545575214549899,"y":0.0009391477215103805,"z":0.002573898062109947},"angular_velocity":{"x":-0.10680703073740005,"y":0.05585333704948425,"z":0.007074735127389431},"acceleration":{"x":-0.0005489678005687892,"y":-0.003259071381762624,"z":-0.016958121210336685},"speed_mps":0.002744237180782629,"speed_kph":0.009879253850817464,"speed_limit_kph":30.0,"collisions_this_frame":[],"waypoint":{"x":-87.69766235351562,"y":12.940309524536133,"z":0.0},"lane_deviation_m":0.026609722524881363,"lane_width":3.5,"goal":{"x":83.07522583007812,"y":13.414804458618164,"z":0.5999999642372131},"fault":{"name":"degraded_brake_pads","severity":1.0},"capture_flags":{"save_rgb":true,"save_depth":false,"video_rgb":true,"video_depth":false}}
{"frame":5444,"timestamp":{"delta_seconds":0.05000000074505806,"elapsed_seconds":58.07707830145955},"control":{"throttle":0.0,"steer":0.0028442798648029566,"brake":1.0,"hand_brake":false,"reverse":false,"manual_gear_shift":false,"gear":0},"transform":{"location":{"x":-87.69775390625,"y":12.966605186462402,"z":0.004224853590130806},"rotation":{"pitch":0.09931094199419022,"yaw":-179.4884490966797,"roll":-0.20587158203125}},"velocity":{"x":0.0001317697751801461,"y":0.0007888376712799072,"z":0.001931192702613771},"angular_velocity":{"x":-0.08816168457269669,"y":0.04514504224061966,"z":0.005961158778518438},"acceleration":{"x":-0.00045575492549687624,"y":-0.0030062010046094656,"z":-0.012854106724262238},"speed_mps":0.0020902472102385435,"speed_kph":0.007524889956858757,"speed_limit_kph":30.0,"collisions_this_frame":[],"waypoint":{"x":-87.69768524169922,"y":12.940309524536133,"z":0.0},"lane_deviation_m":0.02663298510015011,"lane_width":3.5,"goal":{"x":83.07522583007812,"y":13.414804458618164,"z":0.5999999642372131},"fault":{"name":"degraded_brake_pads","severity":1.0},"capture_flags":{"save_rgb":true,"save_depth":false,"video_rgb":true,"video_depth":false}}
{"frame":5445,"timestamp":{"delta_seconds":0.05000000074505806,"elapsed_seconds":58.12707830220461},"control":{"throttle":0.0,"steer":0.0028442798648029566,"brake":1.0,"hand_brake":false,"reverse":false,"manual_gear_shift":false,"gear":0},"transform":{"location":{"x":-87.69776916503906,"y":12.96661376953125,"z":0.004295234568417072},"rotation":{"pitch":0.10134634375572205,"yaw":-179.48822021484375,"roll":-0.20983880758285522}},"velocity":{"x":0.00011422708485042676,"y":0.0006679794751107693,"z":0.001460081897675991},"angular_velocity":{"x":-0.07320357114076614,"y":0.036671023815870285,"z":0.005115139298141003},"acceleration":{"x":-0.0003508538065943867,"y":-0.002417163923382759,"z":-0.009422216564416885},"speed_mps":0.0016096843025897372,"speed_kph":0.005794863489323054,"speed_limit_kph":30.0,"collisions_this_frame":[],"waypoint":{"x":-87.69770050048828,"y":12.940309524536133,"z":0.0},"lane_deviation_m":0.026652712374925613,"lane_width":3.5,"goal":{"x":83.07522583007812,"y":13.414804458618164,"z":0.5999999642372131},"fault":{"name":"degraded_brake_pads","severity":1.0},"capture_flags":{"save_rgb":true,"save_depth":false,"video_rgb":true,"video_depth":false}}
{"frame":5446,"timestamp":{"delta_seconds":0.05000000074505806,"elapsed_seconds":58.17707830294967},"control":{"throttle":0.0,"steer":0.0028442798648029566,"brake":1.0,"hand_brake":false,"reverse":false,"manual_gear_shift":false,"gear":0},"transform":{"location":{"x":-87.69776916503906,"y":12.966615676879883,"z":0.004317665006965399},"rotation":{"pitch":0.10224109888076782,"yaw":-179.48805236816406,"roll":-0.21188348531723022}},"velocity":{"x":8.206963684642687e-05,"y":0.00044551349128596485,"z":0.0005563848535530269},"angular_velocity":{"x":-0.05064952000975609,"y":0.020475666970014572,"z":0.0035916888155043125},"acceleration":{"x":-0.0006431489600799978,"y":-0.004449319560080767,"z":-0.01807394064962864},"speed_mps":0.0007174829624967669,"speed_kph":0.002582938664988361,"speed_limit_kph":30.0,"collisions_this_frame":[],"waypoint":{"x":-87.69770050048828,"y":12.940309524536133,"z":0.0},"lane_deviation_m":0.02665821835398674,"lane_width":3.5,"goal":{"x":83.07522583007812,"y":13.414804458618164,"z":0.5999999642372131},"fault":{"name":"degraded_brake_pads","severity":1.0},"capture_flags":{"save_rgb":true,"save_depth":false,"video_rgb":true,"video_depth":false}}
{"frame":5447,"timestamp":{"delta_seconds":0.05000000074505806,"elapsed_seconds":58.227078303694725},"control":{"throttle":0.0,"steer":0.0028442798648029566,"brake":1.0,"hand_brake":false,"reverse":false,"manual_gear_shift":false,"gear":0},"transform":{"location":{"x":-87.69778442382812,"y":12.966622352600098,"z":0.0043459320440888405},"rotation":{"pitch":0.10346370190382004,"yaw":-179.48785400390625,"roll":-0.214599609375}},"velocity":{"x":8.82402018760331e-05,"y":0.0004969321307726204,"z":0.000750613515265286},"angular_velocity":{"x":-0.0519416481256485,"y":0.024140410125255585,"z":0.0038669223431497812},"acceleration":{"x":0.00012341130059212446,"y":0.0010283727897331119,"z":0.003884573234245181},"speed_mps":0.0009045156301138469,"speed_kph":0.003256256268409849,"speed_limit_kph":30.0,"collisions_this_frame":[],"waypoint":{"x":-87.69771575927734,"y":12.940309524536133,"z":0.0},"lane_deviation_m":0.026669397950172424,"lane_width":3.5,"goal":{"x":83.07522583007812,"y":13.414804458618164,"z":0.5999999642372131},"fault":{"name":"degraded_brake_pads","severity":1.0},"capture_flags":{"save_rgb":true,"save_depth":false,"video_rgb":true,"video_depth":false}}
{"frame":5448,"timestamp":{"delta_seconds":0.05000000074505806,"elapsed_seconds":58.27707830443978},"control":{"throttle":0.0,"steer":0.0028442798648029566,"brake":1.0,"hand_brake":false,"reverse":false,"manual_gear_shift":false,"gear":0},"transform":{"location":{"x":-87.69779205322266,"y":12.966630935668945,"z":0.004376678261905909},"rotation":{"pitch":0.10464531928300858,"yaw":-179.48768615722656,"roll":-0.2170104682445526}},"velocity":{"x":8.422881364822388e-05,"y":0.0004395897558424622,"z":0.000732625660020858},"angular_velocity":{"x":-0.04405678063631058,"y":0.021644629538059235,"z":0.003685438772663474},"acceleration":{"x":-8.022776455618441e-05,"y":-0.0011468474986031651,"z":-0.0003597571048885584},"speed_mps":0.0008585301417022123,"speed_kph":0.0030907085101279643,"speed_limit_kph":30.0,"collisions_this_frame":[],"waypoint":{"x":-87.69772338867188,"y":12.940309524536133,"z":0.0},"lane_deviation_m":0.026682892814278603,"lane_width":3.5,"goal":{"x":83.07522583007812,"y":13.414804458618164,"z":0.5999999642372131},"fault":{"name":"degraded_brake_pads","severity":1.0},"capture_flags":{"save_rgb":true,"save_depth":false,"video_rgb":true,"video_depth":false}}
{"frame":5449,"timestamp":{"delta_seconds":0.05000000074505806,"elapsed_seconds":58.32707830518484},"control":{"throttle":0.0,"steer":0.0028442798648029566,"brake":1.0,"hand_brake":false,"reverse":false,"manual_gear_shift":false,"gear":0},"transform":{"location":{"x":-87.69779968261719,"y":12.966635704040527,"z":0.004405173938721418},"rotation":{"pitch":0.10564252734184265,"yaw":-179.48753356933594,"roll":-0.2189636379480362}},"velocity":{"x":7.775425910949707e-05,"y":0.0003737192018888891,"z":0.000636325916275382},"angular_velocity":{"x":-0.03578118607401848,"y":0.017826110124588013,"z":0.003397033317014575},"acceleration":{"x":-0.00012949109077453613,"y":-0.0013174110790714622,"z":-0.0019259948749095201},"speed_mps":0.0007420393779266971,"speed_kph":0.0026713417605361096,"speed_limit_kph":30.0,"collisions_this_frame":[],"waypoint":{"x":-87.6977310180664,"y":12.940309524536133,"z":0.0},"lane_deviation_m":0.026692284271121025,"lane_width":3.5,"goal":{"x":83.07522583007812,"y":13.414804458618164,"z":0.5999999642372131},"fault":{"name":"degraded_brake_pads","severity":1.0},"capture_flags":{"save_rgb":true,"save_depth":false,"video_rgb":true,"video_depth":false}}
{"frame":5450,"timestamp":{"delta_seconds":0.05000000074505806,"elapsed_seconds":58.3770783059299},"control":{"throttle":0.0,"steer":0.0028442798648029566,"brake":1.0,"hand_brake":false,"reverse":false,"manual_gear_shift":false,"gear":0},"transform":{"location":{"x":-87.69779968261719,"y":12.966625213623047,"z":0.004428520333021879},"rotation":{"pitch":0.10642117261886597,"yaw":-179.4874725341797,"roll":-0.220550537109375}},"velocity":{"x":8.052736666286364e-05,"y":1.2672924640355632e-05,"z":0.0005086918827146292},"angular_velocity":{"x":-0.027916578575968742,"y":0.013921856880187988,"z":0.0011537049431353807},"acceleration":{"x":5.546215106733143e-05,"y":-0.007220925763249397,"z":-0.0025526806712150574},"speed_mps":0.0005151821923750368,"speed_kph":0.0018546558925501325,"speed_limit_kph":30.0,"collisions_this_frame":[],"waypoint":{"x":-87.6977310180664,"y":12.940309524536133,"z":0.0},"lane_deviation_m":0.0266858022660017,"lane_width":3.5,"goal":{"x":83.07522583007812,"y":13.414804458618164,"z":0.5999999642372131},"fault":{"name":"degraded_brake_pads","severity":1.0},"capture_flags":{"save_rgb":true,"save_depth":false,"video_rgb":true,"video_depth":false}}
{"frame":5451,"timestamp":{"delta_seconds":0.05000000074505806,"elapsed_seconds":58.42707830667496},"control":{"throttle":0.0,"steer":0.0028442798648029566,"brake":1.0,"hand_brake":false,"reverse":false,"manual_gear_shift":false,"gear":0},"transform":{"location":{"x":-87.69780731201172,"y":12.966617584228516,"z":0.004447173792868853},"rotation":{"pitch":0.10704954713582993,"yaw":-179.48739624023438,"roll":-0.2217712253332138}},"velocity":{"x":7.40641335141845e-05,"y":1.1266301953583024e-05,"z":0.0004014080041088164},"angular_velocity":{"x":-0.02165546640753746,"y":0.010875850915908813,"z":0.0011177663691341877},"acceleration":{"x":-0.00012926466297358274,"y":-2.8132453735452145e-05,"z":-0.0021456775721162558},"speed_mps":0.00040833908849819875,"speed_kph":0.0014700207185935155,"speed_limit_kph":30.0,"collisions_this_frame":[],"waypoint":{"x":-87.69773864746094,"y":12.940309524536133,"z":0.0},"lane_deviation_m":0.026681380346417427,"lane_width":3.5,"goal":{"x":83.07522583007812,"y":13.414804458618164,"z":0.5999999642372131},"fault":{"name":"degraded_brake_pads","severity":1.0},"capture_flags":{"save_rgb":true,"save_depth":false,"video_rgb":true,"video_depth":false}}
{"frame":5452,"timestamp":{"delta_seconds":0.05000000074505806,"elapsed_seconds":58.477078307420015},"control":{"throttle":0.0,"steer":0.0028442798648029566,"brake":1.0,"hand_brake":false,"reverse":false,"manual_gear_shift":false,"gear":0},"transform":{"location":{"x":-87.69780731201172,"y":12.966609954833984,"z":0.0044618225656449795},"rotation":{"pitch":0.1075344905257225,"yaw":-179.4873809814453,"roll":-0.2227782905101776}},"velocity":{"x":6.964042404433712e-05,"y":1.1372566405043472e-05,"z":0.0003158736799377948},"angular_velocity":{"x":-0.017986297607421875,"y":0.0088100116699934,"z":0.001093357102945447},"acceleration":{"x":-8.847418939694762e-05,"y":2.1252890292089432e-06,"z":-0.0017106864834204316},"speed_mps":0.0003236592430398932,"speed_kph":0.0011651732749436154,"speed_limit_kph":30.0,"collisions_this_frame":[],"waypoint":{"x":-87.69773864746094,"y":12.940309524536133,"z":0.0},"lane_deviation_m":0.026676304638385773,"lane_width":3.5,"goal":{"x":83.07522583007812,"y":13.414804458618164,"z":0.5999999642372131},"fault":{"name":"degraded_brake_pads","severity":1.0},"capture_flags":{"save_rgb":true,"save_depth":false,"video_rgb":true,"video_depth":false}}
{"frame":5453,"timestamp":{"delta_seconds":0.05000000074505806,"elapsed_seconds":58.52707830816507},"control":{"throttle":0.0,"steer":0.0028442798648029566,"brake":1.0,"hand_brake":false,"reverse":false,"manual_gear_shift":false,"gear":0},"transform":{"location":{"x":-87.69780731201172,"y":12.96660327911377,"z":0.004473495297133923},"rotation":{"pitch":0.10795113444328308,"yaw":-179.48733520507812,"roll":-0.2236022651195526}},"velocity":{"x":6.60702571622096e-05,"y":1.0959710380120669e-05,"z":0.00024990769452415407},"angular_velocity":{"x":-0.014975360594689846,"y":0.0071177431382238865,"z":0.001073930412530899},"acceleration":{"x":-7.140333764255047e-05,"y":-8.257120498456061e-06,"z":-0.0013193197082728148},"speed_mps":0.00025872620647215955,"speed_kph":0.0009314143432997744,"speed_limit_kph":30.0,"collisions_this_frame":[],"waypoint":{"x":-87.69773864746094,"y":12.940309524536133,"z":0.0},"lane_deviation_m":0.026671677827835083,"lane_width":3.5,"goal":{"x":83.07522583007812,"y":13.414804458618164,"z":0.5999999642372131},"fault":{"name":"degraded_brake_pads","severity":1.0},"capture_flags":{"save_rgb":true,"save_depth":false,"video_rgb":true,"video_depth":false}}
{"frame":5454,"timestamp":{"delta_seconds":0.05000000074505806,"elapsed_seconds":58.57707830891013},"control":{"throttle":0.0,"steer":0.0028442798648029566,"brake":1.0,"hand_brake":false,"reverse":false,"manual_gear_shift":false,"gear":0},"transform":{"location":{"x":-87.69782257080078,"y":12.966601371765137,"z":0.004479675088077784},"rotation":{"pitch":0.10816969722509384,"yaw":-179.48727416992188,"roll":-0.2241210639476776}},"velocity":{"x":5.4507851018570364e-05,"y":1.3593826224678196e-05,"z":5.528861947823316e-05},"angular_velocity":{"x":-0.007052733562886715,"y":0.0022946391254663467,"z":0.0009137078304775059},"acceleration":{"x":-0.00023124812287278473,"y":5.268231689115055e-05,"z":-0.0038923814427107573},"speed_mps":7.88208689237709e-05,"speed_kph":0.00028375512812557526,"speed_limit_kph":30.0,"collisions_this_frame":[],"waypoint":{"x":-87.69775390625,"y":12.940309524536133,"z":0.0},"lane_deviation_m":0.02667083591222763,"lane_width":3.5,"goal":{"x":83.07522583007812,"y":13.414804458618164,"z":0.5999999642372131},"fault":{"name":"degraded_brake_pads","severity":1.0},"capture_flags":{"save_rgb":true,"save_depth":false,"video_rgb":true,"video_depth":false}}
{"frame":5455,"timestamp":{"delta_seconds":0.05000000074505806,"elapsed_seconds":58.62707830965519},"control":{"throttle":0.0,"steer":0.0028442798648029566,"brake":1.0,"hand_brake":false,"reverse":false,"manual_gear_shift":false,"gear":0},"transform":{"location":{"x":-87.69782257080078,"y":12.966597557067871,"z":0.004483375232666731},"rotation":{"pitch":0.10839509963989258,"yaw":-179.4872589111328,"roll":-0.224609375}},"velocity":{"x":5.9459951444296166e-05,"y":1.0427887900732458e-05,"z":0.00011134720989502966},"angular_velocity":{"x":-0.009881490841507912,"y":0.004108863417059183,"z":0.001037678448483348},"acceleration":{"x":9.904200851451606e-05,"y":-6.331876647891477e-05,"z":0.0011211717501282692},"speed_mps":0.00012665870606964248,"speed_kph":0.00045597134185071294,"speed_limit_kph":30.0,"collisions_this_frame":[],"waypoint":{"x":-87.69775390625,"y":12.940309524536133,"z":0.0},"lane_deviation_m":0.026667697355151176,"lane_width":3.5,"goal":{"x":83.07522583007812,"y":13.414804458618164,"z":0.5999999642372131},"fault":{"name":"degraded_brake_pads","severity":1.0},"capture_flags":{"save_rgb":true,"save_depth":false,"video_rgb":true,"video_depth":false}}
{"frame":5456,"timestamp":{"delta_seconds":0.05000000074505806,"elapsed_seconds":58.67707831040025},"control":{"throttle":0.0,"steer":0.0028442798648029566,"brake":1.0,"hand_brake":false,"reverse":false,"manual_gear_shift":false,"gear":0},"transform":{"location":{"x":-87.69782257080078,"y":12.966593742370605,"z":0.004488563630729914},"rotation":{"pitch":0.10861366242170334,"yaw":-179.48721313476562,"roll":-0.2251281440258026}},"velocity":{"x":5.9454738220665604e-05,"y":1.0077562365040649e-05,"z":0.00012478932330850512},"angular_velocity":{"x":-0.0088298125192523,"y":0.00414290651679039,"z":0.0010360009036958218},"acceleration":{"x":-1.0426447261124849e-07,"y":-7.006510713836178e-06,"z":0.0002688422682695091},"speed_mps":0.00013859580935909923,"speed_kph":0.0004989449136927573,"speed_limit_kph":30.0,"collisions_this_frame":[],"waypoint":{"x":-87.69775390625,"y":12.940309524536133,"z":0.0},"lane_deviation_m":0.02666480839252472,"lane_width":3.5,"goal":{"x":83.07522583007812,"y":13.414804458618164,"z":0.5999999642372131},"fault":{"name":"degraded_brake_pads","severity":1.0},"capture_flags":{"save_rgb":true,"save_depth":false,"video_rgb":true,"video_depth":false}}
{"frame":5457,"timestamp":{"delta_seconds":0.05000000074505806,"elapsed_seconds":58.727078311145306},"control":{"throttle":0.0,"steer":0.0028442798648029566,"brake":1.0,"hand_brake":false,"reverse":false,"manual_gear_shift":false,"gear":0},"transform":{"location":{"x":-87.69782257080078,"y":12.966591835021973,"z":0.004493522457778454},"rotation":{"pitch":0.10880490392446518,"yaw":-179.4871368408203,"roll":-0.22555534541606903}},"velocity":{"x":5.825847256346606e-05,"y":9.783170753507875e-06,"z":0.00011484046262921765},"angular_velocity":{"x":-0.0073351776227355,"y":0.0035171073395758867,"z":0.001029277453199029},"acceleration":{"x":-2.3925313143990934e-05,"y":-5.8878322306554765e-06,"z":-0.00019897721358574927},"speed_mps":0.0001291436870788238,"speed_kph":0.00046491727348376566,"speed_limit_kph":30.0,"collisions_this_frame":[],"waypoint":{"x":-87.69775390625,"y":12.940309524536133,"z":0.0},"lane_deviation_m":0.02666376531124115,"lane_width":3.5,"goal":{"x":83.07522583007812,"y":13.414804458618164,"z":0.5999999642372131},"fault":{"name":"degraded_brake_pads","severity":1.0},"capture_flags":{"save_rgb":true,"save_depth":false,"video_rgb":true,"video_depth":false}}
{"frame":5458,"timestamp":{"delta_seconds":0.05000000074505806,"elapsed_seconds":58.777078311890364},"control":{"throttle":0.0,"steer":0.0028442798648029566,"brake":1.0,"hand_brake":false,"reverse":false,"manual_gear_shift":false,"gear":0},"transform":{"location":{"x":-87.69782257080078,"y":12.966588973999023,"z":0.004497833084315062},"rotation":{"pitch":0.10896199941635132,"yaw":-179.48712158203125,"roll":-0.225860595703125}},"velocity":{"x":5.679026071447879e-05,"y":9.99154508463107e-06,"z":9.52251793933101e-05},"angular_velocity":{"x":-0.005743009503930807,"y":0.0027820300310850143,"z":0.0010207330342382193},"acceleration":{"x":-2.936423697974533e-05,"y":4.167486622463912e-06,"z":-0.0003923056647181511},"speed_mps":0.00011132295125303128,"speed_kph":0.0004007626245109126,"speed_limit_kph":30.0,"collisions_this_frame":[],"waypoint":{"x":-87.69775390625,"y":12.940309524536133,"z":0.0},"lane_deviation_m":0.026661669835448265,"lane_width":3.5,"goal":{"x":83.07522583007812,"y":13.414804458618164,"z":0.5999999642372131},"fault":{"name":"degraded_brake_pads","severity":1.0},"capture_flags":{"save_rgb":true,"save_depth":false,"video_rgb":true,"video_depth":false}}
{"frame":5459,"timestamp":{"delta_seconds":0.05000000074505806,"elapsed_seconds":58.82707831263542},"control":{"throttle":0.0,"steer":0.0028442798648029566,"brake":1.0,"hand_brake":false,"reverse":false,"manual_gear_shift":false,"gear":0},"transform":{"location":{"x":-87.69782257080078,"y":12.966588020324707,"z":0.004501457326114178},"rotation":{"pitch":0.10909177362918854,"yaw":-179.48704528808594,"roll":-0.2261352241039276}},"velocity":{"x":5.5720058298902586e-05,"y":9.858831617748365e-06,"z":7.709157216595486e-05},"angular_velocity":{"x":-0.004738772753626108,"y":0.0022691264748573303,"z":0.0010147199500352144},"acceleration":{"x":-2.1404048311524093e-05,"y":-2.6542693376541138e-06,"z":-0.00036267214454710484},"speed_mps":9.562966044443974e-05,"speed_kph":0.0003442667775999831,"speed_limit_kph":30.0,"collisions_this_frame":[],"waypoint":{"x":-87.69775390625,"y":12.940309524536133,"z":0.0},"lane_deviation_m":0.026661342009902,"lane_width":3.5,"goal":{"x":83.07522583007812,"y":13.414804458618164,"z":0.5999999642372131},"fault":{"name":"degraded_brake_pads","severity":1.0},"capture_flags":{"save_rgb":true,"save_depth":false,"video_rgb":true,"video_depth":false}}
{"frame":5460,"timestamp":{"delta_seconds":0.05000000074505806,"elapsed_seconds":58.87707831338048},"control":{"throttle":0.0,"steer":0.0028442798648029566,"brake":1.0,"hand_brake":false,"reverse":false,"manual_gear_shift":false,"gear":0},"transform":{"location":{"x":-87.69782257080078,"y":12.966585159301758,"z":0.004504432436078787},"rotation":{"pitch":0.10922154784202576,"yaw":-179.4870147705078,"roll":-0.22637934982776642}},"velocity":{"x":5.517408135347068e-05,"y":9.899781616695691e-06,"z":6.756078073522076e-05},"angular_velocity":{"x":-0.004319973289966583,"y":0.0019932561554014683,"z":0.0010118584614247084},"acceleration":{"x":-1.091953890863806e-05,"y":8.189999789465219e-07,"z":-0.00019061582861468196},"speed_mps":8.778749354441236e-05,"speed_kph":0.0003160349767598845,"speed_limit_kph":30.0,"collisions_this_frame":[],"waypoint":{"x":-87.69775390625,"y":12.940309524536133,"z":0.0},"lane_deviation_m":0.026659024879336357,"lane_width":3.5,"goal":{"x":83.07522583007812,"y":13.414804458618164,"z":0.5999999642372131},"fault":{"name":"degraded_brake_pads","severity":1.0},"capture_flags":{"save_rgb":true,"save_depth":false,"video_rgb":true,"video_depth":false}}
{"frame":5461,"timestamp":{"delta_seconds":0.05000000074505806,"elapsed_seconds":58.92707831412554},"control":{"throttle":0.0,"steer":0.0028442798648029566,"brake":1.0,"hand_brake":false,"reverse":false,"manual_gear_shift":false,"gear":0},"transform":{"location":{"x":-87.69782257080078,"y":12.966585159301758,"z":0.00450695026665926},"rotation":{"pitch":0.10929667949676514,"yaw":-179.48699951171875,"roll":-0.22656242549419403}},"velocity":{"x":5.3897798352409154e-05,"y":9.275720913137775e-06,"z":4.9902795581147075e-05},"angular_velocity":{"x":-0.002897626254707575,"y":0.0013863591011613607,"z":0.001004611374810338},"acceleration":{"x":-2.552566002123058e-05,"y":-1.248121407115832e-05,"z":-0.0003531597030814737},"speed_mps":7.403580669182401e-05,"speed_kph":0.00026652890409056644,"speed_limit_kph":30.0,"collisions_this_frame":[],"waypoint":{"x":-87.69775390625,"y":12.940309524536133,"z":0.0},"lane_deviation_m":0.02665945142507553,"lane_width":3.5,"goal":{"x":83.07522583007812,"y":13.414804458618164,"z":0.5999999642372131},"fault":{"name":"degraded_brake_pads","severity":1.0},"capture_flags":{"save_rgb":true,"save_depth":false,"video_rgb":true,"video_depth":false}}
{"frame":5462,"timestamp":{"delta_seconds":0.05000000074505806,"elapsed_seconds":58.977078314870596},"control":{"throttle":0.0,"steer":0.0028442798648029566,"brake":1.0,"hand_brake":false,"reverse":false,"manual_gear_shift":false,"gear":0},"transform":{"location":{"x":-87.69782257080078,"y":12.966584205627441,"z":0.004508781246840954},"rotation":{"pitch":0.1093786433339119,"yaw":-179.48690795898438,"roll":-0.22671498358249664}},"velocity":{"x":5.302279896568507e-05,"y":9.030391993292142e-06,"z":3.71571077266708e-05},"angular_velocity":{"x":-0.0019307064358144999,"y":0.0009731647442094982,"z":0.0009994853753596544},"acceleration":{"x":-1.7499987734481692e-05,"y":-4.906578396912664e-06,"z":-0.00025491375708952546},"speed_mps":6.537289839313679e-05,"speed_kph":0.00023534243421529245,"speed_limit_kph":30.0,"collisions_this_frame":[],"waypoint":{"x":-87.69775390625,"y":12.940309524536133,"z":0.0},"lane_deviation_m":0.02665881998836994,"lane_width":3.5,"goal":{"x":83.07522583007812,"y":13.414804458618164,"z":0.5999999642372131},"fault":{"name":"degraded_brake_pads","severity":1.0},"capture_flags":{"save_rgb":true,"save_depth":false,"video_rgb":true,"video_depth":false}}
{"frame":5463,"timestamp":{"delta_seconds":0.05000000074505806,"elapsed_seconds":59.027078315615654},"control":{"throttle":0.0,"steer":0.0028442798648029566,"brake":1.0,"hand_brake":false,"reverse":false,"manual_gear_shift":false,"gear":0},"transform":{"location":{"x":-87.69782257080078,"y":12.966584205627441,"z":0.004508781246840954},"rotation":{"pitch":0.1093786433339119,"yaw":-179.48690795898438,"roll":-0.22671498358249664}},"velocity":{"x":5.245327702141367e-05,"y":9.59372118813917e-06,"z":1.9397037249291316e-05},"angular_velocity":{"x":-0.0019279016414657235,"y":0.0006939886952750385,"z":0.000996764050796628},"acceleration":{"x":-1.1390438885428011e-05,"y":1.1266583896940574e-05,"z":-0.00035520142409950495},"speed_mps":5.6741790688797515e-05,"speed_kph":0.00020427044647967105,"speed_limit_kph":30.0,"collisions_this_frame":[],"waypoint":{"x":-87.69775390625,"y":12.940309524536133,"z":0.0},"lane_deviation_m":0.02665881998836994,"lane_width":3.5,"goal":{"x":83.07522583007812,"y":13.414804458618164,"z":0.5999999642372131},"fault":{"name":"degraded_brake_pads","severity":1.0},"capture_flags":{"save_rgb":true,"save_depth":false,"video_rgb":true,"video_depth":false}}
{"frame":5464,"timestamp":{"delta_seconds":0.05000000074505806,"elapsed_seconds":59.07707831636071},"control":{"throttle":0.0,"steer":0.0028442798648029566,"brake":1.0,"hand_brake":false,"reverse":false,"manual_gear_shift":false,"gear":0},"transform":{"location":{"x":-87.69782257080078,"y":12.966583251953125,"z":0.004510307218879461},"rotation":{"pitch":0.10944011807441711,"yaw":-179.48687744140625,"roll":-0.22689810395240784}},"velocity":{"x":5.2347331802593544e-05,"y":9.124501957558095e-06,"z":2.1057630874565803e-05},"angular_velocity":{"x":-0.0014097044477239251,"y":0.0006917938007973135,"z":0.0009955433197319508},"acceleration":{"x":-2.1189043764024973e-06,"y":-9.384384611621499e-06,"z":3.321187250548974e-05},"speed_mps":5.7157007452050616e-05,"speed_kph":0.00020576522682738221,"speed_limit_kph":30.0,"collisions_this_frame":[],"waypoint":{"x":-87.69775390625,"y":12.940309524536133,"z":0.0},"lane_deviation_m":0.026658138260245323,"lane_width":3.5,"goal":{"x":83.07522583007812,"y":13.414804458618164,"z":0.5999999642372131},"fault":{"name":"degraded_brake_pads","severity":1.0},"capture_flags":{"save_rgb":true,"save_depth":false,"video_rgb":true,"video_depth":false}}
{"frame":5465,"timestamp":{"delta_seconds":0.05000000074505806,"elapsed_seconds":59.12707831710577},"control":{"throttle":0.0,"steer":0.0028442798648029566,"brake":1.0,"hand_brake":false,"reverse":false,"manual_gear_shift":false,"gear":0},"transform":{"location":{"x":-87.69783020019531,"y":12.966583251953125,"z":0.0045112608931958675},"rotation":{"pitch":0.10944011807441711,"yaw":-179.48687744140625,"roll":-0.22689810395240784}},"velocity":{"x":5.242094266577624e-05,"y":9.442828741157427e-06,"z":2.1709915017709136e-05},"angular_velocity":{"x":-0.0015266630798578262,"y":0.0007209738832898438,"z":0.0009959369199350476},"acceleration":{"x":1.4722172636538744e-06,"y":6.3665356719866395e-06,"z":1.304568286286667e-05},"speed_mps":5.751906340231542e-05,"speed_kph":0.0002070686282483355,"speed_limit_kph":30.0,"collisions_this_frame":[],"waypoint":{"x":-87.69776153564453,"y":12.940309524536133,"z":0.0},"lane_deviation_m":0.026658300310373306,"lane_width":3.5,"goal":{"x":83.07522583007812,"y":13.414804458618164,"z":0.5999999642372131},"fault":{"name":"degraded_brake_pads","severity":1.0},"capture_flags":{"save_rgb":true,"save_depth":false,"video_rgb":true,"video_depth":false}}
{"frame":5466,"timestamp":{"delta_seconds":0.05000000074505806,"elapsed_seconds":59.17707831785083},"control":{"throttle":0.0,"steer":0.0028442798648029566,"brake":1.0,"hand_brake":false,"reverse":false,"manual_gear_shift":false,"gear":0},"transform":{"location":{"x":-87.69783020019531,"y":12.966583251953125,"z":0.0045112608931958675},"rotation":{"pitch":0.10944011807441711,"yaw":-179.48687744140625,"roll":-0.22689810395240784}},"velocity":{"x":5.17345943080727e-05,"y":9.223445886163972e-06,"z":1.4772880604141392e-05},"angular_velocity":{"x":-0.0006236290792003274,"y":0.0003856934781651944,"z":0.0009917514398694038},"acceleration":{"x":-1.3726967154070735e-05,"y":-4.387657099869102e-06,"z":-0.0001387406955473125},"speed_mps":5.458734471999971e-05,"speed_kph":0.00019651444099199895,"speed_limit_kph":30.0,"collisions_this_frame":[],"waypoint":{"x":-87.69776153564453,"y":12.940309524536133,"z":0.0},"lane_deviation_m":0.026658300310373306,"lane_width":3.5,"goal":{"x":83.07522583007812,"y":13.414804458618164,"z":0.5999999642372131},"fault":{"name":"degraded_brake_pads","severity":1.0},"capture_flags":{"save_rgb":true,"save_depth":false,"video_rgb":true,"video_depth":false}}
{"frame":5467,"timestamp":{"delta_seconds":0.05000000074505806,"elapsed_seconds":59.227078318595886},"control":{"throttle":0.0,"steer":0.0028442798648029566,"brake":1.0,"hand_brake":false,"reverse":false,"manual_gear_shift":false,"gear":0},"transform":{"location":{"x":-87.69783020019531,"y":12.966581344604492,"z":0.004512825049459934},"rotation":{"pitch":0.10954257100820541,"yaw":-179.48672485351562,"roll":-0.227142333984375}},"velocity":{"x":5.158334897714667e-05,"y":9.241029147233348e-06,"z":1.0290462341799866e-05},"angular_velocity":{"x":-0.0006225143442861736,"y":0.00031133764423429966,"z":0.0009911677334457636},"acceleration":{"x":-3.0249066185206175e-06,"y":3.5166522138752043e-07,"z":-8.964836888480932e-05},"speed_mps":5.3405356722019146e-05,"speed_kph":0.00019225928419926893,"speed_limit_kph":30.0,"collisions_this_frame":[],"waypoint":{"x":-87.69776153564453,"y":12.940309524536133,"z":0.0},"lane_deviation_m":0.026656683534383774,"lane_width":3.5,"goal":{"x":83.07522583007812,"y":13.414804458618164,"z":0.5999999642372131},"fault":{"name":"degraded_brake_pads","severity":1.0},"capture_flags":{"save_rgb":true,"save_depth":false,"video_rgb":true,"video_depth":false}}
{"frame":5468,"timestamp":{"delta_seconds":0.05000000074505806,"elapsed_seconds":59.277078319340944},"control":{"throttle":0.0,"steer":0.0028442798648029566,"brake":1.0,"hand_brake":false,"reverse":false,"manual_gear_shift":false,"gear":0},"transform":{"location":{"x":-87.69783020019531,"y":12.966581344604492,"z":0.004512825049459934},"rotation":{"pitch":0.10954257100820541,"yaw":-179.48672485351562,"roll":-0.227142333984375}},"velocity":{"x":5.1391718443483114e-05,"y":9.121866241912358e-06,"z":8.632717253931332e-06},"angular_velocity":{"x":-0.00039996876148507,"y":0.0002075611992040649,"z":0.0009901406010612845},"acceleration":{"x":-3.83261067327112e-06,"y":-2.3832581064198166e-06,"z":-3.315490175737068e-05},"speed_mps":5.290407333557508e-05,"speed_kph":0.0001904546640080703,"speed_limit_kph":30.0,"collisions_this_frame":[],"waypoint":{"x":-87.69776153564453,"y":12.940309524536133,"z":0.0},"lane_deviation_m":0.026656683534383774,"lane_width":3.5,"goal":{"x":83.07522583007812,"y":13.414804458618164,"z":0.5999999642372131},"fault":{"name":"degraded_brake_pads","severity":1.0},"capture_flags":{"save_rgb":true,"save_depth":false,"video_rgb":true,"video_depth":false}}
