{"frame":68,"timestamp":{"delta_seconds":0.05000000074505806,"elapsed_seconds":4.4018876468762755},"control":{"throttle":0.75,"steer":0.0,"brake":0.0,"hand_brake":false,"reverse":false,"manual_gear_shift":false,"gear":0},"transform":{"location":{"x":-45.16095733642578,"y":92.45532989501953,"z":0.48239994049072266},"rotation":{"pitch":0.0,"yaw":-90.16118621826172,"roll":0.0}},"velocity":{"x":0.0,"y":0.0,"z":-1.470000147819519},"angular_velocity":{"x":0.0,"y":0.0,"z":0.0},"acceleration":{"x":0.0,"y":0.0,"z":-9.80000114440918},"speed_mps":1.470000147819519,"speed_kph":5.2920005321502686,"speed_limit_kph":30.0,"collisions_this_frame":[],"waypoint":{"x":-45.04631423950195,"y":92.45500946044922,"z":0.0},"lane_deviation_m":0.4958355128765106,"lane_width":3.5,"goal":{"x":109.9569091796875,"y":-27.333675384521484,"z":0.5999999642372131},"fault":{"name":"degraded_brake_pads","severity":1.0},"capture_flags":{"save_rgb":true,"save_depth":false,"video_rgb":true,"video_depth":false}}
{"frame":69,"timestamp":{"delta_seconds":0.05000000074505806,"elapsed_seconds":4.451887647621334},"control":{"throttle":0.75,"steer":0.0,"brake":0.0,"hand_brake":false,"reverse":false,"manual_gear_shift":false,"gear":0},"transform":{"location":{"x":-45.16095733642578,"y":92.45532989501953,"z":0.394199937582016},"rotation":{"pitch":0.0,"yaw":-90.16118621826172,"roll":0.0}},"velocity":{"x":0.0,"y":0.0,"z":-1.9600002765655518},"angular_velocity":{"x":0.0,"y":0.0,"z":0.0},"acceleration":{"x":0.0,"y":0.0,"z":-9.800003051757812},"speed_mps":1.9600002765655518,"speed_kph":7.056000995635986,"speed_limit_kph":30.0,"collisions_this_frame":[],"waypoint":{"x":-45.04631423950195,"y":92.45500946044922,"z":0.0},"lane_deviation_m":0.41053223609924316,"lane_width":3.5,"goal":{"x":109.9569091796875,"y":-27.333675384521484,"z":0.5999999642372131},"fault":{"name":"degraded_brake_pads","severity":1.0},"capture_flags":{"save_rgb":true,"save_depth":false,"video_rgb":true,"video_depth":false}}
{"frame":70,"timestamp":{"delta_seconds":0.05000000074505806,"elapsed_seconds":4.501887648366392},"control":{"throttle":0.75,"steer":0.0,"brake":0.0,"hand_brake":false,"reverse":false,"manual_gear_shift":false,"gear":0},"transform":{"location":{"x":-45.16095733642578,"y":92.45532989501953,"z":0.281499981880188},"rotation":{"pitch":0.0,"yaw":-90.16118621826172,"roll":0.0}},"velocity":{"x":0.0,"y":0.0,"z":-2.450000286102295},"angular_velocity":{"x":0.0,"y":0.0,"z":0.0},"acceleration":{"x":0.0,"y":0.0,"z":-9.800000190734863},"speed_mps":2.450000286102295,"speed_kph":8.820001029968262,"speed_limit_kph":30.0,"collisions_this_frame":[],"waypoint":{"x":-45.04631423950195,"y":92.45500946044922,"z":0.0},"lane_deviation_m":0.30394962430000305,"lane_width":3.5,"goal":{"x":109.9569091796875,"y":-27.333675384521484,"z":0.5999999642372131},"fault":{"name":"degraded_brake_pads","severity":1.0},"capture_flags":{"save_rgb":true,"save_depth":false,"video_rgb":true,"video_depth":false}}
{"frame":71,"timestamp":{"delta_seconds":0.05000000074505806,"elapsed_seconds":4.55188764911145},"control":{"throttle":0.75,"steer":0.0,"brake":0.0,"hand_brake":false,"reverse":false,"manual_gear_shift":false,"gear":0},"transform":{"location":{"x":-45.16095733642578,"y":92.45532989501953,"z":0.14429987967014313},"rotation":{"pitch":0.0,"yaw":-90.16118621826172,"roll":0.0}},"velocity":{"x":0.0,"y":0.0,"z":-2.93999981880188},"angular_velocity":{"x":0.0,"y":0.0,"z":0.0},"acceleration":{"x":0.0,"y":0.0,"z":-9.7999906539917},"speed_mps":2.93999981880188,"speed_kph":10.583999347686769,"speed_limit_kph":30.0,"collisions_this_frame":[],"waypoint":{"x":-45.04631423950195,"y":92.45500946044922,"z":0.0},"lane_deviation_m":0.184297576546669,"lane_width":3.5,"goal":{"x":109.9569091796875,"y":-27.333675384521484,"z":0.5999999642372131},"fault":{"name":"degraded_brake_pads","severity":1.0},"capture_flags":{"save_rgb":true,"save_depth":false,"video_rgb":true,"video_depth":false}}
{"frame":72,"timestamp":{"delta_seconds":0.05000000074505806,"elapsed_seconds":4.601887649856508},"control":{"throttle":0.75,"steer":0.0,"brake":0.0,"hand_brake":false,"reverse":false,"manual_gear_shift":false,"gear":0},"transform":{"location":{"x":-45.16095733642578,"y":92.45532989501953,"z":0.008085555396974087},"rotation":{"pitch":0.0,"yaw":-90.16118621826172,"roll":0.0}},"velocity":{"x":-8.036014151002746e-06,"y":5.844531756338256e-07,"z":-2.0645968914031982},"angular_velocity":{"x":-0.000824902905151248,"y":-0.000988240004517138,"z":-2.4806086074136147e-08},"acceleration":{"x":-0.00016072028665803373,"y":1.1689063285302836e-05,"z":17.508058547973633},"speed_mps":2.0645968914189203,"speed_kph":7.4325488091081136,"speed_limit_kph":30.0,"collisions_this_frame":[],"waypoint":{"x":-45.04631423950195,"y":92.45500946044922,"z":0.0},"lane_deviation_m":0.11492831259965897,"lane_width":3.5,"goal":{"x":109.9569091796875,"y":-27.333675384521484,"z":0.5999999642372131},"fault":{"name":"degraded_brake_pads","severity":1.0},"capture_flags":{"save_rgb":true,"save_depth":false,"video_rgb":true,"video_depth":false}}
{"frame":73,"timestamp":{"delta_seconds":0.05000000074505806,"elapsed_seconds":4.651887650601566},"control":{"throttle":0.75,"steer":0.0,"brake":0.0,"hand_brake":false,"reverse":false,"manual_gear_shift":false,"gear":0},"transform":{"location":{"x":-45.16095733642578,"y":92.45532989501953,"z":-0.05158817023038864},"rotation":{"pitch":0.0,"yaw":-90.16118621826172,"roll":0.0}},"velocity":{"x":-1.3206691846789909e-06,"y":1.7916877936841047e-07,"z":-0.7380886077880859},"angular_velocity":{"x":-0.0002524582378100604,"y":-0.00019060766499023885,"z":-7.253101674820073e-09},"acceleration":{"x":0.00013430690160021186,"y":-8.105687811621465e-06,"z":26.530166625976562},"speed_mps":0.7380886077892892,"speed_kph":2.657118988041441,"speed_limit_kph":30.0,"collisions_this_frame":[],"waypoint":{"x":-45.04631423950195,"y":92.45500946044922,"z":0.0},"lane_deviation_m":0.12571586668491364,"lane_width":3.5,"goal":{"x":109.9569091796875,"y":-27.333675384521484,"z":0.5999999642372131},"fault":{"name":"degraded_brake_pads","severity":1.0},"capture_flags":{"save_rgb":true,"save_depth":false,"video_rgb":true,"video_depth":false}}
{"frame":74,"timestamp":{"delta_seconds":0.05000000074505806,"elapsed_seconds":4.701887651346624},"control":{"throttle":0.75,"steer":0.0,"brake":0.0,"hand_brake":false,"reverse":false,"manual_gear_shift":false,"gear":0},"transform":{"location":{"x":-45.16095733642578,"y":92.45532989501953,"z":-0.0677318200469017},"rotation":{"pitch":0.0,"yaw":-90.16118621826172,"roll":0.0}},"velocity":{"x":-3.2113572956404823e-07,"y":5.4290552498059697e-08,"z":-0.11209665983915329},"angular_velocity":{"x":-7.632619235664606e-05,"y":-5.519101250683889e-05,"z":2.825137013218182e-09},"acceleration":{"x":1.9990668079117313e-05,"y":-2.4975645374070155e-06,"z":12.519838333129883},"speed_mps":0.11209665983962643,"speed_kph":0.40354797542265514,"speed_limit_kph":30.0,"collisions_this_frame":[],"waypoint":{"x":-45.04631423950195,"y":92.45500946044922,"z":0.0},"lane_deviation_m":0.13315682113170624,"lane_width":3.5,"goal":{"x":109.9569091796875,"y":-27.333675384521484,"z":0.5999999642372131},"fault":{"name":"degraded_brake_pads","severity":1.0},"capture_flags":{"save_rgb":true,"save_depth":false,"video_rgb":true,"video_depth":false}}
{"frame":75,"timestamp":{"delta_seconds":0.05000000074505806,"elapsed_seconds":4.751887652091682},"control":{"throttle":0.75,"steer":0.0,"brake":0.0,"hand_brake":false,"reverse":false,"manual_gear_shift":false,"gear":0},"transform":{"location":{"x":-45.16095733642578,"y":92.45532989501953,"z":-0.06445323675870895},"rotation":{"pitch":0.0,"yaw":-90.16118621826172,"roll":0.0}},"velocity":{"x":1.88796974498473e-07,"y":-1.0398423094803988e-10,"z":0.1505620926618576},"angular_velocity":{"x":-1.057954477801104e-06,"y":-1.4566587196895853e-05,"z":-8.452164523831129e-10},"acceleration":{"x":1.01986543086241e-05,"y":-1.0878907232836355e-06,"z":5.253174781799316},"speed_mps":0.15056209266197598,"speed_kph":0.5420235335831135,"speed_limit_kph":30.0,"collisions_this_frame":[],"waypoint":{"x":-45.04631423950195,"y":92.45500946044922,"z":0.0},"lane_deviation_m":0.13151943683624268,"lane_width":3.5,"goal":{"x":109.9569091796875,"y":-27.333675384521484,"z":0.5999999642372131},"fault":{"name":"degraded_brake_pads","severity":1.0},"capture_flags":{"save_rgb":true,"save_depth":false,"video_rgb":true,"video_depth":false}}
{"frame":76,"timestamp":{"delta_seconds":0.05000000074505806,"elapsed_seconds":4.80188765283674},"control":{"throttle":0.75,"steer":0.0,"brake":0.0,"hand_brake":false,"reverse":false,"manual_gear_shift":false,"gear":0},"transform":{"location":{"x":-45.16095733642578,"y":92.45532989501953,"z":-0.053962018340826035},"rotation":{"pitch":0.0,"yaw":-90.16118621826172,"roll":0.0}},"velocity":{"x":2.1396456872935232e-07,"y":-1.0400579952829503e-08,"z":0.2333739995956421},"angular_velocity":{"x":1.4391195691132452e-05,"y":-3.3316588087473065e-05,"z":7.34151489600876e-11},"acceleration":{"x":5.033518846175866e-07,"y":-2.0593191152329382e-07,"z":1.656238079071045},"speed_mps":0.2333739995957404,"speed_kph":0.8401463985446654,"speed_limit_kph":30.0,"collisions_this_frame":[],"waypoint":{"x":-45.04631423950195,"y":92.45500946044922,"z":0.0},"lane_deviation_m":0.1267084926366806,"lane_width":3.5,"goal":{"x":109.9569091796875,"y":-27.333675384521484,"z":0.5999999642372131},"fault":{"name":"degraded_brake_pads","severity":1.0},"capture_flags":{"save_rgb":true,"save_depth":false,"video_rgb":true,"video_depth":false}}
{"frame":77,"timestamp":{"delta_seconds":0.05000000074505806,"elapsed_seconds":4.851887653581798},"control":{"throttle":0.75,"steer":0.0,"brake":0.0,"hand_brake":false,"reverse":false,"manual_gear_shift":false,"gear":0},"transform":{"location":{"x":-45.16095733642578,"y":92.45532989501953,"z":-0.0420781709253788},"rotation":{"pitch":0.0,"yaw":-90.16118621826172,"roll":0.0}},"velocity":{"x":5.656051982327881e-08,"y":-3.159980010991603e-08,"z":0.2337055653333664},"angular_velocity":{"x":4.284522947273217e-05,"y":-2.0785189462912967e-06,"z":3.0139761797443043e-09},"acceleration":{"x":-3.148080850223778e-06,"y":-4.239844031417306e-07,"z":0.006631314754486084},"speed_mps":0.2337055653333754,"speed_kph":0.8413400352001514,"speed_limit_kph":30.0,"collisions_this_frame":[],"waypoint":{"x":-45.04631423950195,"y":92.45500946044922,"z":0.0},"lane_deviation_m":0.12212172150611877,"lane_width":3.5,"goal":{"x":109.9569091796875,"y":-27.333675384521484,"z":0.5999999642372131},"fault":{"name":"degraded_brake_pads","severity":1.0},"capture_flags":{"save_rgb":true,"save_depth":false,"video_rgb":true,"video_depth":false}}
{"frame":78,"timestamp":{"delta_seconds":0.05000000074505806,"elapsed_seconds":4.901887654326856},"control":{"throttle":0.75,"steer":0.0,"brake":0.0,"hand_brake":false,"reverse":false,"manual_gear_shift":false,"gear":0},"transform":{"location":{"x":-45.16095733642578,"y":92.45532989501953,"z":-0.0312923789024353},"rotation":{"pitch":0.0,"yaw":-90.16118621826172,"roll":0.0}},"velocity":{"x":3.3058782378248e-08,"y":-1.6089732879365215e-09,"z":0.20143501460552216},"angular_velocity":{"x":1.9494259504426736e-06,"y":-2.1561510948231444e-05,"z":8.381492722087103e-10},"acceleration":{"x":-4.7003476311147097e-07,"y":5.998165306664305e-07,"z":-0.6454110145568848},"speed_mps":0.20143501460552488,"speed_kph":0.7251660525798895,"speed_limit_kph":30.0,"collisions_this_frame":[],"waypoint":{"x":-45.04631423950195,"y":92.45500946044922,"z":0.0},"lane_deviation_m":0.11883751302957535,"lane_width":3.5,"goal":{"x":109.9569091796875,"y":-27.333675384521484,"z":0.5999999642372131},"fault":{"name":"degraded_brake_pads","severity":1.0},"capture_flags":{"save_rgb":true,"save_depth":false,"video_rgb":true,"video_depth":false}}
{"frame":79,"timestamp":{"delta_seconds":0.05000000074505806,"elapsed_seconds":4.951887655071914},"control":{"throttle":0.75,"steer":0.0,"brake":0.0,"hand_brake":false,"reverse":false,"manual_gear_shift":false,"gear":0},"transform":{"location":{"x":-45.16099166870117,"y":92.44242858886719,"z":-0.022523917257785797},"rotation":{"pitch":0.015128868632018566,"yaw":-90.16149139404297,"roll":-6.103481427999213e-05}},"velocity":{"x":-0.0017442069947719574,"y":-0.6265823245048523,"z":0.1607653945684433},"angular_velocity":{"x":-0.6703171730041504,"y":0.001954128034412861,"z":0.0001606217847438529},"acceleration":{"x":-0.034884802997112274,"y":-12.531646728515625,"z":-0.8133924007415771},"speed_mps":0.6468801772590438,"speed_kph":2.3287686381325576,"speed_limit_kph":30.0,"collisions_this_frame":[],"waypoint":{"x":-45.04635238647461,"y":92.44210052490234,"z":0.0},"lane_deviation_m":0.11683150380849838,"lane_width":3.5,"goal":{"x":109.9569091796875,"y":-27.333675384521484,"z":0.5999999642372131},"fault":{"name":"degraded_brake_pads","severity":1.0},"capture_flags":{"save_rgb":true,"save_depth":false,"video_rgb":true,"video_depth":false}}
{"frame":80,"timestamp":{"delta_seconds":0.05000000074505806,"elapsed_seconds":5.001887655816972},"control":{"throttle":0.75,"steer":0.00916556641459465,"brake":0.0,"hand_brake":false,"reverse":false,"manual_gear_shift":false,"gear":0},"transform":{"location":{"x":-45.160911560058594,"y":92.38874053955078,"z":-0.015862999483942986},"rotation":{"pitch":0.050379473716020584,"yaw":-90.15078735351562,"roll":-0.0010681129060685635}},"velocity":{"x":0.004266518168151379,"y":-1.3625178337097168,"z":0.12241940945386887},"angular_velocity":{"x":-0.6986851096153259,"y":-0.016675984486937523,"z":0.2883782684803009},"acceleration":{"x":0.12021450698375702,"y":-14.718709945678711,"z":-0.766919732093811},"speed_mps":1.3680129978056979,"speed_kph":4.924846792100513,"speed_limit_kph":30.0,"collisions_this_frame":[],"waypoint":{"x":-45.04650115966797,"y":92.38842010498047,"z":0.0},"lane_deviation_m":0.11550531536340714,"lane_width":3.5,"goal":{"x":109.9569091796875,"y":-27.333675384521484,"z":0.5999999642372131},"fault":{"name":"degraded_brake_pads","severity":1.0},"capture_flags":{"save_rgb":true,"save_depth":false,"video_rgb":true,"video_depth":false}}
{"frame":81,"timestamp":{"delta_seconds":0.05000000074505806,"elapsed_seconds":5.05188765656203},"control":{"throttle":0.75,"steer":0.00916556641459465,"brake":0.0,"hand_brake":false,"reverse":false,"manual_gear_shift":false,"gear":0},"transform":{"location":{"x":-45.16072082519531,"y":92.30472564697266,"z":-0.010882072150707245},"rotation":{"pitch":0.07578777521848679,"yaw":-90.13304901123047,"roll":-0.0016784636536613107}},"velocity":{"x":0.006740028038620949,"y":-1.8552320003509521,"z":0.0903051346540451},"angular_velocity":{"x":-0.3608875870704651,"y":-0.007864966057240963,"z":0.38469982147216797},"acceleration":{"x":0.0494701974093914,"y":-9.854283332824707,"z":-0.6422854661941528},"speed_mps":1.8574407717203372,"speed_kph":6.6867867781932135,"speed_limit_kph":30.0,"collisions_this_frame":[],"waypoint":{"x":-45.04673767089844,"y":92.30440521240234,"z":0.0},"lane_deviation_m":0.11450188606977463,"lane_width":3.5,"goal":{"x":109.9569091796875,"y":-27.333675384521484,"z":0.5999999642372131},"fault":{"name":"degraded_brake_pads","severity":1.0},"capture_flags":{"save_rgb":true,"save_depth":false,"video_rgb":true,"video_depth":false}}
{"frame":82,"timestamp":{"delta_seconds":0.05000000074505806,"elapsed_seconds":5.101887657307088},"control":{"throttle":0.75,"steer":0.0193589199334383,"brake":0.0,"hand_brake":false,"reverse":false,"manual_gear_shift":false,"gear":0},"transform":{"location":{"x":-45.16002655029297,"y":92.19831085205078,"z":-0.007223739288747311},"rotation":{"pitch":0.08845094591379166,"yaw":-90.09268188476562,"roll":-0.003662109375}},"velocity":{"x":0.0222746841609478,"y":-2.2624144554138184,"z":0.06510854512453079},"angular_velocity":{"x":-0.14350318908691406,"y":-0.02831808663904667,"z":0.8506757616996765},"acceleration":{"x":0.3106931149959564,"y":-8.143649101257324,"z":-0.5039317607879639},"speed_mps":2.2634607247019125,"speed_kph":8.148458608926886,"speed_limit_kph":30.0,"collisions_this_frame":[],"waypoint":{"x":-45.04703903198242,"y":92.19799041748047,"z":0.0},"lane_deviation_m":0.11321865767240524,"lane_width":3.5,"goal":{"x":109.9569091796875,"y":-27.333675384521484,"z":0.5999999642372131},"fault":{"name":"degraded_brake_pads","severity":1.0},"capture_flags":{"save_rgb":true,"save_depth":false,"video_rgb":true,"video_depth":false}}
{"frame":83,"timestamp":{"delta_seconds":0.05000000074505806,"elapsed_seconds":5.151887658052146},"control":{"throttle":0.75,"steer":0.0193589199334383,"brake":0.0,"hand_brake":false,"reverse":false,"manual_gear_shift":false,"gear":0},"transform":{"location":{"x":-45.15899658203125,"y":92.07520294189453,"z":-0.004576721228659153},"rotation":{"pitch":0.09125132113695145,"yaw":-90.0396957397461,"roll":-0.004547120537608862}},"velocity":{"x":0.029653243720531464,"y":-2.5897939205169678,"z":0.04613523557782173},"angular_velocity":{"x":-0.012116285972297192,"y":-0.013356897979974747,"z":1.1259101629257202},"acceleration":{"x":0.14757119119167328,"y":-6.547589302062988,"z":-0.37946617603302},"speed_mps":2.590374553143158,"speed_kph":9.32534839131537,"speed_limit_kph":30.0,"collisions_this_frame":[],"waypoint":{"x":-45.04738235473633,"y":92.07489013671875,"z":0.0},"lane_deviation_m":0.11170846223831177,"lane_width":3.5,"goal":{"x":109.9569091796875,"y":-27.333675384521484,"z":0.5999999642372131},"fault":{"name":"degraded_brake_pads","severity":1.0},"capture_flags":{"save_rgb":true,"save_depth":false,"video_rgb":true,"video_depth":false}}
{"frame":84,"timestamp":{"delta_seconds":0.05000000074505806,"elapsed_seconds":5.2018876587972045},"control":{"throttle":0.75,"steer":-0.007062501274049282,"brake":0.0,"hand_brake":false,"reverse":false,"manual_gear_shift":false,"gear":0},"transform":{"location":{"x":-45.15890121459961,"y":91.93697357177734,"z":-0.0026950836181640625},"rotation":{"pitch":0.08965989202260971,"yaw":-90.03728485107422,"roll":0.000430352461989969}},"velocity":{"x":-0.006675331387668848,"y":-2.8791635036468506,"z":0.03225008770823479},"angular_velocity":{"x":0.05401447042822838,"y":0.09078409522771835,"z":-0.2841072678565979},"acceleration":{"x":-0.7265715599060059,"y":-5.787391662597656,"z":-0.2777029573917389},"speed_mps":2.8793518557026565,"speed_kph":10.365666680529564,"speed_limit_kph":30.0,"collisions_this_frame":[],"waypoint":{"x":-45.04777145385742,"y":91.93666076660156,"z":0.0},"lane_deviation_m":0.11116287112236023,"lane_width":3.5,"goal":{"x":109.9569091796875,"y":-27.333675384521484,"z":0.5999999642372131},"fault":{"name":"degraded_brake_pads","severity":1.0},"capture_flags":{"save_rgb":true,"save_depth":false,"video_rgb":true,"video_depth":false}}
{"frame":85,"timestamp":{"delta_seconds":0.05000000074505806,"elapsed_seconds":5.2518876595422626},"control":{"throttle":0.75,"steer":-0.007062501274049282,"brake":0.0,"hand_brake":false,"reverse":false,"manual_gear_shift":false,"gear":0},"transform":{"location":{"x":-45.159423828125,"y":91.78437042236328,"z":-0.001376418978907168},"rotation":{"pitch":0.08653166145086288,"yaw":-90.0584945678711,"roll":0.002975424285978079}},"velocity":{"x":-0.01538026425987482,"y":-3.16638445854187,"z":0.022295380011200905},"angular_velocity":{"x":0.06481979787349701,"y":0.028993984684348106,"z":-0.47564762830734253},"acceleration":{"x":-0.1740986406803131,"y":-5.744419097900391,"z":-0.19909414649009705},"speed_mps":3.166500304088733,"speed_kph":11.399401094719439,"speed_limit_kph":30.0,"collisions_this_frame":[],"waypoint":{"x":-45.04820251464844,"y":91.7840576171875,"z":0.0},"lane_deviation_m":0.11123026907444,"lane_width":3.5,"goal":{"x":109.9569091796875,"y":-27.333675384521484,"z":0.5999999642372131},"fault":{"name":"degraded_brake_pads","severity":1.0},"capture_flags":{"save_rgb":true,"save_depth":false,"video_rgb":true,"video_depth":false}}
{"frame":86,"timestamp":{"delta_seconds":0.05000000074505806,"elapsed_seconds":5.301887660287321},"control":{"throttle":0.75,"steer":0.028782596811652184,"brake":0.0,"hand_brake":false,"reverse":false,"manual_gear_shift":false,"gear":0},"transform":{"location":{"x":-45.15829086303711,"y":91.61795806884766,"z":-0.0004620742693077773},"rotation":{"pitch":0.08308924734592438,"yaw":-89.99453735351562,"roll":-0.004760743118822575}},"velocity":{"x":0.047320593148469925,"y":-3.4379003047943115,"z":0.015275649726390839},"angular_velocity":{"x":0.0691208690404892,"y":-0.14898163080215454,"z":1.8703571557998657},"acceleration":{"x":1.2540172338485718,"y":-5.430316925048828,"z":-0.14039459824562073},"speed_mps":3.43825989269504,"speed_kph":12.377735613702145,"speed_limit_kph":30.0,"collisions_this_frame":[],"waypoint":{"x":-45.04867172241211,"y":91.61764526367188,"z":0.0},"lane_deviation_m":0.10962055623531342,"lane_width":3.5,"goal":{"x":109.9569091796875,"y":-27.333675384521484,"z":0.5999999642372131},"fault":{"name":"degraded_brake_pads","severity":1.0},"capture_flags":{"save_rgb":true,"save_depth":false,"video_rgb":true,"video_depth":false}}
{"frame":87,"timestamp":{"delta_seconds":0.05000000074505806,"elapsed_seconds":5.351887661032379},"control":{"throttle":0.75,"steer":0.028782596811652184,"brake":0.0,"hand_brake":false,"reverse":false,"manual_gear_shift":false,"gear":0},"transform":{"location":{"x":-45.15583038330078,"y":91.43793487548828,"z":0.00016666411829646677},"rotation":{"pitch":0.07987906038761139,"yaw":-89.88683319091797,"roll":-0.009185786359012127}},"velocity":{"x":0.06854576617479324,"y":-3.706052541732788,"z":0.010387067683041096},"angular_velocity":{"x":0.0638674721121788,"y":-0.053613997995853424,"z":2.263219118118286},"acceleration":{"x":0.4245034456253052,"y":-5.363044738769531,"z":-0.09777164459228516},"speed_mps":3.7067009395579245,"speed_kph":13.344123382408528,"speed_limit_kph":30.0,"collisions_this_frame":[],"waypoint":{"x":-45.04917907714844,"y":91.43762969970703,"z":0.0},"lane_deviation_m":0.10665187239646912,"lane_width":3.5,"goal":{"x":109.9569091796875,"y":-27.333675384521484,"z":0.5999999642372131},"fault":{"name":"degraded_brake_pads","severity":1.0},"capture_flags":{"save_rgb":true,"save_depth":false,"video_rgb":true,"video_depth":false}}
{"frame":88,"timestamp":{"delta_seconds":0.05000000074505806,"elapsed_seconds":5.401887661777437},"control":{"throttle":0.75,"steer":-0.00021570413082372397,"brake":0.0,"hand_brake":false,"reverse":false,"manual_gear_shift":false,"gear":0},"transform":{"location":{"x":-45.154354095458984,"y":91.24515533447266,"z":0.0005991744692437351},"rotation":{"pitch":0.07655958831310272,"yaw":-89.84866333007812,"roll":-0.00296020251698792}},"velocity":{"x":0.022531740367412567,"y":-3.9554905891418457,"z":0.007017125841230154},"angular_velocity":{"x":0.066487155854702,"y":0.12578105926513672,"z":0.27978765964508057},"acceleration":{"x":-0.9202805161476135,"y":-4.988760948181152,"z":-0.06739883869886398},"speed_mps":3.9555609867841452,"speed_kph":14.240019552422924,"speed_limit_kph":30.0,"collisions_this_frame":[],"waypoint":{"x":-45.049720764160156,"y":91.24485778808594,"z":0.0},"lane_deviation_m":0.10463546216487885,"lane_width":3.5,"goal":{"x":109.9569091796875,"y":-27.333675384521484,"z":0.5999999642372131},"fault":{"name":"degraded_brake_pads","severity":1.0},"capture_flags":{"save_rgb":true,"save_depth":false,"video_rgb":true,"video_depth":false}}
{"frame":89,"timestamp":{"delta_seconds":0.05000000074505806,"elapsed_seconds":5.451887662522495},"control":{"throttle":0.75,"steer":-0.00021570413082372397,"brake":0.0,"hand_brake":false,"reverse":false,"manual_gear_shift":false,"gear":0},"transform":{"location":{"x":-45.153587341308594,"y":91.0401611328125,"z":0.0008966827299445868},"rotation":{"pitch":0.07327426224946976,"yaw":-89.84447479248047,"roll":0.0007867463864386082}},"velocity":{"x":0.01396466325968504,"y":-4.195686340332031,"z":0.004713382571935654},"angular_velocity":{"x":0.06422917544841766,"y":0.04501291364431381,"z":0.020085785537958145},"acceleration":{"x":-0.17134153842926025,"y":-4.803915023803711,"z":-0.046074867248535156},"speed_mps":4.195712227291574,"speed_kph":15.104564018249668,"speed_limit_kph":30.0,"collisions_this_frame":[],"waypoint":{"x":-45.050296783447266,"y":91.03987121582031,"z":0.0},"lane_deviation_m":0.10329484939575195,"lane_width":3.5,"goal":{"x":109.9569091796875,"y":-27.333675384521484,"z":0.5999999642372131},"fault":{"name":"degraded_brake_pads","severity":1.0},"capture_flags":{"save_rgb":true,"save_depth":false,"video_rgb":true,"video_depth":false}}
{"frame":90,"timestamp":{"delta_seconds":0.05000000074505806,"elapsed_seconds":5.501887663267553},"control":{"throttle":0.75,"steer":-0.001845584250986576,"brake":0.0,"hand_brake":false,"reverse":false,"manual_gear_shift":false,"gear":0},"transform":{"location":{"x":-45.15306091308594,"y":90.82337951660156,"z":0.0011010360904037952},"rotation":{"pitch":0.07022117078304291,"yaw":-89.84967041015625,"roll":0.0021997359581291676}},"velocity":{"x":0.008618112653493881,"y":-4.428977966308594,"z":0.0031502721831202507},"angular_velocity":{"x":0.058570750057697296,"y":0.016038816422224045,"z":-0.14757023751735687},"acceleration":{"x":-0.10693101584911346,"y":-4.66583251953125,"z":-0.03126220777630806},"speed_mps":4.428987471434927,"speed_kph":15.944354897165738,"speed_limit_kph":30.0,"collisions_this_frame":[],"waypoint":{"x":-45.050907135009766,"y":90.82308959960938,"z":0.0},"lane_deviation_m":0.10216011852025986,"lane_width":3.5,"goal":{"x":109.9569091796875,"y":-27.333675384521484,"z":0.5999999642372131},"fault":{"name":"degraded_brake_pads","severity":1.0},"capture_flags":{"save_rgb":true,"save_depth":false,"video_rgb":true,"video_depth":false}}
{"frame":91,"timestamp":{"delta_seconds":0.05000000074505806,"elapsed_seconds":5.551887664012611},"control":{"throttle":0.75,"steer":-0.001845584250986576,"brake":0.0,"hand_brake":false,"reverse":false,"manual_gear_shift":false,"gear":0},"transform":{"location":{"x":-45.15263748168945,"y":90.59508514404297,"z":0.0012410735944285989},"rotation":{"pitch":0.06751641631126404,"yaw":-89.8581771850586,"roll":0.0024212703574448824}},"velocity":{"x":0.007043201941996813,"y":-4.657695293426514,"z":0.002098903525620699},"angular_velocity":{"x":0.05111042410135269,"y":-0.0007880257908254862,"z":-0.17974232137203217},"acceleration":{"x":-0.03149821609258652,"y":-4.574346542358398,"z":-0.021027373149991035},"speed_mps":4.657701091579096,"speed_kph":16.767723929684745,"speed_limit_kph":30.0,"collisions_this_frame":[],"waypoint":{"x":-45.05154800415039,"y":90.59480285644531,"z":0.0},"lane_deviation_m":0.10109749436378479,"lane_width":3.5,"goal":{"x":109.9569091796875,"y":-27.333675384521484,"z":0.5999999642372131},"fault":{"name":"degraded_brake_pads","severity":1.0},"capture_flags":{"save_rgb":true,"save_depth":false,"video_rgb":true,"video_depth":false}}
{"frame":92,"timestamp":{"delta_seconds":0.05000000074505806,"elapsed_seconds":5.601887664757669},"control":{"throttle":0.75,"steer":-0.009863878600299358,"brake":0.0,"hand_brake":false,"reverse":false,"manual_gear_shift":false,"gear":0},"transform":{"location":{"x":-45.15277099609375,"y":90.35545349121094,"z":0.0013372038956731558},"rotation":{"pitch":0.06518732011318207,"yaw":-89.89269256591797,"roll":0.004530792590230703}},"velocity":{"x":-0.012644103728234768,"y":-4.8829345703125,"z":0.0013897132594138384},"angular_velocity":{"x":0.04343389719724655,"y":0.03946409374475479,"z":-0.8820871114730835},"acceleration":{"x":-0.39374613761901855,"y":-4.504785537719727,"z":-0.01418380532413721},"speed_mps":4.882951138667574,"speed_kph":17.578624099203267,"speed_limit_kph":30.0,"collisions_this_frame":[],"waypoint":{"x":-45.052223205566406,"y":90.35517120361328,"z":0.0},"lane_deviation_m":0.10055708140134811,"lane_width":3.5,"goal":{"x":109.9569091796875,"y":-27.333675384521484,"z":0.5999999642372131},"fault":{"name":"degraded_brake_pads","severity":1.0},"capture_flags":{"save_rgb":true,"save_depth":false,"video_rgb":true,"video_depth":false}}
{"frame":93,"timestamp":{"delta_seconds":0.05000000074505806,"elapsed_seconds":5.651887665502727},"control":{"throttle":0.75,"steer":-0.009863878600299358,"brake":0.0,"hand_brake":false,"reverse":false,"manual_gear_shift":false,"gear":0},"transform":{"location":{"x":-45.15340805053711,"y":90.1046371459961,"z":0.0015354156494140625},"rotation":{"pitch":0.06311094760894775,"yaw":-89.94230651855469,"roll":0.005721310153603554}},"velocity":{"x":-0.021503552794456482,"y":-5.105411052703857,"z":0.006842069327831268},"angular_velocity":{"x":0.04203542694449425,"y":0.01456840056926012,"z":-1.042617678642273},"acceleration":{"x":-0.17718897759914398,"y":-4.449529647827148,"z":0.10904712975025177},"speed_mps":5.105460922753809,"speed_kph":18.379659321913714,"speed_limit_kph":30.0,"collisions_this_frame":[],"waypoint":{"x":-45.05292892456055,"y":90.10435485839844,"z":0.0},"lane_deviation_m":0.10049125552177429,"lane_width":3.5,"goal":{"x":109.9569091796875,"y":-27.333675384521484,"z":0.5999999642372131},"fault":{"name":"degraded_brake_pads","severity":1.0},"capture_flags":{"save_rgb":true,"save_depth":false,"video_rgb":true,"video_depth":false}}
{"frame":94,"timestamp":{"delta_seconds":0.05000000074505806,"elapsed_seconds":5.701887666247785},"control":{"throttle":0.0,"steer":0.010079318657517433,"brake":0.0,"hand_brake":false,"reverse":false,"manual_gear_shift":false,"gear":0},"transform":{"location":{"x":-45.15298843383789,"y":89.84368133544922,"z":0.0017501068068668246},"rotation":{"pitch":0.06007834151387215,"yaw":-89.92639923095703,"roll":-0.0010681146522983909}},"velocity":{"x":0.020981980487704277,"y":-5.2589921951293945,"z":0.002466564066708088},"angular_velocity":{"x":0.12396445870399475,"y":-0.11418309062719345,"z":1.058182716369629},"acceleration":{"x":0.8497107028961182,"y":-3.071622848510742,"z":-0.0875101089477539},"speed_mps":5.2590346296516595,"speed_kph":18.932524666745973,"speed_limit_kph":30.0,"collisions_this_frame":[],"waypoint":{"x":-45.05366516113281,"y":89.84339904785156,"z":0.0},"lane_deviation_m":0.09933909773826599,"lane_width":3.5,"goal":{"x":109.9569091796875,"y":-27.333675384521484,"z":0.5999999642372131},"fault":{"name":"degraded_brake_pads","severity":1.0},"capture_flags":{"save_rgb":true,"save_depth":false,"video_rgb":true,"video_depth":false}}
{"frame":95,"timestamp":{"delta_seconds":0.05000000074505806,"elapsed_seconds":5.751887666992843},"control":{"throttle":0.0,"steer":0.010079318657517433,"brake":0.0,"hand_brake":false,"reverse":false,"manual_gear_shift":false,"gear":0},"transform":{"location":{"x":-45.151790618896484,"y":89.58229064941406,"z":0.0018819045508280396},"rotation":{"pitch":0.047784000635147095,"yaw":-89.88646697998047,"roll":-0.003845214145258069}},"velocity":{"x":0.03261491283774376,"y":-5.216854572296143,"z":0.0005673599080182612},"angular_velocity":{"x":0.2674103081226349,"y":-0.0372907854616642,"z":0.7820456624031067},"acceleration":{"x":0.23265865445137024,"y":0.8427524566650391,"z":-0.03798408433794975},"speed_mps":5.2169565536741676,"speed_kph":18.781043593227004,"speed_limit_kph":30.0,"collisions_this_frame":[],"waypoint":{"x":-45.05439758300781,"y":89.58201599121094,"z":0.0},"lane_deviation_m":0.09741160273551941,"lane_width":3.5,"goal":{"x":109.9569091796875,"y":-27.333675384521484,"z":0.5999999642372131},"fault":{"name":"degraded_brake_pads","severity":1.0},"capture_flags":{"save_rgb":true,"save_depth":false,"video_rgb":true,"video_depth":false}}
{"frame":96,"timestamp":{"delta_seconds":0.05000000074505806,"elapsed_seconds":5.801887667737901},"control":{"throttle":0.11074251681566238,"steer":0.015045794658362865,"brake":0.0,"hand_brake":false,"reverse":false,"manual_gear_shift":false,"gear":0},"transform":{"location":{"x":-45.15003204345703,"y":89.32418823242188,"z":0.001968765165656805},"rotation":{"pitch":0.03348841518163681,"yaw":-89.83157348632812,"roll":-0.005615233909338713}},"velocity":{"x":0.04574575275182724,"y":-5.127829551696777,"z":-0.00017924308485817164},"angular_velocity":{"x":0.29095542430877686,"y":-0.01844143681228161,"z":1.2437002658843994},"acceleration":{"x":0.2626168131828308,"y":1.7805004119873047,"z":-0.014932060614228249},"speed_mps":5.128033601418549,"speed_kph":18.460920965106776,"speed_limit_kph":30.0,"collisions_this_frame":[],"waypoint":{"x":-45.05512619018555,"y":89.32392120361328,"z":0.0},"lane_deviation_m":0.09492665529251099,"lane_width":3.5,"goal":{"x":109.9569091796875,"y":-27.333675384521484,"z":0.5999999642372131},"fault":{"name":"degraded_brake_pads","severity":1.0},"capture_flags":{"save_rgb":true,"save_depth":false,"video_rgb":true,"video_depth":false}}
{"frame":97,"timestamp":{"delta_seconds":0.05000000074505806,"elapsed_seconds":5.851887668482959},"control":{"throttle":0.11074251681566238,"steer":0.015045794658362865,"brake":0.0,"hand_brake":false,"reverse":false,"manual_gear_shift":false,"gear":0},"transform":{"location":{"x":-45.14778137207031,"y":89.0692138671875,"z":0.002021636813879013},"rotation":{"pitch":0.021494604647159576,"yaw":-89.75897216796875,"roll":-0.006561279762536287}},"velocity":{"x":0.05803663283586502,"y":-5.083094120025635,"z":-0.00041262625018134713},"angular_velocity":{"x":0.2028854489326477,"y":-0.019244085997343063,"z":1.5612033605575562},"acceleration":{"x":0.24581760168075562,"y":0.8947086334228516,"z":-0.0046676634810864925},"speed_mps":5.083425444919058,"speed_kph":18.30033160170861,"speed_limit_kph":30.0,"collisions_this_frame":[],"waypoint":{"x":-45.055843353271484,"y":89.06895446777344,"z":0.0},"lane_deviation_m":0.0919606015086174,"lane_width":3.5,"goal":{"x":109.9569091796875,"y":-27.333675384521484,"z":0.5999999642372131},"fault":{"name":"degraded_brake_pads","severity":1.0},"capture_flags":{"save_rgb":true,"save_depth":false,"video_rgb":true,"video_depth":false}}
{"frame":98,"timestamp":{"delta_seconds":0.05000000074505806,"elapsed_seconds":5.901887669228017},"control":{"throttle":0.11074251681566238,"steer":0.02519978955388069,"brake":0.0,"hand_brake":false,"reverse":false,"manual_gear_shift":false,"gear":0},"transform":{"location":{"x":-45.14474868774414,"y":88.81813049316406,"z":0.002058753976598382},"rotation":{"pitch":0.011467887088656425,"yaw":-89.66030883789062,"roll":-0.008789063431322575}},"velocity":{"x":0.0790378600358963,"y":-4.982095718383789,"z":-0.0004309368086978793},"angular_velocity":{"x":0.20116570591926575,"y":-0.02689523994922638,"z":2.1391541957855225},"acceleration":{"x":0.4200245440006256,"y":2.019968032836914,"z":-0.00036621117033064365},"speed_mps":4.9827226409026295,"speed_kph":17.937801507249468,"speed_limit_kph":30.0,"collisions_this_frame":[],"waypoint":{"x":-45.056549072265625,"y":88.81787872314453,"z":0.0},"lane_deviation_m":0.08822400122880936,"lane_width":3.5,"goal":{"x":109.9569091796875,"y":-27.333675384521484,"z":0.5999999642372131},"fault":{"name":"degraded_brake_pads","severity":1.0},"capture_flags":{"save_rgb":true,"save_depth":false,"video_rgb":true,"video_depth":false}}
{"frame":99,"timestamp":{"delta_seconds":0.05000000074505806,"elapsed_seconds":5.951887669973075},"control":{"throttle":0.11074251681566238,"steer":0.02519978955388069,"brake":0.0,"hand_brake":false,"reverse":false,"manual_gear_shift":false,"gear":0},"transform":{"location":{"x":-45.14060592651367,"y":88.56644439697266,"z":0.0020307539962232113},"rotation":{"pitch":0.008319170214235783,"yaw":-89.5346908569336,"roll":-0.011383055709302425}},"velocity":{"x":0.10647862404584885,"y":-5.0317535400390625,"z":0.0002964115119539201},"angular_velocity":{"x":0.06255704909563065,"y":-0.043839141726493835,"z":2.600581407546997},"acceleration":{"x":0.5488152503967285,"y":-0.9931564331054688,"z":0.014546966180205345},"speed_mps":5.032880037606114,"speed_kph":18.118368135382013,"speed_limit_kph":30.0,"collisions_this_frame":[],"waypoint":{"x":-45.05725860595703,"y":88.56620788574219,"z":0.0},"lane_deviation_m":0.08337239176034927,"lane_width":3.5,"goal":{"x":109.9569091796875,"y":-27.333675384521484,"z":0.5999999642372131},"fault":{"name":"degraded_brake_pads","severity":1.0},"capture_flags":{"save_rgb":true,"save_depth":false,"video_rgb":true,"video_depth":false}}
{"frame":100,"timestamp":{"delta_seconds":0.05000000074505806,"elapsed_seconds":6.0018876707181334},"control":{"throttle":0.09343812614679337,"steer":0.005510413553565741,"brake":0.0,"hand_brake":false,"reverse":false,"manual_gear_shift":false,"gear":0},"transform":{"location":{"x":-45.13671112060547,"y":88.31627655029297,"z":0.001968459924682975},"rotation":{"pitch":0.005088490433990955,"yaw":-89.45184326171875,"roll":-0.006439208053052425}},"velocity":{"x":0.07757129520177841,"y":-5.0142364501953125,"z":0.0019138430943712592},"angular_velocity":{"x":0.03483765944838524,"y":0.1390061378479004,"z":1.0657457113265991},"acceleration":{"x":-0.5781465768814087,"y":0.350341796875,"z":0.0323486328125},"speed_mps":5.0148368016419,"speed_kph":18.05341248591084,"speed_limit_kph":30.0,"collisions_this_frame":[],"waypoint":{"x":-45.057960510253906,"y":88.31605529785156,"z":0.0},"lane_deviation_m":0.07877551764249802,"lane_width":3.5,"goal":{"x":109.9569091796875,"y":-27.333675384521484,"z":0.5999999642372131},"fault":{"name":"degraded_brake_pads","severity":1.0},"capture_flags":{"save_rgb":true,"save_depth":false,"video_rgb":true,"video_depth":false}}
{"frame":101,"timestamp":{"delta_seconds":0.05000000074505806,"elapsed_seconds":6.0518876714631915},"control":{"throttle":0.09343812614679337,"steer":0.005510413553565741,"brake":0.0,"hand_brake":false,"reverse":false,"manual_gear_shift":false,"gear":0},"transform":{"location":{"x":-45.13335418701172,"y":88.06657409667969,"z":0.0019313811790198088},"rotation":{"pitch":0.002745735924690962,"yaw":-89.41152954101562,"roll":-0.0028076169546693563}},"velocity":{"x":0.07062883675098419,"y":-4.9887213706970215,"z":-0.004737358074635267},"angular_velocity":{"x":0.032030049711465836,"y":0.03786299750208855,"z":0.6532589197158813},"acceleration":{"x":-0.1388491690158844,"y":0.5103015899658203,"z":-0.13302402198314667},"speed_mps":4.989223565805755,"speed_kph":17.96120483690072,"speed_limit_kph":30.0,"collisions_this_frame":[],"waypoint":{"x":-45.05866241455078,"y":88.06636810302734,"z":0.0},"lane_deviation_m":0.07471702247858047,"lane_width":3.5,"goal":{"x":109.9569091796875,"y":-27.333675384521484,"z":0.5999999642372131},"fault":{"name":"degraded_brake_pads","severity":1.0},"capture_flags":{"save_rgb":true,"save_depth":false,"video_rgb":true,"video_depth":false}}
{"frame":102,"timestamp":{"delta_seconds":0.05000000074505806,"elapsed_seconds":6.10188767220825},"control":{"throttle":0.17599628865718842,"steer":0.0016261059790849686,"brake":0.0,"hand_brake":false,"reverse":false,"manual_gear_shift":false,"gear":0},"transform":{"location":{"x":-45.13029098510742,"y":87.81761169433594,"z":0.0017984008882194757},"rotation":{"pitch":0.001202113227918744,"yaw":-89.3924560546875,"roll":-0.000579833984375}},"velocity":{"x":0.061035674065351486,"y":-4.972554683685303,"z":-0.0018407058669254184},"angular_velocity":{"x":0.029215632006525993,"y":0.03520888462662697,"z":0.27301156520843506},"acceleration":{"x":-0.1918632537126541,"y":0.323333740234375,"z":0.05793303996324539},"speed_mps":4.972929601748585,"speed_kph":17.902546566294905,"speed_limit_kph":30.0,"collisions_this_frame":[],"waypoint":{"x":-45.059364318847656,"y":87.8174057006836,"z":0.0},"lane_deviation_m":0.07094976305961609,"lane_width":3.5,"goal":{"x":109.9569091796875,"y":-27.333675384521484,"z":0.5999999642372131},"fault":{"name":"degraded_brake_pads","severity":1.0},"capture_flags":{"save_rgb":true,"save_depth":false,"video_rgb":true,"video_depth":false}}
{"frame":103,"timestamp":{"delta_seconds":0.05000000074505806,"elapsed_seconds":6.151887672953308},"control":{"throttle":0.17599628865718842,"steer":0.0016261059790849686,"brake":0.0,"hand_brake":false,"reverse":false,"manual_gear_shift":false,"gear":0},"transform":{"location":{"x":-45.12738037109375,"y":87.56964874267578,"z":0.0017609023489058018},"rotation":{"pitch":-0.00027320755179971457,"yaw":-89.38219451904297,"roll":0.00033477949909865856}},"velocity":{"x":0.058949992060661316,"y":-4.950261116027832,"z":-0.0004431819834280759},"angular_velocity":{"x":0.02884604223072529,"y":0.009928282350301743,"z":0.18235474824905396},"acceleration":{"x":-0.041713640093803406,"y":0.44587135314941406,"z":0.027950478717684746},"speed_mps":4.95061212526606,"speed_kph":17.822203650957817,"speed_limit_kph":30.0,"collisions_this_frame":[],"waypoint":{"x":-45.060062408447266,"y":87.5694580078125,"z":0.0},"lane_deviation_m":0.06734126061201096,"lane_width":3.5,"goal":{"x":109.9569091796875,"y":-27.333675384521484,"z":0.5999999642372131},"fault":{"name":"degraded_brake_pads","severity":1.0},"capture_flags":{"save_rgb":true,"save_depth":false,"video_rgb":true,"video_depth":false}}
{"frame":104,"timestamp":{"delta_seconds":0.05000000074505806,"elapsed_seconds":6.201887673698366},"control":{"throttle":0.3813210725784302,"steer":0.009135325439274311,"brake":0.0,"hand_brake":false,"reverse":false,"manual_gear_shift":false,"gear":0},"transform":{"location":{"x":-45.12400436401367,"y":87.32267761230469,"z":0.0017658615252003074},"rotation":{"pitch":-0.001372867962345481,"yaw":-89.349609375,"roll":-0.0017700194148346782}},"velocity":{"x":0.07666061818599701,"y":-4.936367511749268,"z":0.00017039298836607486},"angular_velocity":{"x":0.013499096967279911,"y":-0.042987190186977386,"z":0.8229476809501648},"acceleration":{"x":0.35421252250671387,"y":0.27787208557128906,"z":0.012271499261260033},"speed_mps":4.936962739424725,"speed_kph":17.773065861929012,"speed_limit_kph":30.0,"collisions_this_frame":[],"waypoint":{"x":-45.06075668334961,"y":87.32249450683594,"z":0.0},"lane_deviation_m":0.06327258795499802,"lane_width":3.5,"goal":{"x":109.9569091796875,"y":-27.333675384521484,"z":0.5999999642372131},"fault":{"name":"degraded_brake_pads","severity":1.0},"capture_flags":{"save_rgb":true,"save_depth":false,"video_rgb":true,"video_depth":false}}
{"frame":105,"timestamp":{"delta_seconds":0.05000000074505806,"elapsed_seconds":6.251887674443424},"control":{"throttle":0.3813210725784302,"steer":0.009135325439274311,"brake":0.0,"hand_brake":false,"reverse":false,"manual_gear_shift":false,"gear":0},"transform":{"location":{"x":-45.12017822265625,"y":87.07549285888672,"z":0.001780281076207757},"rotation":{"pitch":-0.0010996604105457664,"yaw":-89.3044662475586,"roll":-0.0031433103140443563}},"velocity":{"x":0.08433392643928528,"y":-4.951293468475342,"z":0.0003865623439196497},"angular_velocity":{"x":-0.016486382111907005,"y":-0.018678568303585052,"z":0.9335409998893738},"acceleration":{"x":0.15346616506576538,"y":-0.2985191345214844,"z":0.004323387052863836},"speed_mps":4.952011648971122,"speed_kph":17.82724193629604,"speed_limit_kph":30.0,"collisions_this_frame":[],"waypoint":{"x":-45.06145477294922,"y":87.07532501220703,"z":0.0},"lane_deviation_m":0.05875066667795181,"lane_width":3.5,"goal":{"x":109.9569091796875,"y":-27.333675384521484,"z":0.5999999642372131},"fault":{"name":"degraded_brake_pads","severity":1.0},"capture_flags":{"save_rgb":true,"save_depth":false,"video_rgb":true,"video_depth":false}}
{"frame":106,"timestamp":{"delta_seconds":0.05000000074505806,"elapsed_seconds":6.301887675188482},"control":{"throttle":0.33864712715148926,"steer":-0.04403078928589821,"brake":0.0,"hand_brake":false,"reverse":false,"manual_gear_shift":false,"gear":0},"transform":{"location":{"x":-45.119441986083984,"y":86.82723236083984,"z":0.0017942046979442239},"rotation":{"pitch":8.879245433490723e-05,"yaw":-89.41954803466797,"roll":0.011579038575291634}},"velocity":{"x":-0.03382780775427818,"y":-4.975830078125,"z":0.00041963576222769916},"angular_velocity":{"x":-0.031051181256771088,"y":0.29297763109207153,"z":-3.5463664531707764},"acceleration":{"x":-2.363234758377075,"y":-0.49073219299316406,"z":0.0006614683661609888},"speed_mps":4.975945082398425,"speed_kph":17.91340229663433,"speed_limit_kph":30.0,"collisions_this_frame":[],"waypoint":{"x":-45.06215286254883,"y":86.82707214355469,"z":0.0},"lane_deviation_m":0.05731743574142456,"lane_width":3.5,"goal":{"x":109.9569091796875,"y":-27.333675384521484,"z":0.5999999642372131},"fault":{"name":"degraded_brake_pads","severity":1.0},"capture_flags":{"save_rgb":true,"save_depth":false,"video_rgb":true,"video_depth":false}}
{"frame":107,"timestamp":{"delta_seconds":0.05000000074505806,"elapsed_seconds":6.35188767593354},"control":{"throttle":0.33864712715148926,"steer":-0.04403078928589821,"brake":0.0,"hand_brake":false,"reverse":false,"manual_gear_shift":false,"gear":0},"transform":{"location":{"x":-45.12147903442383,"y":86.5775375366211,"z":0.001805000239983201},"rotation":{"pitch":0.0016324151074513793,"yaw":-89.62872314453125,"roll":0.02054740861058235}},"velocity":{"x":-0.07988027483224869,"y":-5.006467342376709,"z":0.0003751373151317239},"angular_velocity":{"x":-0.03245042264461517,"y":0.10940234363079071,"z":-4.424633026123047},"acceleration":{"x":-0.9210493564605713,"y":-0.6127452850341797,"z":-0.0008899689419195056},"speed_mps":5.007104577429933,"speed_kph":18.02557647874776,"speed_limit_kph":30.0,"collisions_this_frame":[],"waypoint":{"x":-45.0628547668457,"y":86.5773696899414,"z":0.0},"lane_deviation_m":0.05865228921175003,"lane_width":3.5,"goal":{"x":109.9569091796875,"y":-27.333675384521484,"z":0.5999999642372131},"fault":{"name":"degraded_brake_pads","severity":1.0},"capture_flags":{"save_rgb":true,"save_depth":false,"video_rgb":true,"video_depth":false}}
{"frame":108,"timestamp":{"delta_seconds":0.05000000074505806,"elapsed_seconds":6.401887676678598},"control":{"throttle":0.08460836857557297,"steer":-0.052258964627981186,"brake":0.0,"hand_brake":false,"reverse":false,"manual_gear_shift":false,"gear":0},"transform":{"location":{"x":-45.12554931640625,"y":86.32667541503906,"z":0.0020621109288185835},"rotation":{"pitch":0.002759396331384778,"yaw":-89.89190673828125,"roll":0.025898640975356102}},"velocity":{"x":-0.12752358615398407,"y":-5.019813537597656,"z":0.0033853149507194757},"angular_velocity":{"x":-0.009082498960196972,"y":0.052093684673309326,"z":-6.314789772033691},"acceleration":{"x":-0.9528661966323853,"y":-0.2669239044189453,"z":0.06020355224609375},"speed_mps":5.021434225162327,"speed_kph":18.077163210584377,"speed_limit_kph":30.0,"collisions_this_frame":[],"waypoint":{"x":-45.063560485839844,"y":86.32649993896484,"z":0.0},"lane_deviation_m":0.06202336773276329,"lane_width":3.5,"goal":{"x":109.9569091796875,"y":-27.333675384521484,"z":0.5999999642372131},"fault":{"name":"degraded_brake_pads","severity":1.0},"capture_flags":{"save_rgb":true,"save_depth":false,"video_rgb":true,"video_depth":false}}
{"frame":109,"timestamp":{"delta_seconds":0.05000000074505806,"elapsed_seconds":6.451887677423656},"control":{"throttle":0.08460836857557297,"steer":-0.052258964627981186,"brake":0.0,"hand_brake":false,"reverse":false,"manual_gear_shift":false,"gear":0},"transform":{"location":{"x":-45.1309814453125,"y":86.07759857177734,"z":0.0019977570045739412},"rotation":{"pitch":0.0008537736139260232,"yaw":-90.17996978759766,"roll":0.0257696695625782}},"velocity":{"x":-0.15428858995437622,"y":-4.9726362228393555,"z":-0.003537359181791544},"angular_velocity":{"x":0.03343501314520836,"y":-0.004718320909887552,"z":-5.6257734298706055},"acceleration":{"x":-0.535300076007843,"y":0.9435462951660156,"z":-0.13845348358154297},"speed_mps":4.975030501071741,"speed_kph":17.91010980385827,"speed_limit_kph":30.0,"collisions_this_frame":[],"waypoint":{"x":-45.06426239013672,"y":86.07740783691406,"z":0.0},"lane_deviation_m":0.06674923002719879,"lane_width":3.5,"goal":{"x":109.9569091796875,"y":-27.333675384521484,"z":0.5999999642372131},"fault":{"name":"degraded_brake_pads","severity":1.0},"capture_flags":{"save_rgb":true,"save_depth":false,"video_rgb":true,"video_depth":false}}
{"frame":110,"timestamp":{"delta_seconds":0.05000000074505806,"elapsed_seconds":6.501887678168714},"control":{"throttle":0.2623850107192993,"steer":-0.05408686771988869,"brake":0.0,"hand_brake":false,"reverse":false,"manual_gear_shift":false,"gear":0},"transform":{"location":{"x":-45.13804244995117,"y":85.82972717285156,"z":0.001894302316941321},"rotation":{"pitch":-0.0007308301865123212,"yaw":-90.45929718017578,"roll":0.025725295767188072}},"velocity":{"x":-0.1858130544424057,"y":-4.949013710021973,"z":-0.0015736675122752786},"angular_velocity":{"x":0.027745958417654037,"y":-0.006650059018284082,"z":-5.578671455383301},"acceleration":{"x":-0.6304892897605896,"y":0.47245025634765625,"z":0.039273835718631744},"speed_mps":4.952500950995982,"speed_kph":17.829003423585537,"speed_limit_kph":30.0,"collisions_this_frame":[],"waypoint":{"x":-45.06496047973633,"y":85.82952117919922,"z":0.0},"lane_deviation_m":0.0731068029999733,"lane_width":3.5,"goal":{"x":109.9569091796875,"y":-27.333675384521484,"z":0.5999999642372131},"fault":{"name":"degraded_brake_pads","severity":1.0},"capture_flags":{"save_rgb":true,"save_depth":false,"video_rgb":true,"video_depth":false}}
{"frame":111,"timestamp":{"delta_seconds":0.05000000074505806,"elapsed_seconds":6.551887678913772},"control":{"throttle":0.2623850107192993,"steer":-0.05408686771988869,"brake":0.0,"hand_brake":false,"reverse":false,"manual_gear_shift":false,"gear":0},"transform":{"location":{"x":-45.146488189697266,"y":85.5826644897461,"z":0.001853523193858564},"rotation":{"pitch":-0.0016529057174921036,"yaw":-90.73839569091797,"roll":0.024984892457723618}},"velocity":{"x":-0.21184025704860687,"y":-4.936875343322754,"z":-0.0005807876586914062},"angular_velocity":{"x":0.011891655623912811,"y":-0.019110428169369698,"z":-5.581873416900635},"acceleration":{"x":-0.5205440521240234,"y":0.242767333984375,"z":0.01985759660601616},"speed_mps":4.941418297141913,"speed_kph":17.789105869710887,"speed_limit_kph":30.0,"collisions_this_frame":[],"waypoint":{"x":-45.06565475463867,"y":85.58243560791016,"z":0.0},"lane_deviation_m":0.08085501194000244,"lane_width":3.5,"goal":{"x":109.9569091796875,"y":-27.333675384521484,"z":0.5999999642372131},"fault":{"name":"degraded_brake_pads","severity":1.0},"capture_flags":{"save_rgb":true,"save_depth":false,"video_rgb":true,"video_depth":false}}
{"frame":112,"timestamp":{"delta_seconds":0.05000000074505806,"elapsed_seconds":6.60188767965883},"control":{"throttle":0.4087652564048767,"steer":0.007840942591428757,"brake":0.0,"hand_brake":false,"reverse":false,"manual_gear_shift":false,"gear":0},"transform":{"location":{"x":-45.152400970458984,"y":85.3356704711914,"z":0.001839866628870368},"rotation":{"pitch":-0.0016187547007575631,"yaw":-90.83495330810547,"roll":0.006720001809298992}},"velocity":{"x":-0.09569505602121353,"y":-4.945156574249268,"z":-0.00010663986176950857},"angular_velocity":{"x":-0.017033075913786888,"y":-0.36977270245552063,"z":-0.42752957344055176},"acceleration":{"x":2.322904109954834,"y":-0.16562461853027344,"z":0.009482955560088158},"speed_mps":4.9460823991275875,"speed_kph":17.805896636859316,"speed_limit_kph":30.0,"collisions_this_frame":[],"waypoint":{"x":-45.066349029541016,"y":85.3354263305664,"z":0.0},"lane_deviation_m":0.08607195317745209,"lane_width":3.5,"goal":{"x":109.9569091796875,"y":-27.333675384521484,"z":0.5999999642372131},"fault":{"name":"degraded_brake_pads","severity":1.0},"capture_flags":{"save_rgb":true,"save_depth":false,"video_rgb":true,"video_depth":false}}
{"frame":113,"timestamp":{"delta_seconds":0.05000000074505806,"elapsed_seconds":6.651887680403888},"control":{"throttle":0.4087652564048767,"steer":0.007840942591428757,"brake":0.0,"hand_brake":false,"reverse":false,"manual_gear_shift":false,"gear":0},"transform":{"location":{"x":-45.156009674072266,"y":85.08747863769531,"z":0.00183300010394305},"rotation":{"pitch":-0.00021856604143977165,"yaw":-90.81868743896484,"roll":-0.004913329612463713}},"velocity":{"x":-0.06154721975326538,"y":-4.978267192840576,"z":9.439467976335436e-05},"angular_velocity":{"x":-0.03905167430639267,"y":-0.1466919630765915,"z":0.604030191898346},"acceleration":{"x":0.6829566955566406,"y":-0.6622123718261719,"z":0.00402069091796875},"speed_mps":4.978647638915864,"speed_kph":17.92313150009711,"speed_limit_kph":30.0,"collisions_this_frame":[],"waypoint":{"x":-45.067047119140625,"y":85.08722686767578,"z":0.0},"lane_deviation_m":0.08898179233074188,"lane_width":3.5,"goal":{"x":109.9569091796875,"y":-27.333675384521484,"z":0.5999999642372131},"fault":{"name":"degraded_brake_pads","severity":1.0},"capture_flags":{"save_rgb":true,"save_depth":false,"video_rgb":true,"video_depth":false}}
{"frame":114,"timestamp":{"delta_seconds":0.05000000074505806,"elapsed_seconds":6.701887681148946},"control":{"throttle":0.1599806547164917,"steer":0.008273014798760414,"brake":0.0,"hand_brake":false,"reverse":false,"manual_gear_shift":false,"gear":0},"transform":{"location":{"x":-45.15885543823242,"y":84.83753967285156,"z":0.0019000625470653176},"rotation":{"pitch":0.0016597359208390117,"yaw":-90.78023529052734,"roll":-0.008544920943677425}},"velocity":{"x":-0.04852752760052681,"y":-5.007559299468994,"z":0.007261381018906832},"angular_velocity":{"x":-0.03617781400680542,"y":-0.04412679374217987,"z":0.8320062756538391},"acceleration":{"x":0.2603938579559326,"y":-0.5858421325683594,"z":0.14333972334861755},"speed_mps":5.0077996951044,"speed_kph":18.028078902375842,"speed_limit_kph":30.0,"collisions_this_frame":[],"waypoint":{"x":-45.067752838134766,"y":84.83728790283203,"z":0.0},"lane_deviation_m":0.09112276136875153,"lane_width":3.5,"goal":{"x":109.9569091796875,"y":-27.333675384521484,"z":0.5999999642372131},"fault":{"name":"degraded_brake_pads","severity":1.0},"capture_flags":{"save_rgb":true,"save_depth":false,"video_rgb":true,"video_depth":false}}
{"frame":115,"timestamp":{"delta_seconds":0.05000000074505806,"elapsed_seconds":6.751887681894004},"control":{"throttle":0.1599806547164917,"steer":0.008273014798760414,"brake":0.0,"hand_brake":false,"reverse":false,"manual_gear_shift":false,"gear":0},"transform":{"location":{"x":-45.16130447387695,"y":84.58724212646484,"z":0.0021059417631477118},"rotation":{"pitch":0.001973924459889531,"yaw":-90.74065399169922,"roll":-0.008636473678052425}},"velocity":{"x":-0.04184379056096077,"y":-4.990279674530029,"z":0.0025795362889766693},"angular_velocity":{"x":0.032898470759391785,"y":0.013685259968042374,"z":0.4470590054988861},"acceleration":{"x":0.1336747407913208,"y":0.3455924987792969,"z":-0.0936368927359581},"speed_mps":4.990455769450674,"speed_kph":17.965640770022425,"speed_limit_kph":30.0,"collisions_this_frame":[],"waypoint":{"x":-45.06845474243164,"y":84.58697509765625,"z":0.0},"lane_deviation_m":0.09287399798631668,"lane_width":3.5,"goal":{"x":109.9569091796875,"y":-27.333675384521484,"z":0.5999999642372131},"fault":{"name":"degraded_brake_pads","severity":1.0},"capture_flags":{"save_rgb":true,"save_depth":false,"video_rgb":true,"video_depth":false}}
{"frame":116,"timestamp":{"delta_seconds":0.05000000074505806,"elapsed_seconds":6.801887682639062},"control":{"throttle":0.13473275303840637,"steer":0.007564290426671505,"brake":0.0,"hand_brake":false,"reverse":false,"manual_gear_shift":false,"gear":0},"transform":{"location":{"x":-45.16357421875,"y":84.3377456665039,"z":0.001942596398293972},"rotation":{"pitch":0.0010450189001858234,"yaw":-90.69833374023438,"roll":-0.007537841331213713}},"velocity":{"x":-0.03911082446575165,"y":-4.9818854331970215,"z":-0.0024364471901208162},"angular_velocity":{"x":0.02476663514971733,"y":0.023681364953517914,"z":0.8429774045944214},"acceleration":{"x":0.054659321904182434,"y":0.16788482666015625,"z":-0.10031966865062714},"speed_mps":4.982039548454626,"speed_kph":17.935342374436654,"speed_limit_kph":30.0,"collisions_this_frame":[],"waypoint":{"x":-45.069156646728516,"y":84.33747863769531,"z":0.0},"lane_deviation_m":0.09443793445825577,"lane_width":3.5,"goal":{"x":109.9569091796875,"y":-27.333675384521484,"z":0.5999999642372131},"fault":{"name":"degraded_brake_pads","severity":1.0},"capture_flags":{"save_rgb":true,"save_depth":false,"video_rgb":true,"video_depth":false}}
{"frame":117,"timestamp":{"delta_seconds":0.05000000074505806,"elapsed_seconds":6.8518876833841205},"control":{"throttle":0.13473275303840637,"steer":0.007564290426671505,"brake":0.0,"hand_brake":false,"reverse":false,"manual_gear_shift":false,"gear":0},"transform":{"location":{"x":-45.16566467285156,"y":84.08953857421875,"z":0.0018755721393972635},"rotation":{"pitch":-0.0005190943484194577,"yaw":-90.65856170654297,"roll":-0.006439208053052425}},"velocity":{"x":-0.03555985912680626,"y":-4.9508843421936035,"z":-0.0010448455577716231},"angular_velocity":{"x":0.03523903340101242,"y":0.019978471100330353,"z":0.7853168249130249},"acceleration":{"x":0.07101930677890778,"y":0.6200218200683594,"z":0.02783203311264515},"speed_mps":4.95101215561638,"speed_kph":17.823643760218967,"speed_limit_kph":30.0,"collisions_this_frame":[],"waypoint":{"x":-45.069854736328125,"y":84.08927154541016,"z":0.0},"lane_deviation_m":0.09582866728305817,"lane_width":3.5,"goal":{"x":109.9569091796875,"y":-27.333675384521484,"z":0.5999999642372131},"fault":{"name":"degraded_brake_pads","severity":1.0},"capture_flags":{"save_rgb":true,"save_depth":false,"video_rgb":true,"video_depth":false}}
{"frame":118,"timestamp":{"delta_seconds":0.05000000074505806,"elapsed_seconds":6.9018876841291785},"control":{"throttle":0.3454388976097107,"steer":0.01166724693030119,"brake":0.0,"hand_brake":false,"reverse":false,"manual_gear_shift":false,"gear":0},"transform":{"location":{"x":-45.16730499267578,"y":83.8428955078125,"z":0.0018553923582658172},"rotation":{"pitch":-0.0021105282939970493,"yaw":-90.60601806640625,"roll":-0.006744384299963713}},"velocity":{"x":-0.022289548069238663,"y":-4.925059795379639,"z":-0.00034854887053370476},"angular_velocity":{"x":0.023723039776086807,"y":-0.007570363115519285,"z":1.1453235149383545},"acceleration":{"x":0.26540622115135193,"y":0.5164909362792969,"z":0.013925934210419655},"speed_mps":4.925110245822359,"speed_kph":17.73039688496049,"speed_limit_kph":30.0,"collisions_this_frame":[],"waypoint":{"x":-45.07054901123047,"y":83.84262084960938,"z":0.0},"lane_deviation_m":0.0967741534113884,"lane_width":3.5,"goal":{"x":109.9569091796875,"y":-27.333675384521484,"z":0.5999999642372131},"fault":{"name":"degraded_brake_pads","severity":1.0},"capture_flags":{"save_rgb":true,"save_depth":false,"video_rgb":true,"video_depth":false}}
{"frame":119,"timestamp":{"delta_seconds":0.05000000074505806,"elapsed_seconds":6.951887684874237},"control":{"throttle":0.3454388976097107,"steer":0.01166724693030119,"brake":0.0,"hand_brake":false,"reverse":false,"manual_gear_shift":false,"gear":0},"transform":{"location":{"x":-45.16853713989258,"y":83.5966796875,"z":0.0018505859188735485},"rotation":{"pitch":-0.0024110565427690744,"yaw":-90.5467300415039,"roll":-0.00677490234375}},"velocity":{"x":-0.015164772048592567,"y":-4.9265851974487305,"z":-2.7160644094692543e-05},"angular_velocity":{"x":-0.005448721349239349,"y":0.003842450911179185,"z":1.2010504007339478},"acceleration":{"x":0.1424955129623413,"y":-0.030508041381835938,"z":0.006427764426916838},"speed_mps":4.926608537195738,"speed_kph":17.735790733904658,"speed_limit_kph":30.0,"collisions_this_frame":[],"waypoint":{"x":-45.07124328613281,"y":83.59640502929688,"z":0.0},"lane_deviation_m":0.0973118394613266,"lane_width":3.5,"goal":{"x":109.9569091796875,"y":-27.333675384521484,"z":0.5999999642372131},"fault":{"name":"degraded_brake_pads","severity":1.0},"capture_flags":{"save_rgb":true,"save_depth":false,"video_rgb":true,"video_depth":false}}
