{"frame":28,"timestamp":{"delta_seconds":0.05000000074505806,"elapsed_seconds":3.990166208706796},"control":{"throttle":0.0,"steer":0.0,"brake":1.0,"hand_brake":false,"reverse":false,"manual_gear_shift":false,"gear":0},"transform":{"location":{"x":59.81299591064453,"y":24.850223541259766,"z":0.48239994049072266},"rotation":{"pitch":0.0,"yaw":0.15919795632362366,"roll":0.0}},"velocity":{"x":0.0,"y":0.0,"z":-1.470000147819519},"angular_velocity":{"x":0.0,"y":0.0,"z":0.0},"acceleration":{"x":0.0,"y":0.0,"z":-9.80000114440918},"speed_mps":1.470000147819519,"speed_kph":5.2920005321502686,"speed_limit_kph":30.0,"collisions_this_frame":[],"waypoint":{"x":59.81299591064453,"y":24.8502140045166,"z":0.0},"lane_deviation_m":0.48239994049072266,"lane_width":3.5,"goal":{"x":-76.66610717773438,"y":24.471010208129883,"z":0.5999999642372131},"fault":{"name":"degraded_brake_pads","severity":1.0},"capture_flags":{"save_rgb":true,"save_depth":false,"video_rgb":true,"video_depth":false}}
{"frame":29,"timestamp":{"delta_seconds":0.05000000074505806,"elapsed_seconds":4.040166209451854},"control":{"throttle":0.0,"steer":0.0,"brake":1.0,"hand_brake":false,"reverse":false,"manual_gear_shift":false,"gear":0},"transform":{"location":{"x":59.81299591064453,"y":24.850223541259766,"z":0.394199937582016},"rotation":{"pitch":0.0,"yaw":0.15919795632362366,"roll":0.0}},"velocity":{"x":0.0,"y":0.0,"z":-1.9600002765655518},"angular_velocity":{"x":0.0,"y":0.0,"z":0.0},"acceleration":{"x":0.0,"y":0.0,"z":-9.800003051757812},"speed_mps":1.9600002765655518,"speed_kph":7.056000995635986,"speed_limit_kph":30.0,"collisions_this_frame":[],"waypoint":{"x":59.81299591064453,"y":24.8502140045166,"z":0.0},"lane_deviation_m":0.394199937582016,"lane_width":3.5,"goal":{"x":-76.66610717773438,"y":24.471010208129883,"z":0.5999999642372131},"fault":{"name":"degraded_brake_pads","severity":1.0},"capture_flags":{"save_rgb":true,"save_depth":false,"video_rgb":true,"video_depth":false}}
{"frame":30,"timestamp":{"delta_seconds":0.05000000074505806,"elapsed_seconds":4.090166210196912},"control":{"throttle":0.0,"steer":0.0,"brake":1.0,"hand_brake":false,"reverse":false,"manual_gear_shift":false,"gear":0},"transform":{"location":{"x":59.81299591064453,"y":24.850223541259766,"z":0.28150004148483276},"rotation":{"pitch":0.0,"yaw":0.15919795632362366,"roll":0.0}},"velocity":{"x":0.0,"y":0.0,"z":-2.450000286102295},"angular_velocity":{"x":0.0,"y":0.0,"z":0.0},"acceleration":{"x":0.0,"y":0.0,"z":-9.800000190734863},"speed_mps":2.450000286102295,"speed_kph":8.820001029968262,"speed_limit_kph":30.0,"collisions_this_frame":[],"waypoint":{"x":59.81299591064453,"y":24.8502140045166,"z":0.0},"lane_deviation_m":0.28150004148483276,"lane_width":3.5,"goal":{"x":-76.66610717773438,"y":24.471010208129883,"z":0.5999999642372131},"fault":{"name":"degraded_brake_pads","severity":1.0},"capture_flags":{"save_rgb":true,"save_depth":false,"video_rgb":true,"video_depth":false}}
{"frame":31,"timestamp":{"delta_seconds":0.05000000074505806,"elapsed_seconds":4.14016621094197},"control":{"throttle":0.0,"steer":0.0,"brake":1.0,"hand_brake":false,"reverse":false,"manual_gear_shift":false,"gear":0},"transform":{"location":{"x":59.81299591064453,"y":24.850223541259766,"z":0.1442999690771103},"rotation":{"pitch":0.0,"yaw":0.15919795632362366,"roll":0.0}},"velocity":{"x":0.0,"y":0.0,"z":-2.93999981880188},"angular_velocity":{"x":0.0,"y":0.0,"z":0.0},"acceleration":{"x":0.0,"y":0.0,"z":-9.7999906539917},"speed_mps":2.93999981880188,"speed_kph":10.583999347686769,"speed_limit_kph":30.0,"collisions_this_frame":[],"waypoint":{"x":59.81299591064453,"y":24.8502140045166,"z":0.0},"lane_deviation_m":0.1442999690771103,"lane_width":3.5,"goal":{"x":-76.66610717773438,"y":24.471010208129883,"z":0.5999999642372131},"fault":{"name":"degraded_brake_pads","severity":1.0},"capture_flags":{"save_rgb":true,"save_depth":false,"video_rgb":true,"video_depth":false}}
{"frame":32,"timestamp":{"delta_seconds":0.05000000074505806,"elapsed_seconds":4.190166211687028},"control":{"throttle":0.0,"steer":0.0,"brake":1.0,"hand_brake":false,"reverse":false,"manual_gear_shift":false,"gear":0},"transform":{"location":{"x":59.81299591064453,"y":24.850223541259766,"z":0.008085555396974087},"rotation":{"pitch":0.0,"yaw":0.15919795632362366,"roll":0.0}},"velocity":{"x":-5.419469744083472e-07,"y":-8.412019269599114e-06,"z":-2.06459641456604},"angular_velocity":{"x":0.0008732697460800409,"y":-0.0008259261958301067,"z":-2.5191848607164502e-08},"acceleration":{"x":-1.0838939488166943e-05,"y":-0.00016824038175400347,"z":17.508068084716797},"speed_mps":2.064596414583248,"speed_kph":7.432547092499693,"speed_limit_kph":30.0,"collisions_this_frame":[],"waypoint":{"x":59.81299591064453,"y":24.8502140045166,"z":0.0},"lane_deviation_m":0.008085560984909534,"lane_width":3.5,"goal":{"x":-76.66610717773438,"y":24.471010208129883,"z":0.5999999642372131},"fault":{"name":"degraded_brake_pads","severity":1.0},"capture_flags":{"save_rgb":true,"save_depth":false,"video_rgb":true,"video_depth":false}}
{"frame":33,"timestamp":{"delta_seconds":0.05000000074505806,"elapsed_seconds":4.2401662124320865},"control":{"throttle":0.0,"steer":0.0,"brake":1.0,"hand_brake":false,"reverse":false,"manual_gear_shift":false,"gear":0},"transform":{"location":{"x":59.81299591064453,"y":24.850223541259766,"z":-0.05158817023038864},"rotation":{"pitch":0.0,"yaw":0.15919795632362366,"roll":0.0}},"velocity":{"x":-1.7941823671208113e-07,"y":-1.4597358131140936e-06,"z":-0.7380887269973755},"angular_velocity":{"x":0.00017217978893313557,"y":-0.0002615972189232707,"z":2.631870721359064e-09},"acceleration":{"x":7.250574526551645e-06,"y":0.0001390456745866686,"z":26.530153274536133},"speed_mps":0.7380887269988408,"speed_kph":2.657119417195827,"speed_limit_kph":30.0,"collisions_this_frame":[],"waypoint":{"x":59.81299591064453,"y":24.8502140045166,"z":0.0},"lane_deviation_m":0.05158817023038864,"lane_width":3.5,"goal":{"x":-76.66610717773438,"y":24.471010208129883,"z":0.5999999642372131},"fault":{"name":"degraded_brake_pads","severity":1.0},"capture_flags":{"save_rgb":true,"save_depth":false,"video_rgb":true,"video_depth":false}}
{"frame":34,"timestamp":{"delta_seconds":0.05000000074505806,"elapsed_seconds":4.2901662131771445},"control":{"throttle":0.0,"steer":0.0,"brake":1.0,"hand_brake":false,"reverse":false,"manual_gear_shift":false,"gear":0},"transform":{"location":{"x":59.81299591064453,"y":24.850223541259766,"z":-0.06773189455270767},"rotation":{"pitch":0.0,"yaw":0.15919795632362366,"roll":0.0}},"velocity":{"x":-3.280591798215937e-08,"y":1.2364070300918684e-07,"z":-0.1120968759059906},"angular_velocity":{"x":4.701039506471716e-05,"y":-4.777070353156887e-05,"z":-3.4607359200578003e-09},"acceleration":{"x":2.9322463888092898e-06,"y":3.166752867400646e-05,"z":12.51983642578125},"speed_mps":0.11209687590606358,"speed_kph":0.40354875326182893,"speed_limit_kph":30.0,"collisions_this_frame":[],"waypoint":{"x":59.81299591064453,"y":24.8502140045166,"z":0.0},"lane_deviation_m":0.06773189455270767,"lane_width":3.5,"goal":{"x":-76.66610717773438,"y":24.471010208129883,"z":0.5999999642372131},"fault":{"name":"degraded_brake_pads","severity":1.0},"capture_flags":{"save_rgb":true,"save_depth":false,"video_rgb":true,"video_depth":false}}
{"frame":35,"timestamp":{"delta_seconds":0.05000000074505806,"elapsed_seconds":4.340166213922203},"control":{"throttle":0.0,"steer":0.0,"brake":1.0,"hand_brake":false,"reverse":false,"manual_gear_shift":false,"gear":0},"transform":{"location":{"x":59.81299591064453,"y":24.850223541259766,"z":-0.06445319950580597},"rotation":{"pitch":0.0,"yaw":0.15919795632362366,"roll":0.0}},"velocity":{"x":5.457875928982503e-09,"y":8.52586623523166e-08,"z":0.15056157112121582},"angular_velocity":{"x":-4.805379285244271e-05,"y":7.451097189914435e-06,"z":3.2838367580723116e-09},"acceleration":{"x":7.652758426957007e-07,"y":-7.676408131374046e-07,"z":5.253169059753418},"speed_mps":0.15056157112124005,"speed_kph":0.5420216560364642,"speed_limit_kph":30.0,"collisions_this_frame":[],"waypoint":{"x":59.81299591064453,"y":24.8502140045166,"z":0.0},"lane_deviation_m":0.06445319950580597,"lane_width":3.5,"goal":{"x":-76.66610717773438,"y":24.471010208129883,"z":0.5999999642372131},"fault":{"name":"degraded_brake_pads","severity":1.0},"capture_flags":{"save_rgb":true,"save_depth":false,"video_rgb":true,"video_depth":false}}
{"frame":36,"timestamp":{"delta_seconds":0.05000000074505806,"elapsed_seconds":4.390166214667261},"control":{"throttle":0.0,"steer":0.0,"brake":1.0,"hand_brake":false,"reverse":false,"manual_gear_shift":false,"gear":0},"transform":{"location":{"x":59.81299591064453,"y":24.850223541259766,"z":-0.05396205931901932},"rotation":{"pitch":0.0,"yaw":0.15919795632362366,"roll":0.0}},"velocity":{"x":1.620716538752731e-08,"y":1.847302257829142e-07,"z":0.23337243497371674},"angular_velocity":{"x":-4.269638520781882e-05,"y":2.1952277165837586e-05,"z":5.017054549583122e-10},"acceleration":{"x":2.1498578917089617e-07,"y":1.989431211768533e-06,"z":1.656217336654663},"speed_mps":0.23337243497379043,"speed_kph":0.8401407659056456,"speed_limit_kph":30.0,"collisions_this_frame":[],"waypoint":{"x":59.81299591064453,"y":24.8502140045166,"z":0.0},"lane_deviation_m":0.05396205931901932,"lane_width":3.5,"goal":{"x":-76.66610717773438,"y":24.471010208129883,"z":0.5999999642372131},"fault":{"name":"degraded_brake_pads","severity":1.0},"capture_flags":{"save_rgb":true,"save_depth":false,"video_rgb":true,"video_depth":false}}
{"frame":37,"timestamp":{"delta_seconds":0.05000000074505806,"elapsed_seconds":4.440166215412319},"control":{"throttle":0.0,"steer":0.0,"brake":1.0,"hand_brake":false,"reverse":false,"manual_gear_shift":false,"gear":0},"transform":{"location":{"x":59.81299591064453,"y":24.850223541259766,"z":-0.04207824543118477},"rotation":{"pitch":0.0,"yaw":0.15919795632362366,"roll":0.0}},"velocity":{"x":2.3526395054318527e-08,"y":1.8543867552622828e-09,"z":0.23370592296123505},"angular_velocity":{"x":-1.3488269360095728e-05,"y":3.167600152664818e-05,"z":2.7403021518601633e-10},"acceleration":{"x":1.4638459333582432e-07,"y":-3.6575167996488744e-06,"z":0.006669759750366211},"speed_mps":0.23370592296123624,"speed_kph":0.8413413226604505,"speed_limit_kph":30.0,"collisions_this_frame":[],"waypoint":{"x":59.81299591064453,"y":24.8502140045166,"z":0.0},"lane_deviation_m":0.04207824915647507,"lane_width":3.5,"goal":{"x":-76.66610717773438,"y":24.471010208129883,"z":0.5999999642372131},"fault":{"name":"degraded_brake_pads","severity":1.0},"capture_flags":{"save_rgb":true,"save_depth":false,"video_rgb":true,"video_depth":false}}
{"frame":38,"timestamp":{"delta_seconds":0.05000000074505806,"elapsed_seconds":4.490166216157377},"control":{"throttle":0.0,"steer":0.0,"brake":1.0,"hand_brake":false,"reverse":false,"manual_gear_shift":false,"gear":0},"transform":{"location":{"x":59.81299591064453,"y":24.850223541259766,"z":-0.03129245713353157},"rotation":{"pitch":0.0,"yaw":0.15919795632362366,"roll":0.0}},"velocity":{"x":2.5252283819554577e-08,"y":1.0984384601897546e-07,"z":0.20143525302410126},"angular_velocity":{"x":-9.646180842537433e-05,"y":3.330282197566703e-05,"z":2.9374767063217178e-09},"acceleration":{"x":3.4517775304721e-08,"y":2.159789119104971e-06,"z":-0.6454133987426758},"speed_mps":0.2014352530241328,"speed_kph":0.725166910886878,"speed_limit_kph":30.0,"collisions_this_frame":[],"waypoint":{"x":59.81299591064453,"y":24.8502140045166,"z":0.0},"lane_deviation_m":0.03129245713353157,"lane_width":3.5,"goal":{"x":-76.66610717773438,"y":24.471010208129883,"z":0.5999999642372131},"fault":{"name":"degraded_brake_pads","severity":1.0},"capture_flags":{"save_rgb":true,"save_depth":false,"video_rgb":true,"video_depth":false}}
{"frame":39,"timestamp":{"delta_seconds":0.05000000074505806,"elapsed_seconds":4.540166216902435},"control":{"throttle":0.0,"steer":0.0,"brake":1.0,"hand_brake":false,"reverse":false,"manual_gear_shift":false,"gear":0},"transform":{"location":{"x":59.81299591064453,"y":24.850223541259766,"z":-0.022435493767261505},"rotation":{"pitch":0.0,"yaw":0.15919795632362366,"roll":0.0}},"velocity":{"x":-7.211926611461195e-09,"y":-2.631100528560637e-07,"z":0.16076640784740448},"angular_velocity":{"x":-5.377378693083301e-05,"y":-9.181085260934196e-06,"z":-1.8013094349456082e-09},"acceleration":{"x":-6.492842317129544e-07,"y":-7.459078005922493e-06,"z":-0.8133769035339355},"speed_mps":0.16076640784761995,"speed_kph":0.5787590682514319,"speed_limit_kph":30.0,"collisions_this_frame":[],"waypoint":{"x":59.81299591064453,"y":24.8502140045166,"z":0.0},"lane_deviation_m":0.022435495629906654,"lane_width":3.5,"goal":{"x":-76.66610717773438,"y":24.471010208129883,"z":0.5999999642372131},"fault":{"name":"degraded_brake_pads","severity":1.0},"capture_flags":{"save_rgb":true,"save_depth":false,"video_rgb":true,"video_depth":false}}
{"frame":40,"timestamp":{"delta_seconds":0.05000000074505806,"elapsed_seconds":4.590166217647493},"control":{"throttle":0.75,"steer":0.0,"brake":0.0,"hand_brake":false,"reverse":false,"manual_gear_shift":false,"gear":0},"transform":{"location":{"x":59.81299591064453,"y":24.850223541259766,"z":-0.015568007715046406},"rotation":{"pitch":0.0,"yaw":0.15919795632362366,"roll":0.0}},"velocity":{"x":-1.3950595345590955e-08,"y":2.9793491762575286e-07,"z":0.12242104858160019},"angular_velocity":{"x":-2.1689442291972227e-05,"y":-1.623462958377786e-05,"z":-3.4780269775325223e-09},"acceleration":{"x":-1.3477337290623836e-07,"y":1.122089997807052e-05,"z":-0.7669072151184082},"speed_mps":0.12242104858196352,"speed_kph":0.4407157748950687,"speed_limit_kph":30.0,"collisions_this_frame":[],"waypoint":{"x":59.81299591064453,"y":24.8502140045166,"z":0.0},"lane_deviation_m":0.01556801050901413,"lane_width":3.5,"goal":{"x":-76.66610717773438,"y":24.471010208129883,"z":0.5999999642372131},"fault":{"name":"degraded_brake_pads","severity":1.0},"capture_flags":{"save_rgb":true,"save_depth":false,"video_rgb":true,"video_depth":false}}
{"frame":41,"timestamp":{"delta_seconds":0.05000000074505806,"elapsed_seconds":4.640166218392551},"control":{"throttle":0.75,"steer":0.0,"brake":0.0,"hand_brake":false,"reverse":false,"manual_gear_shift":false,"gear":0},"transform":{"location":{"x":59.81299591064453,"y":24.850223541259766,"z":-0.010438041761517525},"rotation":{"pitch":0.0,"yaw":0.15919795632362366,"roll":0.0}},"velocity":{"x":-5.714179796001417e-09,"y":4.730343050596275e-07,"z":0.09031110256910324},"angular_velocity":{"x":-3.68453620467335e-05,"y":-6.393832791218301e-06,"z":-1.355456968887836e-09},"acceleration":{"x":1.6472831987357495e-07,"y":3.501987748677493e-06,"z":-0.642198920249939},"speed_mps":0.09031110257034226,"speed_kph":0.32511996925323217,"speed_limit_kph":30.0,"collisions_this_frame":[],"waypoint":{"x":59.81299591064453,"y":24.8502140045166,"z":0.0},"lane_deviation_m":0.010438046418130398,"lane_width":3.5,"goal":{"x":-76.66610717773438,"y":24.471010208129883,"z":0.5999999642372131},"fault":{"name":"degraded_brake_pads","severity":1.0},"capture_flags":{"save_rgb":true,"save_depth":false,"video_rgb":true,"video_depth":false}}
{"frame":42,"timestamp":{"delta_seconds":0.05000000074505806,"elapsed_seconds":4.690166219137609},"control":{"throttle":0.75,"steer":0.0,"brake":0.0,"hand_brake":false,"reverse":false,"manual_gear_shift":false,"gear":0},"transform":{"location":{"x":59.81299591064453,"y":24.850223541259766,"z":-0.006705284118652344},"rotation":{"pitch":0.0,"yaw":0.15919795632362366,"roll":0.0}},"velocity":{"x":1.3450960345551266e-09,"y":1.6459929952361563e-07,"z":0.06511270254850388},"angular_velocity":{"x":-5.2784795116167516e-05,"y":2.3682937353441957e-06,"z":-9.37188548988388e-10},"acceleration":{"x":1.4118552371655824e-07,"y":-6.168700110720238e-06,"z":-0.5039680004119873},"speed_mps":0.06511270254871193,"speed_kph":0.23440572917536295,"speed_limit_kph":30.0,"collisions_this_frame":[],"waypoint":{"x":59.81299591064453,"y":24.8502140045166,"z":0.0},"lane_deviation_m":0.006705290637910366,"lane_width":3.5,"goal":{"x":-76.66610717773438,"y":24.471010208129883,"z":0.5999999642372131},"fault":{"name":"degraded_brake_pads","severity":1.0},"capture_flags":{"save_rgb":true,"save_depth":false,"video_rgb":true,"video_depth":false}}
{"frame":43,"timestamp":{"delta_seconds":0.05000000074505806,"elapsed_seconds":4.740166219882667},"control":{"throttle":0.75,"steer":0.0,"brake":0.0,"hand_brake":false,"reverse":false,"manual_gear_shift":false,"gear":0},"transform":{"location":{"x":59.81299591064453,"y":24.850223541259766,"z":-0.004041633568704128},"rotation":{"pitch":0.0,"yaw":0.15919795632362366,"roll":0.0}},"velocity":{"x":4.630271277505926e-09,"y":8.711644454706402e-07,"z":0.046137578785419464},"angular_velocity":{"x":-6.144207145553082e-05,"y":9.79797823674744e-06,"z":-4.8200794466879415e-09},"acceleration":{"x":6.570350308265915e-08,"y":1.413130303262733e-05,"z":-0.37950247526168823},"speed_mps":0.04613757879364431,"speed_kph":0.1660952836571195,"speed_limit_kph":30.0,"collisions_this_frame":[],"waypoint":{"x":59.81299591064453,"y":24.8502140045166,"z":0.0},"lane_deviation_m":0.004041644744575024,"lane_width":3.5,"goal":{"x":-76.66610717773438,"y":24.471010208129883,"z":0.5999999642372131},"fault":{"name":"degraded_brake_pads","severity":1.0},"capture_flags":{"save_rgb":true,"save_depth":false,"video_rgb":true,"video_depth":false}}
{"frame":44,"timestamp":{"delta_seconds":0.05000000074505806,"elapsed_seconds":4.790166220627725},"control":{"throttle":0.0,"steer":0.0,"brake":1.0,"hand_brake":false,"reverse":false,"manual_gear_shift":false,"gear":0},"transform":{"location":{"x":59.81299591064453,"y":24.850223541259766,"z":-0.002169380197301507},"rotation":{"pitch":0.0,"yaw":0.15919795632362366,"roll":0.0}},"velocity":{"x":8.685310248779388e-09,"y":2.4697718004063063e-07,"z":0.032249629497528076},"angular_velocity":{"x":2.6124143914785236e-05,"y":1.3387569197220728e-05,"z":-8.182428068437275e-09},"acceleration":{"x":8.110077942546923e-08,"y":-1.2483744285418652e-05,"z":-0.27775898575782776},"speed_mps":0.03224962949847496,"speed_kph":0.11609866619450986,"speed_limit_kph":30.0,"collisions_this_frame":[],"waypoint":{"x":59.81299591064453,"y":24.8502140045166,"z":0.0},"lane_deviation_m":0.002169401152059436,"lane_width":3.5,"goal":{"x":-76.66610717773438,"y":24.471010208129883,"z":0.5999999642372131},"fault":{"name":"degraded_brake_pads","severity":1.0},"capture_flags":{"save_rgb":true,"save_depth":false,"video_rgb":true,"video_depth":false}}
{"frame":45,"timestamp":{"delta_seconds":0.05000000074505806,"elapsed_seconds":4.840166221372783},"control":{"throttle":0.0,"steer":0.0,"brake":1.0,"hand_brake":false,"reverse":false,"manual_gear_shift":false,"gear":0},"transform":{"location":{"x":59.81299591064453,"y":24.850223541259766,"z":-0.0008690643007867038},"rotation":{"pitch":0.0,"yaw":0.15919795632362366,"roll":0.0}},"velocity":{"x":-3.9409369101406355e-09,"y":1.241583618138975e-07,"z":0.0222956370562315},"angular_velocity":{"x":-3.4055432479362935e-05,"y":-5.227757810644107e-06,"z":-2.7645738476245185e-10},"acceleration":{"x":-2.525249271911889e-07,"y":-2.4563764782215003e-06,"z":-0.19907984137535095},"speed_mps":0.02229563705657755,"speed_kph":0.08026429340367917,"speed_limit_kph":30.0,"collisions_this_frame":[],"waypoint":{"x":59.81299591064453,"y":24.8502140045166,"z":0.0},"lane_deviation_m":0.000869116629473865,"lane_width":3.5,"goal":{"x":-76.66610717773438,"y":24.471010208129883,"z":0.5999999642372131},"fault":{"name":"degraded_brake_pads","severity":1.0},"capture_flags":{"save_rgb":true,"save_depth":false,"video_rgb":true,"video_depth":false}}
{"frame":46,"timestamp":{"delta_seconds":0.05000000074505806,"elapsed_seconds":4.890166222117841},"control":{"throttle":0.75,"steer":0.0,"brake":0.0,"hand_brake":false,"reverse":false,"manual_gear_shift":false,"gear":0},"transform":{"location":{"x":59.81299591064453,"y":24.850223541259766,"z":2.5100707716774195e-05},"rotation":{"pitch":0.0,"yaw":0.15919795632362366,"roll":0.0}},"velocity":{"x":-2.6795259344680744e-09,"y":2.127738163437698e-08,"z":0.015275287441909313},"angular_velocity":{"x":-2.998633590323152e-06,"y":-2.3794398202880984e-06,"z":-3.266265702350779e-09},"acceleration":{"x":2.5228219513451222e-08,"y":-2.0576196675392566e-06,"z":-0.140406996011734},"speed_mps":0.015275287441924367,"speed_kph":0.05499103479092772,"speed_limit_kph":30.0,"collisions_this_frame":[],"waypoint":{"x":59.81299591064453,"y":24.8502140045166,"z":0.0},"lane_deviation_m":2.685135041247122e-05,"lane_width":3.5,"goal":{"x":-76.66610717773438,"y":24.471010208129883,"z":0.5999999642372131},"fault":{"name":"degraded_brake_pads","severity":1.0},"capture_flags":{"save_rgb":true,"save_depth":false,"video_rgb":true,"video_depth":false}}
{"frame":47,"timestamp":{"delta_seconds":0.05000000074505806,"elapsed_seconds":4.940166222862899},"control":{"throttle":0.75,"steer":0.0,"brake":0.0,"hand_brake":false,"reverse":false,"manual_gear_shift":false,"gear":0},"transform":{"location":{"x":59.81299591064453,"y":24.850223541259766,"z":0.0006349944742396474},"rotation":{"pitch":0.0,"yaw":0.15919795632362366,"roll":0.0}},"velocity":{"x":-1.326333154416659e-09,"y":5.4543911609528095e-09,"z":0.010385398752987385},"angular_velocity":{"x":-3.315166031825356e-05,"y":-6.369586458276899e-07,"z":-1.147712813676094e-09},"acceleration":{"x":2.70638551569391e-08,"y":-3.164598183502676e-07,"z":-0.09779777377843857},"speed_mps":0.010385398752988903,"speed_kph":0.03738743551076005,"speed_limit_kph":30.0,"collisions_this_frame":[],"waypoint":{"x":59.81299591064453,"y":24.8502140045166,"z":0.0},"lane_deviation_m":0.000635066069662571,"lane_width":3.5,"goal":{"x":-76.66610717773438,"y":24.471010208129883,"z":0.5999999642372131},"fault":{"name":"degraded_brake_pads","severity":1.0},"capture_flags":{"save_rgb":true,"save_depth":false,"video_rgb":true,"video_depth":false}}
{"frame":48,"timestamp":{"delta_seconds":0.05000000074505806,"elapsed_seconds":4.990166223607957},"control":{"throttle":0.75,"steer":0.0,"brake":0.0,"hand_brake":false,"reverse":false,"manual_gear_shift":false,"gear":0},"transform":{"location":{"x":59.81299591064453,"y":24.850223541259766,"z":0.0010481261415407062},"rotation":{"pitch":0.0,"yaw":0.15919795632362366,"roll":0.0}},"velocity":{"x":-1.0146913309583283e-09,"y":1.504974136423698e-07,"z":0.007016772869974375},"angular_velocity":{"x":-1.960104555109865e-06,"y":5.373310045797552e-07,"z":-1.864864040967973e-09},"acceleration":{"x":6.232836469166614e-09,"y":2.9008604087721324e-06,"z":-0.06737251579761505},"speed_mps":0.0070167728715884005,"speed_kph":0.025260382337718244,"speed_limit_kph":30.0,"collisions_this_frame":[],"waypoint":{"x":59.81299591064453,"y":24.8502140045166,"z":0.0},"lane_deviation_m":0.0010481695644557476,"lane_width":3.5,"goal":{"x":-76.66610717773438,"y":24.471010208129883,"z":0.5999999642372131},"fault":{"name":"degraded_brake_pads","severity":1.0},"capture_flags":{"save_rgb":true,"save_depth":false,"video_rgb":true,"video_depth":false}}
{"frame":49,"timestamp":{"delta_seconds":0.05000000074505806,"elapsed_seconds":5.040166224353015},"control":{"throttle":0.75,"steer":0.0,"brake":0.0,"hand_brake":false,"reverse":false,"manual_gear_shift":false,"gear":0},"transform":{"location":{"x":59.81299591064453,"y":24.850223541259766,"z":0.0013262939173728228},"rotation":{"pitch":0.0,"yaw":0.15919795632362366,"roll":0.0}},"velocity":{"x":-1.4871123887871818e-08,"y":-1.7394788187630184e-07,"z":0.004712733905762434},"angular_velocity":{"x":2.4019103875616565e-05,"y":-1.9050003174925223e-05,"z":-1.8422519065808274e-09},"acceleration":{"x":-2.7712866312867845e-07,"y":-6.4889059103734326e-06,"z":-0.046080779284238815},"speed_mps":0.004712733908996122,"speed_kph":0.01696584207238604,"speed_limit_kph":30.0,"collisions_this_frame":[],"waypoint":{"x":59.81299591064453,"y":24.8502140045166,"z":0.0},"lane_deviation_m":0.0013263281434774399,"lane_width":3.5,"goal":{"x":-76.66610717773438,"y":24.471010208129883,"z":0.5999999642372131},"fault":{"name":"degraded_brake_pads","severity":1.0},"capture_flags":{"save_rgb":true,"save_depth":false,"video_rgb":true,"video_depth":false}}
{"frame":50,"timestamp":{"delta_seconds":0.05000000074505806,"elapsed_seconds":5.0901662250980735},"control":{"throttle":0.0,"steer":0.0,"brake":1.0,"hand_brake":false,"reverse":false,"manual_gear_shift":false,"gear":0},"transform":{"location":{"x":59.81299591064453,"y":24.850223541259766,"z":0.0015126037178561091},"rotation":{"pitch":0.0,"yaw":0.15919795632362366,"roll":0.0}},"velocity":{"x":7.027551873761695e-10,"y":2.00790211124513e-07,"z":0.0031505106016993523},"angular_velocity":{"x":-3.423343878239393e-05,"y":1.6800133835204178e-06,"z":-1.0020217988682134e-09},"acceleration":{"x":3.1147754953053663e-07,"y":7.4947615757992025e-06,"z":-0.031244466081261635},"speed_mps":0.003150510608097871,"speed_kph":0.011341838189152336,"speed_limit_kph":30.0,"collisions_this_frame":[],"waypoint":{"x":59.81299591064453,"y":24.8502140045166,"z":0.0},"lane_deviation_m":0.0015126338694244623,"lane_width":3.5,"goal":{"x":-76.66610717773438,"y":24.471010208129883,"z":0.5999999642372131},"fault":{"name":"degraded_brake_pads","severity":1.0},"capture_flags":{"save_rgb":true,"save_depth":false,"video_rgb":true,"video_depth":false}}
{"frame":51,"timestamp":{"delta_seconds":0.05000000074505806,"elapsed_seconds":5.1401662258431315},"control":{"throttle":0.0,"steer":0.0,"brake":1.0,"hand_brake":false,"reverse":false,"manual_gear_shift":false,"gear":0},"transform":{"location":{"x":59.81299591064453,"y":24.850223541259766,"z":0.0015126037178561091},"rotation":{"pitch":0.0,"yaw":0.15919795632362366,"roll":0.0}},"velocity":{"x":0.0,"y":0.0,"z":0.0},"angular_velocity":{"x":0.0,"y":0.0,"z":0.0},"acceleration":{"x":-1.405510374752339e-08,"y":-4.015804279333679e-06,"z":-0.06301021575927734},"speed_mps":0.0,"speed_kph":0.0,"speed_limit_kph":30.0,"collisions_this_frame":[],"waypoint":{"x":59.81299591064453,"y":24.8502140045166,"z":0.0},"lane_deviation_m":0.0015126338694244623,"lane_width":3.5,"goal":{"x":-76.66610717773438,"y":24.471010208129883,"z":0.5999999642372131},"fault":{"name":"degraded_brake_pads","severity":1.0},"capture_flags":{"save_rgb":true,"save_depth":false,"video_rgb":true,"video_depth":false}}
{"frame":52,"timestamp":{"delta_seconds":0.05000000074505806,"elapsed_seconds":5.19016622658819},"control":{"throttle":0.0,"steer":0.0,"brake":1.0,"hand_brake":false,"reverse":false,"manual_gear_shift":false,"gear":0},"transform":{"location":{"x":59.81299591064453,"y":24.850223541259766,"z":0.0015126037178561091},"rotation":{"pitch":0.0,"yaw":0.15919795632362366,"roll":0.0}},"velocity":{"x":0.0,"y":0.0,"z":0.0},"angular_velocity":{"x":0.0,"y":0.0,"z":0.0},"acceleration":{"x":0.0,"y":0.0,"z":0.0},"speed_mps":0.0,"speed_kph":0.0,"speed_limit_kph":30.0,"collisions_this_frame":[],"waypoint":{"x":59.81299591064453,"y":24.8502140045166,"z":0.0},"lane_deviation_m":0.0015126338694244623,"lane_width":3.5,"goal":{"x":-76.66610717773438,"y":24.471010208129883,"z":0.5999999642372131},"fault":{"name":"degraded_brake_pads","severity":1.0},"capture_flags":{"save_rgb":true,"save_depth":false,"video_rgb":true,"video_depth":false}}
{"frame":53,"timestamp":{"delta_seconds":0.05000000074505806,"elapsed_seconds":5.240166227333248},"control":{"throttle":0.0,"steer":0.0,"brake":1.0,"hand_brake":false,"reverse":false,"manual_gear_shift":false,"gear":0},"transform":{"location":{"x":59.81299591064453,"y":24.850223541259766,"z":0.0015126037178561091},"rotation":{"pitch":0.0,"yaw":0.15919795632362366,"roll":0.0}},"velocity":{"x":0.0,"y":0.0,"z":0.0},"angular_velocity":{"x":0.0,"y":0.0,"z":0.0},"acceleration":{"x":0.0,"y":0.0,"z":0.0},"speed_mps":0.0,"speed_kph":0.0,"speed_limit_kph":30.0,"collisions_this_frame":[],"waypoint":{"x":59.81299591064453,"y":24.8502140045166,"z":0.0},"lane_deviation_m":0.0015126338694244623,"lane_width":3.5,"goal":{"x":-76.66610717773438,"y":24.471010208129883,"z":0.5999999642372131},"fault":{"name":"degraded_brake_pads","severity":1.0},"capture_flags":{"save_rgb":true,"save_depth":false,"video_rgb":true,"video_depth":false}}
{"frame":54,"timestamp":{"delta_seconds":0.05000000074505806,"elapsed_seconds":5.290166228078306},"control":{"throttle":0.75,"steer":0.0,"brake":0.0,"hand_brake":false,"reverse":false,"manual_gear_shift":false,"gear":0},"transform":{"location":{"x":59.81299591064453,"y":24.850223541259766,"z":0.0014112471835687757},"rotation":{"pitch":0.0,"yaw":0.15919795632362366,"roll":0.0}},"velocity":{"x":-3.1426548863233705e-11,"y":-3.7413427911303643e-10,"z":-0.0017670345259830356},"angular_velocity":{"x":-5.968432105873944e-06,"y":-6.68777957457678e-08,"z":1.1913834363497244e-09},"acceleration":{"x":-6.285310050202497e-10,"y":-7.482685582260729e-09,"z":-0.03534068912267685},"speed_mps":0.0017670345259830755,"speed_kph":0.006361324293539072,"speed_limit_kph":30.0,"collisions_this_frame":[],"waypoint":{"x":59.81299591064453,"y":24.8502140045166,"z":0.0},"lane_deviation_m":0.0014112794306129217,"lane_width":3.5,"goal":{"x":-76.66610717773438,"y":24.471010208129883,"z":0.5999999642372131},"fault":{"name":"degraded_brake_pads","severity":1.0},"capture_flags":{"save_rgb":true,"save_depth":false,"video_rgb":true,"video_depth":false}}
{"frame":55,"timestamp":{"delta_seconds":0.05000000074505806,"elapsed_seconds":5.340166228823364},"control":{"throttle":0.75,"steer":0.0,"brake":0.0,"hand_brake":false,"reverse":false,"manual_gear_shift":false,"gear":0},"transform":{"location":{"x":59.81299591064453,"y":24.850223541259766,"z":0.0014041900867596269},"rotation":{"pitch":0.0,"yaw":0.15919795632362366,"roll":0.0}},"velocity":{"x":4.570167300155248e-10,"y":-8.78221584343919e-09,"z":0.0006555938743986189},"angular_velocity":{"x":5.996937943564262e-06,"y":6.606956617360993e-07,"z":-1.721925935171953e-09},"acceleration":{"x":9.768865716353048e-09,"y":-1.681616197402036e-07,"z":0.04845257103443146},"speed_mps":0.0006555938744576007,"speed_kph":0.002360137948047363,"speed_limit_kph":30.0,"collisions_this_frame":[],"waypoint":{"x":59.81299591064453,"y":24.8502140045166,"z":0.0},"lane_deviation_m":0.0014042224502190948,"lane_width":3.5,"goal":{"x":-76.66610717773438,"y":24.471010208129883,"z":0.5999999642372131},"fault":{"name":"degraded_brake_pads","severity":1.0},"capture_flags":{"save_rgb":true,"save_depth":false,"video_rgb":true,"video_depth":false}}
{"frame":56,"timestamp":{"delta_seconds":0.05000000074505806,"elapsed_seconds":5.390166229568422},"control":{"throttle":0.75,"steer":0.0,"brake":0.0,"hand_brake":false,"reverse":false,"manual_gear_shift":false,"gear":0},"transform":{"location":{"x":59.81299591064453,"y":24.850223541259766,"z":0.0014670944074168801},"rotation":{"pitch":0.0,"yaw":0.15919795632362366,"roll":0.0}},"velocity":{"x":-1.4618842136826515e-08,"y":5.718730733406119e-08,"z":0.0015203761868178844},"angular_velocity":{"x":-5.609359504887834e-05,"y":-1.9333010641275905e-05,"z":2.341508320569119e-09},"acceleration":{"x":-3.0151716146065155e-07,"y":1.3193904351282981e-06,"z":0.01729564554989338},"speed_mps":0.001520376187963686,"speed_kph":0.00547335427666927,"speed_limit_kph":30.0,"collisions_this_frame":[],"waypoint":{"x":59.81299591064453,"y":24.8502140045166,"z":0.0},"lane_deviation_m":0.001467125373892486,"lane_width":3.5,"goal":{"x":-76.66610717773438,"y":24.471010208129883,"z":0.5999999642372131},"fault":{"name":"degraded_brake_pads","severity":1.0},"capture_flags":{"save_rgb":true,"save_depth":false,"video_rgb":true,"video_depth":false}}
{"frame":57,"timestamp":{"delta_seconds":0.05000000074505806,"elapsed_seconds":5.44016623031348},"control":{"throttle":0.75,"steer":0.0,"brake":0.0,"hand_brake":false,"reverse":false,"manual_gear_shift":false,"gear":0},"transform":{"location":{"x":59.81299591064453,"y":24.850223541259766,"z":0.0015489195939153433},"rotation":{"pitch":0.0,"yaw":0.15919795632362366,"roll":0.0}},"velocity":{"x":2.0045247683952994e-09,"y":-1.0810262018878802e-08,"z":0.0016514110611751676},"angular_velocity":{"x":3.1053823477122933e-06,"y":2.786136747090495e-06,"z":-1.093642842953102e-09},"acceleration":{"x":3.324673514271126e-07,"y":-1.3599513977169408e-06,"z":0.0026206974871456623},"speed_mps":0.0016514110612117665,"speed_kph":0.0059450798203623595,"speed_limit_kph":30.0,"collisions_this_frame":[],"waypoint":{"x":59.81299591064453,"y":24.8502140045166,"z":0.0},"lane_deviation_m":0.0015489489305764437,"lane_width":3.5,"goal":{"x":-76.66610717773438,"y":24.471010208129883,"z":0.5999999642372131},"fault":{"name":"degraded_brake_pads","severity":1.0},"capture_flags":{"save_rgb":true,"save_depth":false,"video_rgb":true,"video_depth":false}}
{"frame":58,"timestamp":{"delta_seconds":0.05000000074505806,"elapsed_seconds":5.490166231058538},"control":{"throttle":0.0,"steer":0.0,"brake":1.0,"hand_brake":false,"reverse":false,"manual_gear_shift":false,"gear":0},"transform":{"location":{"x":59.81299591064453,"y":24.850223541259766,"z":0.0016268539475277066},"rotation":{"pitch":0.0,"yaw":0.15919795632362366,"roll":0.0}},"velocity":{"x":-1.2205693344924384e-08,"y":3.222821831627698e-08,"z":0.0014738845638930798},"angular_velocity":{"x":-4.287030242267065e-05,"y":-1.601233998371754e-05,"z":1.4847695295472363e-09},"acceleration":{"x":-2.8420436137821525e-07,"y":8.60769603150402e-07,"z":-0.003550529945641756},"speed_mps":0.0014738845642959734,"speed_kph":0.0053059844314655045,"speed_limit_kph":30.0,"collisions_this_frame":[],"waypoint":{"x":59.81299591064453,"y":24.8502140045166,"z":0.0},"lane_deviation_m":0.001626881887204945,"lane_width":3.5,"goal":{"x":-76.66610717773438,"y":24.471010208129883,"z":0.5999999642372131},"fault":{"name":"degraded_brake_pads","severity":1.0},"capture_flags":{"save_rgb":true,"save_depth":false,"video_rgb":true,"video_depth":false}}
{"frame":59,"timestamp":{"delta_seconds":0.05000000074505806,"elapsed_seconds":5.540166231803596},"control":{"throttle":0.0,"steer":0.0,"brake":1.0,"hand_brake":false,"reverse":false,"manual_gear_shift":false,"gear":0},"transform":{"location":{"x":59.81299591064453,"y":24.850223541259766,"z":0.0016924666706472635},"rotation":{"pitch":0.0,"yaw":0.15919795632362366,"roll":0.0}},"velocity":{"x":-1.2577069163910437e-08,"y":3.697822492654268e-08,"z":0.001199808088131249},"angular_velocity":{"x":-4.592140976455994e-05,"y":-1.645060365262907e-05,"z":-2.3313187491602605e-10},"acceleration":{"x":-7.427516379721055e-09,"y":9.5000132205314e-08,"z":-0.005481529515236616},"speed_mps":0.0011998080887670056,"speed_kph":0.004319309119561221,"speed_limit_kph":30.0,"collisions_this_frame":[],"waypoint":{"x":59.81299591064453,"y":24.8502140045166,"z":0.0},"lane_deviation_m":0.0016924935625866055,"lane_width":3.5,"goal":{"x":-76.66610717773438,"y":24.471010208129883,"z":0.5999999642372131},"fault":{"name":"degraded_brake_pads","severity":1.0},"capture_flags":{"save_rgb":true,"save_depth":false,"video_rgb":true,"video_depth":false}}
{"frame":60,"timestamp":{"delta_seconds":0.05000000074505806,"elapsed_seconds":5.590166232548654},"control":{"throttle":0.0,"steer":0.0,"brake":1.0,"hand_brake":false,"reverse":false,"manual_gear_shift":false,"gear":0},"transform":{"location":{"x":59.81299591064453,"y":24.850223541259766,"z":0.0017440414521843195},"rotation":{"pitch":0.0,"yaw":0.15919795632362366,"roll":0.0}},"velocity":{"x":-1.2739556076724057e-08,"y":-4.1210046930473254e-08,"z":0.0009245777036994696},"angular_velocity":{"x":3.880902295350097e-05,"y":-1.67798043548828e-05,"z":-6.845055633419861e-09},"acceleration":{"x":-3.2497382562723942e-09,"y":-1.5637654087186093e-06,"z":-0.005504607688635588},"speed_mps":0.0009245777047056393,"speed_kph":0.003328479736940302,"speed_limit_kph":30.0,"collisions_this_frame":[],"waypoint":{"x":59.81299591064453,"y":24.8502140045166,"z":0.0},"lane_deviation_m":0.0017440675292164087,"lane_width":3.5,"goal":{"x":-76.66610717773438,"y":24.471010208129883,"z":0.5999999642372131},"fault":{"name":"degraded_brake_pads","severity":1.0},"capture_flags":{"save_rgb":true,"save_depth":false,"video_rgb":true,"video_depth":false}}
{"frame":61,"timestamp":{"delta_seconds":0.05000000074505806,"elapsed_seconds":5.640166233293712},"control":{"throttle":0.0,"steer":0.0,"brake":1.0,"hand_brake":false,"reverse":false,"manual_gear_shift":false,"gear":0},"transform":{"location":{"x":59.81299591064453,"y":24.850223541259766,"z":0.0017830276628956199},"rotation":{"pitch":0.0,"yaw":0.15919795632362366,"roll":0.0}},"velocity":{"x":3.707108175987628e-09,"y":3.533008552381034e-08,"z":0.0006885528564453125},"angular_velocity":{"x":-1.922329465742223e-05,"y":3.977621418016497e-06,"z":9.227806074818545e-09},"acceleration":{"x":3.2893328238969843e-07,"y":1.530802592242253e-06,"z":-0.004720496945083141},"speed_mps":0.0006885528573616964,"speed_kph":0.0024787902865021074,"speed_limit_kph":30.0,"collisions_this_frame":[],"waypoint":{"x":59.81299591064453,"y":24.8502140045166,"z":0.0},"lane_deviation_m":0.0017830531578511,"lane_width":3.5,"goal":{"x":-76.66610717773438,"y":24.471010208129883,"z":0.5999999642372131},"fault":{"name":"degraded_brake_pads","severity":1.0},"capture_flags":{"save_rgb":true,"save_depth":false,"video_rgb":true,"video_depth":false}}
{"frame":62,"timestamp":{"delta_seconds":0.05000000074505806,"elapsed_seconds":5.69016623403877},"control":{"throttle":0.75,"steer":0.0,"brake":0.0,"hand_brake":false,"reverse":false,"manual_gear_shift":false,"gear":0},"transform":{"location":{"x":59.81299591064453,"y":24.850223541259766,"z":0.001795120188035071},"rotation":{"pitch":0.0,"yaw":0.15919795632362366,"roll":0.0}},"velocity":{"x":4.003243292416414e-10,"y":-4.68107899109782e-08,"z":0.00022386549971997738},"angular_velocity":{"x":2.8799864594475366e-05,"y":-8.567087661504047e-07,"z":-6.6738037318714305e-09},"acceleration":{"x":-6.613567649083052e-08,"y":-1.6428174376414972e-06,"z":-0.009293747134506702},"speed_mps":0.00022386550461445708,"speed_kph":0.0008059158166120455,"speed_limit_kph":30.0,"collisions_this_frame":[],"waypoint":{"x":59.81299591064453,"y":24.8502140045166,"z":0.0},"lane_deviation_m":0.0017951455665752292,"lane_width":3.5,"goal":{"x":-76.66610717773438,"y":24.471010208129883,"z":0.5999999642372131},"fault":{"name":"degraded_brake_pads","severity":1.0},"capture_flags":{"save_rgb":true,"save_depth":false,"video_rgb":true,"video_depth":false}}
{"frame":63,"timestamp":{"delta_seconds":0.05000000074505806,"elapsed_seconds":5.740166234783828},"control":{"throttle":0.75,"steer":0.0,"brake":0.0,"hand_brake":false,"reverse":false,"manual_gear_shift":false,"gear":0},"transform":{"location":{"x":59.81299591064453,"y":24.850223541259766,"z":0.0018092346144840121},"rotation":{"pitch":0.0,"yaw":0.15919795632362366,"roll":0.0}},"velocity":{"x":-5.182478890475295e-10,"y":2.738855142681018e-09,"z":0.0003045463527087122},"angular_velocity":{"x":-5.473387773236027e-06,"y":-7.404519806186727e-07,"z":-7.216585662384034e-10},"acceleration":{"x":-1.8371444809872628e-08,"y":9.909929303830722e-07,"z":0.0016136170597746968},"speed_mps":0.0003045463527214688,"speed_kph":0.0010963668697972877,"speed_limit_kph":30.0,"collisions_this_frame":[],"waypoint":{"x":59.81299591064453,"y":24.8502140045166,"z":0.0},"lane_deviation_m":0.0018092597601935267,"lane_width":3.5,"goal":{"x":-76.66610717773438,"y":24.471010208129883,"z":0.5999999642372131},"fault":{"name":"degraded_brake_pads","severity":1.0},"capture_flags":{"save_rgb":true,"save_depth":false,"video_rgb":true,"video_depth":false}}
{"frame":64,"timestamp":{"delta_seconds":0.05000000074505806,"elapsed_seconds":5.790166235528886},"control":{"throttle":0.75,"steer":0.0,"brake":0.0,"hand_brake":false,"reverse":false,"manual_gear_shift":false,"gear":0},"transform":{"location":{"x":59.81299591064453,"y":24.850223541259766,"z":0.0018243789672851562},"rotation":{"pitch":0.0,"yaw":0.15919795632362366,"roll":0.0}},"velocity":{"x":-1.803174137782193e-10,"y":1.4091846800567964e-08,"z":0.00029378890758380294},"angular_velocity":{"x":5.22106483913376e-06,"y":-1.2345010702574655e-07,"z":3.493902667184301e-10},"acceleration":{"x":6.758609227830448e-09,"y":2.2705982871684682e-07,"z":-0.00021514890249818563},"speed_mps":0.00029378890792182226,"speed_kph":0.0010576400685185603,"speed_limit_kph":30.0,"collisions_this_frame":[],"waypoint":{"x":59.81299591064453,"y":24.8502140045166,"z":0.0},"lane_deviation_m":0.0018244038801640272,"lane_width":3.5,"goal":{"x":-76.66610717773438,"y":24.471010208129883,"z":0.5999999642372131},"fault":{"name":"degraded_brake_pads","severity":1.0},"capture_flags":{"save_rgb":true,"save_depth":false,"video_rgb":true,"video_depth":false}}
{"frame":65,"timestamp":{"delta_seconds":0.05000000074505806,"elapsed_seconds":5.840166236273944},"control":{"throttle":0.75,"steer":0.0,"brake":0.0,"hand_brake":false,"reverse":false,"manual_gear_shift":false,"gear":0},"transform":{"location":{"x":59.81299591064453,"y":24.850223541259766,"z":0.0018378066597506404},"rotation":{"pitch":0.0,"yaw":0.15919795632362366,"roll":0.0}},"velocity":{"x":-1.169578323079179e-09,"y":2.541034938019493e-08,"z":0.0002489662147127092},"angular_velocity":{"x":-1.168281642094371e-06,"y":-2.4375549401156604e-07,"z":4.48353087989517e-09},"acceleration":{"x":-1.9785218796641857e-08,"y":2.2637004803982563e-07,"z":-0.000896453857421875},"speed_mps":0.0002489662160121903,"speed_kph":0.000896278377643885,"speed_limit_kph":30.0,"collisions_this_frame":[],"waypoint":{"x":59.81299591064453,"y":24.8502140045166,"z":0.0},"lane_deviation_m":0.0018378314562141895,"lane_width":3.5,"goal":{"x":-76.66610717773438,"y":24.471010208129883,"z":0.5999999642372131},"fault":{"name":"degraded_brake_pads","severity":1.0},"capture_flags":{"save_rgb":true,"save_depth":false,"video_rgb":true,"video_depth":false}}
{"frame":66,"timestamp":{"delta_seconds":0.05000000074505806,"elapsed_seconds":5.890166237019002},"control":{"throttle":0.75,"steer":0.0,"brake":0.0,"hand_brake":false,"reverse":false,"manual_gear_shift":false,"gear":0},"transform":{"location":{"x":59.81299591064453,"y":24.850223541259766,"z":0.001848678570240736},"rotation":{"pitch":0.0,"yaw":0.15919795632362366,"roll":0.0}},"velocity":{"x":-5.008172765386121e-10,"y":3.202388132450551e-09,"z":0.00019740103743970394},"angular_velocity":{"x":-2.2978039851295762e-05,"y":-7.784607873873028e-07,"z":-6.825722209669038e-10},"acceleration":{"x":1.3375220930811338e-08,"y":-4.4415924094209913e-07,"z":-0.001031303545460105},"speed_mps":0.000197401037466315,"speed_kph":0.000710643734878734,"speed_limit_kph":30.0,"collisions_this_frame":[],"waypoint":{"x":59.81299591064453,"y":24.8502140045166,"z":0.0},"lane_deviation_m":0.0018487032502889633,"lane_width":3.5,"goal":{"x":-76.66610717773438,"y":24.471010208129883,"z":0.5999999642372131},"fault":{"name":"degraded_brake_pads","severity":1.0},"capture_flags":{"save_rgb":true,"save_depth":false,"video_rgb":true,"video_depth":false}}
{"frame":67,"timestamp":{"delta_seconds":0.05000000074505806,"elapsed_seconds":5.9401662377640605},"control":{"throttle":0.75,"steer":0.0,"brake":0.0,"hand_brake":false,"reverse":false,"manual_gear_shift":false,"gear":0},"transform":{"location":{"x":59.81299591064453,"y":24.850223541259766,"z":0.001857070834375918},"rotation":{"pitch":0.0,"yaw":0.15919795632362366,"roll":0.0}},"velocity":{"x":-4.785056240130814e-10,"y":3.935355863404766e-08,"z":0.0001491546572651714},"angular_velocity":{"x":-2.293883153470233e-05,"y":7.344756340899039e-07,"z":4.2337404693171266e-09},"acceleration":{"x":4.462330505106138e-10,"y":7.230233904920169e-07,"z":-0.0009649276034906507},"speed_mps":0.00014915466245753867,"speed_kph":0.0005369567848471392,"speed_limit_kph":30.0,"collisions_this_frame":[],"waypoint":{"x":59.81299591064453,"y":24.8502140045166,"z":0.0},"lane_deviation_m":0.0018570952815935016,"lane_width":3.5,"goal":{"x":-76.66610717773438,"y":24.471010208129883,"z":0.5999999642372131},"fault":{"name":"degraded_brake_pads","severity":1.0},"capture_flags":{"save_rgb":true,"save_depth":false,"video_rgb":true,"video_depth":false}}
{"frame":68,"timestamp":{"delta_seconds":0.05000000074505806,"elapsed_seconds":5.990166238509119},"control":{"throttle":0.75,"steer":0.0,"brake":0.0,"hand_brake":false,"reverse":false,"manual_gear_shift":false,"gear":0},"transform":{"location":{"x":59.81299591064453,"y":24.850223541259766,"z":0.0018632888095453382},"rotation":{"pitch":0.0,"yaw":0.15919795632362366,"roll":0.0}},"velocity":{"x":-1.4638298573288466e-08,"y":-3.2265461413771845e-08,"z":0.00010883330833166838},"angular_velocity":{"x":3.772513082367368e-05,"y":-1.945366784639191e-05,"z":-5.493224097818938e-09},"acceleration":{"x":-2.8319587386249623e-07,"y":-1.4323803725346806e-06,"z":-0.0008064269786700606},"speed_mps":0.00010883331409892736,"speed_kph":0.0003917999307561385,"speed_limit_kph":30.0,"collisions_this_frame":[],"waypoint":{"x":59.81299591064453,"y":24.8502140045166,"z":0.0},"lane_deviation_m":0.0018633132567629218,"lane_width":3.5,"goal":{"x":-76.66610717773438,"y":24.471010208129883,"z":0.5999999642372131},"fault":{"name":"degraded_brake_pads","severity":1.0},"capture_flags":{"save_rgb":true,"save_depth":false,"video_rgb":true,"video_depth":false}}
{"frame":69,"timestamp":{"delta_seconds":0.05000000074505806,"elapsed_seconds":6.040166239254177},"control":{"throttle":0.75,"steer":0.0,"brake":0.0,"hand_brake":false,"reverse":false,"manual_gear_shift":false,"gear":0},"transform":{"location":{"x":59.833675384521484,"y":24.850282669067383,"z":0.001739082275889814},"rotation":{"pitch":0.022000038996338844,"yaw":0.1588548719882965,"roll":-6.103516352595761e-05}},"velocity":{"x":0.7989691495895386,"y":0.0022238593082875013,"z":7.822990301065147e-05},"angular_velocity":{"x":0.002229259116575122,"y":-0.7480195760726929,"z":-0.0008431717287749052},"acceleration":{"x":15.97938346862793,"y":0.044477835297584534,"z":-0.0006120681064203382},"speed_mps":0.7989722483703493,"speed_kph":2.8763000941332577,"speed_limit_kph":30.0,"collisions_this_frame":[],"waypoint":{"x":59.833675384521484,"y":24.850271224975586,"z":0.0},"lane_deviation_m":0.001739119878038764,"lane_width":3.5,"goal":{"x":-76.66610717773438,"y":24.471010208129883,"z":0.5999999642372131},"fault":{"name":"degraded_brake_pads","severity":1.0},"capture_flags":{"save_rgb":true,"save_depth":false,"video_rgb":true,"video_depth":false}}
{"frame":70,"timestamp":{"delta_seconds":0.05000000074505806,"elapsed_seconds":6.090166239999235},"control":{"throttle":0.0,"steer":0.0,"brake":1.0,"hand_brake":false,"reverse":false,"manual_gear_shift":false,"gear":0},"transform":{"location":{"x":59.86710739135742,"y":24.850378036499023,"z":0.0017088699387386441},"rotation":{"pitch":0.027716906741261482,"yaw":0.1588360071182251,"roll":-6.103515261202119e-05}},"velocity":{"x":0.4124246835708618,"y":0.0011440480593591928,"z":5.6066510296659544e-05},"angular_velocity":{"x":-0.0008660143939778209,"y":0.36462369561195374,"z":-4.5235046854941174e-05},"acceleration":{"x":-7.730889320373535,"y":-0.02159622497856617,"z":-0.00044326786883175373},"speed_mps":0.4124262741484121,"speed_kph":1.4847345869342836,"speed_limit_kph":30.0,"collisions_this_frame":[],"waypoint":{"x":59.86710739135742,"y":24.85036277770996,"z":0.0},"lane_deviation_m":0.0017089380417019129,"lane_width":3.5,"goal":{"x":-76.66610717773438,"y":24.471010208129883,"z":0.5999999642372131},"fault":{"name":"degraded_brake_pads","severity":1.0},"capture_flags":{"save_rgb":true,"save_depth":false,"video_rgb":true,"video_depth":false}}
{"frame":71,"timestamp":{"delta_seconds":0.05000000074505806,"elapsed_seconds":6.140166240744293},"control":{"throttle":0.0,"steer":0.0,"brake":1.0,"hand_brake":false,"reverse":false,"manual_gear_shift":false,"gear":0},"transform":{"location":{"x":59.86855697631836,"y":24.85038185119629,"z":0.0018701934022828937},"rotation":{"pitch":0.0005805660621263087,"yaw":0.15864476561546326,"roll":-6.103515261202119e-05}},"velocity":{"x":0.00023142265854403377,"y":3.6319909213489154e-07,"z":3.7965772207826376e-05},"angular_velocity":{"x":-0.0009036181727424264,"y":0.3363558351993561,"z":-6.858733740955358e-06},"acceleration":{"x":-8.243865013122559,"y":-0.02287369593977928,"z":-0.00036201474722474813},"speed_mps":0.0002345164784412932,"speed_kph":0.0008442593223886555,"speed_limit_kph":30.0,"collisions_this_frame":[],"waypoint":{"x":59.86855697631836,"y":24.85036849975586,"z":0.0},"lane_deviation_m":0.0018702410161495209,"lane_width":3.5,"goal":{"x":-76.66610717773438,"y":24.471010208129883,"z":0.5999999642372131},"fault":{"name":"degraded_brake_pads","severity":1.0},"capture_flags":{"save_rgb":true,"save_depth":false,"video_rgb":true,"video_depth":false}}
{"frame":72,"timestamp":{"delta_seconds":0.05000000074505806,"elapsed_seconds":6.190166241489351},"control":{"throttle":0.0,"steer":0.0,"brake":1.0,"hand_brake":false,"reverse":false,"manual_gear_shift":false,"gear":0},"transform":{"location":{"x":59.868499755859375,"y":24.85038185119629,"z":0.0019180297385901213},"rotation":{"pitch":-0.007294641807675362,"yaw":0.15864458680152893,"roll":-6.103515261202119e-05}},"velocity":{"x":5.154848986421712e-05,"y":1.817325028241612e-07,"z":2.6607513063936494e-05},"angular_velocity":{"x":-0.0002082744613289833,"y":0.07598692178726196,"z":-1.409411197528243e-06},"acceleration":{"x":-0.00359748350456357,"y":-3.629331786214607e-06,"z":-0.00022716517560184002},"speed_mps":5.801068509707008e-05,"speed_kph":0.00020883846634945228,"speed_limit_kph":30.0,"collisions_this_frame":[],"waypoint":{"x":59.868499755859375,"y":24.85036849975586,"z":0.0},"lane_deviation_m":0.0019180761883035302,"lane_width":3.5,"goal":{"x":-76.66610717773438,"y":24.471010208129883,"z":0.5999999642372131},"fault":{"name":"degraded_brake_pads","severity":1.0},"capture_flags":{"save_rgb":true,"save_depth":false,"video_rgb":true,"video_depth":false}}
{"frame":73,"timestamp":{"delta_seconds":0.05000000074505806,"elapsed_seconds":6.240166242234409},"control":{"throttle":0.0,"steer":0.0,"brake":1.0,"hand_brake":false,"reverse":false,"manual_gear_shift":false,"gear":0},"transform":{"location":{"x":59.86849594116211,"y":24.85038185119629,"z":0.0019244765862822533},"rotation":{"pitch":-0.008209886960685253,"yaw":0.15864448249340057,"roll":-6.103515261202119e-05}},"velocity":{"x":-5.376436092774384e-06,"y":2.6870489833186184e-08,"z":1.8453598386258818e-05},"angular_velocity":{"x":-2.1151925466256216e-05,"y":-0.006988957989960909,"z":-5.566795948652725e-07},"acceleration":{"x":-0.0011384985409677029,"y":-3.097240096394671e-06,"z":-0.00016307829355355352},"speed_mps":1.9220876163282594e-05,"speed_kph":6.919515418781734e-05,"speed_limit_kph":30.0,"collisions_this_frame":[],"waypoint":{"x":59.86849594116211,"y":24.850366592407227,"z":0.0},"lane_deviation_m":0.0019245371222496033,"lane_width":3.5,"goal":{"x":-76.66610717773438,"y":24.471010208129883,"z":0.5999999642372131},"fault":{"name":"degraded_brake_pads","severity":1.0},"capture_flags":{"save_rgb":true,"save_depth":false,"video_rgb":true,"video_depth":false}}
{"frame":74,"timestamp":{"delta_seconds":0.05000000074505806,"elapsed_seconds":6.290166242979467},"control":{"throttle":0.0,"steer":0.0,"brake":1.0,"hand_brake":false,"reverse":false,"manual_gear_shift":false,"gear":0},"transform":{"location":{"x":59.86850357055664,"y":24.85038185119629,"z":0.0019186019198969007},"rotation":{"pitch":-0.007110226433724165,"yaw":0.15864448249340057,"roll":-6.103515261202119e-05}},"velocity":{"x":-1.9879529645550065e-05,"y":-6.301975190581288e-07,"z":1.1882782018801663e-05},"angular_velocity":{"x":0.00014609226491302252,"y":-0.02827979065477848,"z":-2.3491347178605793e-07},"acceleration":{"x":-0.0002900618710555136,"y":-1.314136079599848e-05,"z":-0.0001314163237111643},"speed_mps":2.3168801357594807e-05,"speed_kph":8.340768488734131e-05,"speed_limit_kph":30.0,"collisions_this_frame":[],"waypoint":{"x":59.86850357055664,"y":24.85036849975586,"z":0.0},"lane_deviation_m":0.0019186483696103096,"lane_width":3.5,"goal":{"x":-76.66610717773438,"y":24.471010208129883,"z":0.5999999642372131},"fault":{"name":"degraded_brake_pads","severity":1.0},"capture_flags":{"save_rgb":true,"save_depth":false,"video_rgb":true,"video_depth":false}}
{"frame":75,"timestamp":{"delta_seconds":0.05000000074505806,"elapsed_seconds":6.340166243724525},"control":{"throttle":0.0,"steer":0.0,"brake":1.0,"hand_brake":false,"reverse":false,"manual_gear_shift":false,"gear":0},"transform":{"location":{"x":59.86851501464844,"y":24.85038185119629,"z":0.0019104003440588713},"rotation":{"pitch":-0.005614415276795626,"yaw":0.15864448249340057,"roll":-6.103515261202119e-05}},"velocity":{"x":-2.0548264728859067e-05,"y":1.6629334709250543e-07,"z":8.621215783932712e-06},"angular_velocity":{"x":5.4883406846784055e-05,"y":-0.029388364404439926,"z":-9.115904475720527e-08},"acceleration":{"x":-1.3374701666180044e-05,"y":1.5929817891446874e-05,"z":-6.523132469737902e-05},"speed_mps":2.2284169233733874e-05,"speed_kph":8.022300924144194e-05,"speed_limit_kph":30.0,"collisions_this_frame":[],"waypoint":{"x":59.86851501464844,"y":24.85036849975586,"z":0.0},"lane_deviation_m":0.0019104470266029239,"lane_width":3.5,"goal":{"x":-76.66610717773438,"y":24.471010208129883,"z":0.5999999642372131},"fault":{"name":"degraded_brake_pads","severity":1.0},"capture_flags":{"save_rgb":true,"save_depth":false,"video_rgb":true,"video_depth":false}}
{"frame":76,"timestamp":{"delta_seconds":0.05000000074505806,"elapsed_seconds":6.390166244469583},"control":{"throttle":0.75,"steer":0.0,"brake":0.0,"hand_brake":false,"reverse":false,"manual_gear_shift":false,"gear":0},"transform":{"location":{"x":59.86852264404297,"y":24.85038185119629,"z":0.001902847201563418},"rotation":{"pitch":-0.004275698214769363,"yaw":0.15864448249340057,"roll":-6.103515261202119e-05}},"velocity":{"x":-1.7301774278166704e-05,"y":-2.4843378909622515e-08,"z":4.472732598514995e-06},"angular_velocity":{"x":3.7819056160515174e-05,"y":-0.024787697941064835,"z":-1.2156548656605537e-08},"acceleration":{"x":6.492980901384726e-05,"y":-3.822734470304567e-06,"z":-8.296966552734375e-05},"speed_mps":1.7870572102311817e-05,"speed_kph":6.433405956832255e-05,"speed_limit_kph":30.0,"collisions_this_frame":[],"waypoint":{"x":59.86852264404297,"y":24.85036849975586,"z":0.0},"lane_deviation_m":0.0019028941169381142,"lane_width":3.5,"goal":{"x":-76.66610717773438,"y":24.471010208129883,"z":0.5999999642372131},"fault":{"name":"degraded_brake_pads","severity":1.0},"capture_flags":{"save_rgb":true,"save_depth":false,"video_rgb":true,"video_depth":false}}
{"frame":77,"timestamp":{"delta_seconds":0.05000000074505806,"elapsed_seconds":6.440166245214641},"control":{"throttle":0.75,"steer":0.0,"brake":0.0,"hand_brake":false,"reverse":false,"manual_gear_shift":false,"gear":0},"transform":{"location":{"x":59.8685302734375,"y":24.85038185119629,"z":0.0018967437790706754},"rotation":{"pitch":-0.0032033585011959076,"yaw":0.15864448249340057,"roll":-6.103515261202119e-05}},"velocity":{"x":-1.3561167179432232e-05,"y":1.78857789023823e-07,"z":3.681182761283708e-06},"angular_velocity":{"x":2.1531430320465006e-05,"y":-0.019436653703451157,"z":1.7624453008124874e-08},"acceleration":{"x":7.481213833671063e-05,"y":4.0740233089309186e-06,"z":-1.5830995835131034e-05},"speed_mps":1.4053054895615288e-05,"speed_kph":5.059099762421504e-05,"speed_limit_kph":30.0,"collisions_this_frame":[],"waypoint":{"x":59.8685302734375,"y":24.85036849975586,"z":0.0},"lane_deviation_m":0.0018967908108606935,"lane_width":3.5,"goal":{"x":-76.66610717773438,"y":24.471010208129883,"z":0.5999999642372131},"fault":{"name":"degraded_brake_pads","severity":1.0},"capture_flags":{"save_rgb":true,"save_depth":false,"video_rgb":true,"video_depth":false}}
{"frame":78,"timestamp":{"delta_seconds":0.05000000074505806,"elapsed_seconds":6.490166245959699},"control":{"throttle":0.75,"steer":0.0,"brake":0.0,"hand_brake":false,"reverse":false,"manual_gear_shift":false,"gear":0},"transform":{"location":{"x":59.86853790283203,"y":24.85038185119629,"z":0.0018920134752988815},"rotation":{"pitch":-0.0023837359622120857,"yaw":0.15864448249340057,"roll":-6.103515261202119e-05}},"velocity":{"x":-1.0322781236027367e-05,"y":1.2252726833139604e-07,"z":1.7356871921947459e-06},"angular_velocity":{"x":5.969047379039694e-06,"y":-0.014794308692216873,"z":2.5805970693681957e-08},"acceleration":{"x":6.47677225060761e-05,"y":-1.1266104138485389e-06,"z":-3.890991138177924e-05},"speed_mps":1.0468401759939878e-05,"speed_kph":3.768624633578356e-05,"speed_limit_kph":30.0,"collisions_this_frame":[],"waypoint":{"x":59.86853790283203,"y":24.85036849975586,"z":0.0},"lane_deviation_m":0.0018920606235042214,"lane_width":3.5,"goal":{"x":-76.66610717773438,"y":24.471010208129883,"z":0.5999999642372131},"fault":{"name":"degraded_brake_pads","severity":1.0},"capture_flags":{"save_rgb":true,"save_depth":false,"video_rgb":true,"video_depth":false}}
{"frame":79,"timestamp":{"delta_seconds":0.05000000074505806,"elapsed_seconds":6.540166246704757},"control":{"throttle":0.75,"steer":0.0,"brake":0.0,"hand_brake":false,"reverse":false,"manual_gear_shift":false,"gear":0},"transform":{"location":{"x":59.87138366699219,"y":24.85038948059082,"z":0.0018713378813117743},"rotation":{"pitch":0.0011816226178780198,"yaw":0.15863673388957977,"roll":-6.103515261202119e-05}},"velocity":{"x":0.09309574216604233,"y":0.0002593790995888412,"z":2.1076202756376006e-06},"angular_velocity":{"x":0.0002904216235037893,"y":-0.09984583407640457,"z":-0.0006482200114987791},"acceleration":{"x":1.862121343612671,"y":0.005185131449252367,"z":7.438661668857094e-06},"speed_mps":0.09309610352429148,"speed_kph":0.33514597268744933,"speed_limit_kph":30.0,"collisions_this_frame":[],"waypoint":{"x":59.87138366699219,"y":24.85037612915039,"z":0.0},"lane_deviation_m":0.0018713854951784015,"lane_width":3.5,"goal":{"x":-76.66610717773438,"y":24.471010208129883,"z":0.5999999642372131},"fault":{"name":"degraded_brake_pads","severity":1.0},"capture_flags":{"save_rgb":true,"save_depth":false,"video_rgb":true,"video_depth":false}}
{"frame":80,"timestamp":{"delta_seconds":0.05000000074505806,"elapsed_seconds":6.590166247449815},"control":{"throttle":0.0,"steer":0.0,"brake":1.0,"hand_brake":false,"reverse":false,"manual_gear_shift":false,"gear":0},"transform":{"location":{"x":59.8818244934082,"y":24.850421905517578,"z":0.0018232726724818349},"rotation":{"pitch":0.009371018968522549,"yaw":0.15841594338417053,"roll":-6.103514533606358e-05}},"velocity":{"x":0.30580559372901917,"y":0.0008498739334754646,"z":1.6880035218491685e-06},"angular_velocity":{"x":0.0005389841971918941,"y":-0.20994432270526886,"z":-0.02305903472006321},"acceleration":{"x":4.254197120666504,"y":0.011809896677732468,"z":-8.392335075768642e-06},"speed_mps":0.3058067746870728,"speed_kph":1.100904388873462,"speed_limit_kph":30.0,"collisions_this_frame":[],"waypoint":{"x":59.8818244934082,"y":24.850404739379883,"z":0.0},"lane_deviation_m":0.0018233534647151828,"lane_width":3.5,"goal":{"x":-76.66610717773438,"y":24.471010208129883,"z":0.5999999642372131},"fault":{"name":"degraded_brake_pads","severity":1.0},"capture_flags":{"save_rgb":true,"save_depth":false,"video_rgb":true,"video_depth":false}}
