{"frame":14814,"timestamp":{"delta_seconds":0.05000000074505806,"elapsed_seconds":142.5826311223209},"control":{"throttle":0.0,"steer":0.0,"brake":1.0,"hand_brake":false,"reverse":false,"manual_gear_shift":false,"gear":0},"transform":{"location":{"x":-87.6230239868164,"y":12.967159271240234,"z":0.48239994049072266},"rotation":{"pitch":0.0,"yaw":-179.84078979492188,"roll":0.0}},"velocity":{"x":0.0,"y":0.0,"z":-1.470000147819519},"angular_velocity":{"x":0.0,"y":0.0,"z":0.0},"acceleration":{"x":0.0,"y":0.0,"z":-9.80000114440918},"speed_mps":1.470000147819519,"speed_kph":5.2920005321502686,"speed_limit_kph":30.0,"collisions_this_frame":[],"waypoint":{"x":-87.62295532226562,"y":12.94051742553711,"z":0.0},"lane_deviation_m":0.48313507437705994,"lane_width":3.5,"goal":{"x":45.76567459106445,"y":137.4599609375,"z":0.6000009179115295},"fault":{"name":"degraded_brake_pads","severity":1.0},"capture_flags":{"save_rgb":true,"save_depth":false,"video_rgb":true,"video_depth":false}}
{"frame":14815,"timestamp":{"delta_seconds":0.05000000074505806,"elapsed_seconds":142.63263112306595},"control":{"throttle":1.0,"steer":0.29899999499320984,"brake":0.0,"hand_brake":false,"reverse":false,"manual_gear_shift":false,"gear":0},"transform":{"location":{"x":-87.6230239868164,"y":12.967159271240234,"z":0.394199937582016},"rotation":{"pitch":0.0,"yaw":-179.84078979492188,"roll":0.0}},"velocity":{"x":0.0,"y":0.0,"z":-1.9600002765655518},"angular_velocity":{"x":0.0,"y":0.0,"z":0.0},"acceleration":{"x":0.0,"y":0.0,"z":-9.800003051757812},"speed_mps":1.9600002765655518,"speed_kph":7.056000995635986,"speed_limit_kph":30.0,"collisions_this_frame":[],"waypoint":{"x":-87.62295532226562,"y":12.94051742553711,"z":0.0},"lane_deviation_m":0.3950991928577423,"lane_width":3.5,"goal":{"x":45.76567459106445,"y":137.4599609375,"z":0.6000009179115295},"fault":{"name":"degraded_brake_pads","severity":1.0},"capture_flags":{"save_rgb":true,"save_depth":false,"video_rgb":true,"video_depth":false}}
{"frame":14816,"timestamp":{"delta_seconds":0.05000000074505806,"elapsed_seconds":142.682631123811},"control":{"throttle":1.0,"steer":0.35100001096725464,"brake":0.0,"hand_brake":false,"reverse":false,"manual_gear_shift":false,"gear":0},"transform":{"location":{"x":-87.6230239868164,"y":12.967159271240234,"z":0.281499981880188},"rotation":{"pitch":0.0,"yaw":-179.84078979492188,"roll":0.0}},"velocity":{"x":0.0,"y":0.0,"z":-2.450000286102295},"angular_velocity":{"x":0.0,"y":0.0,"z":0.0},"acceleration":{"x":0.0,"y":0.0,"z":-9.800000190734863},"speed_mps":2.450000286102295,"speed_kph":8.820001029968262,"speed_limit_kph":30.0,"collisions_this_frame":[],"waypoint":{"x":-87.62295532226562,"y":12.94051742553711,"z":0.0},"lane_deviation_m":0.2827579081058502,"lane_width":3.5,"goal":{"x":45.76567459106445,"y":137.4599609375,"z":0.6000009179115295},"fault":{"name":"degraded_brake_pads","severity":1.0},"capture_flags":{"save_rgb":true,"save_depth":false,"video_rgb":true,"video_depth":false}}
{"frame":14817,"timestamp":{"delta_seconds":0.05000000074505806,"elapsed_seconds":142.73263112455606},"control":{"throttle":1.0,"steer":0.32199999690055847,"brake":0.0,"hand_brake":false,"reverse":false,"manual_gear_shift":false,"gear":0},"transform":{"location":{"x":-87.6230239868164,"y":12.967159271240234,"z":0.14429987967014313},"rotation":{"pitch":0.0,"yaw":-179.84078979492188,"roll":0.0}},"velocity":{"x":0.0,"y":0.0,"z":-2.93999981880188},"angular_velocity":{"x":0.0,"y":0.0,"z":0.0},"acceleration":{"x":0.0,"y":0.0,"z":-9.7999906539917},"speed_mps":2.93999981880188,"speed_kph":10.583999347686769,"speed_limit_kph":30.0,"collisions_this_frame":[],"waypoint":{"x":-87.62295532226562,"y":12.94051742553711,"z":0.0},"lane_deviation_m":0.1467387080192566,"lane_width":3.5,"goal":{"x":45.76567459106445,"y":137.4599609375,"z":0.6000009179115295},"fault":{"name":"degraded_brake_pads","severity":1.0},"capture_flags":{"save_rgb":true,"save_depth":false,"video_rgb":true,"video_depth":false}}
{"frame":14818,"timestamp":{"delta_seconds":0.05000000074505806,"elapsed_seconds":142.78263112530112},"control":{"throttle":1.0,"steer":0.22100000083446503,"brake":0.0,"hand_brake":false,"reverse":false,"manual_gear_shift":false,"gear":0},"transform":{"location":{"x":-87.62288665771484,"y":12.966087341308594,"z":0.009566687978804111},"rotation":{"pitch":0.08493340015411377,"yaw":-179.77978515625,"roll":-0.2142944186925888}},"velocity":{"x":0.013741226866841316,"y":0.028082579374313354,"z":-1.994253158569336},"angular_velocity":{"x":-6.536768913269043,"y":2.8696982860565186,"z":0.7313348054885864},"acceleration":{"x":0.2748245298862457,"y":0.5616515874862671,"z":18.914932250976562},"speed_mps":1.9944982108399831,"speed_kph":7.180193559023939,"speed_limit_kph":30.0,"collisions_this_frame":[],"waypoint":{"x":-87.62281799316406,"y":12.94051742553711,"z":0.0},"lane_deviation_m":0.027301041409373283,"lane_width":3.5,"goal":{"x":45.76567459106445,"y":137.4599609375,"z":0.6000009179115295},"fault":{"name":"degraded_brake_pads","severity":1.0},"capture_flags":{"save_rgb":true,"save_depth":false,"video_rgb":true,"video_depth":false}}
{"frame":14819,"timestamp":{"delta_seconds":0.05000000074505806,"elapsed_seconds":142.83263112604618},"control":{"throttle":1.0,"steer":0.2029999941587448,"brake":0.0,"hand_brake":false,"reverse":false,"manual_gear_shift":false,"gear":0},"transform":{"location":{"x":-87.62332153320312,"y":12.965594291687012,"z":-0.04758678376674652},"rotation":{"pitch":0.20131981372833252,"yaw":-179.75897216796875,"roll":-0.4374999403953552}},"velocity":{"x":0.005061851814389229,"y":0.013979163020849228,"z":-0.6851036548614502},"angular_velocity":{"x":-2.8447694778442383,"y":1.7223385572433472,"z":0.25232991576194763},"acceleration":{"x":-0.17358750104904175,"y":-0.28206831216812134,"z":26.18299102783203},"speed_mps":0.6852649540484843,"speed_kph":2.4669538345745434,"speed_limit_kph":30.0,"collisions_this_frame":[],"waypoint":{"x":-87.62325286865234,"y":12.940515518188477,"z":0.0},"lane_deviation_m":0.05379081517457962,"lane_width":3.5,"goal":{"x":45.76567459106445,"y":137.4599609375,"z":0.6000009179115295},"fault":{"name":"degraded_brake_pads","severity":1.0},"capture_flags":{"save_rgb":true,"save_depth":false,"video_rgb":true,"video_depth":false}}
{"frame":14820,"timestamp":{"delta_seconds":0.05000000074505806,"elapsed_seconds":142.88263112679124},"control":{"throttle":1.0,"steer":0.1850000023841858,"brake":0.0,"hand_brake":false,"reverse":false,"manual_gear_shift":false,"gear":0},"transform":{"location":{"x":-87.62332153320312,"y":12.966195106506348,"z":-0.061794545501470566},"rotation":{"pitch":0.21197490394115448,"yaw":-179.75277709960938,"roll":-0.4152221083641052}},"velocity":{"x":0.00024690150166861713,"y":0.00934397242963314,"z":-0.07629220187664032},"angular_velocity":{"x":3.1250240802764893,"y":-1.0169380903244019,"z":0.06176668405532837},"acceleration":{"x":-0.09629900753498077,"y":-0.09270381182432175,"z":12.176228523254395},"speed_mps":0.07686267526116504,"speed_kph":0.2767056309401941,"speed_limit_kph":30.0,"collisions_this_frame":[],"waypoint":{"x":-87.62325286865234,"y":12.940515518188477,"z":0.0},"lane_deviation_m":0.06691794842481613,"lane_width":3.5,"goal":{"x":45.76567459106445,"y":137.4599609375,"z":0.6000009179115295},"fault":{"name":"degraded_brake_pads","severity":1.0},"capture_flags":{"save_rgb":true,"save_depth":false,"video_rgb":true,"video_depth":false}}
{"frame":14821,"timestamp":{"delta_seconds":0.05000000074505806,"elapsed_seconds":142.9326311275363},"control":{"throttle":1.0,"steer":0.23000000417232513,"brake":0.0,"hand_brake":false,"reverse":false,"manual_gear_shift":false,"gear":0},"transform":{"location":{"x":-87.62310028076172,"y":12.966593742370605,"z":-0.057789839804172516},"rotation":{"pitch":0.17593882977962494,"yaw":-179.75396728515625,"roll":-0.34725943207740784}},"velocity":{"x":-0.001358954468742013,"y":-0.0013717921683564782,"z":0.14685426652431488},"angular_velocity":{"x":1.4035515785217285,"y":-0.7334660291671753,"z":-0.05627867579460144},"acceleration":{"x":-0.032117120921611786,"y":-0.2143152952194214,"z":4.4629292488098145},"speed_mps":0.14686696077537587,"speed_kph":0.5287210587913531,"speed_limit_kph":30.0,"collisions_this_frame":[],"waypoint":{"x":-87.62303161621094,"y":12.940515518188477,"z":0.0},"lane_deviation_m":0.06340144574642181,"lane_width":3.5,"goal":{"x":45.76567459106445,"y":137.4599609375,"z":0.6000009179115295},"fault":{"name":"degraded_brake_pads","severity":1.0},"capture_flags":{"save_rgb":true,"save_depth":false,"video_rgb":true,"video_depth":false}}
{"frame":14822,"timestamp":{"delta_seconds":0.05000000074505806,"elapsed_seconds":142.98263112828135},"control":{"throttle":1.0,"steer":0.15199999511241913,"brake":0.0,"hand_brake":false,"reverse":false,"manual_gear_shift":false,"gear":0},"transform":{"location":{"x":-87.62291717529297,"y":12.967025756835938,"z":-0.04791328310966492},"rotation":{"pitch":0.13691113889217377,"yaw":-179.75868225097656,"roll":-0.2730102241039276}},"velocity":{"x":-0.002252437174320221,"y":-0.0016930332640185952,"z":0.21020665764808655},"angular_velocity":{"x":1.5004644393920898,"y":-0.78428715467453,"z":-0.11282780766487122},"acceleration":{"x":-0.017869655042886734,"y":-0.00642482191324234,"z":1.2670478820800781},"speed_mps":0.2102255425832865,"speed_kph":0.7568119532998314,"speed_limit_kph":30.0,"collisions_this_frame":[],"waypoint":{"x":-87.62284851074219,"y":12.94051742553711,"z":0.0},"lane_deviation_m":0.054757457226514816,"lane_width":3.5,"goal":{"x":45.76567459106445,"y":137.4599609375,"z":0.6000009179115295},"fault":{"name":"degraded_brake_pads","severity":1.0},"capture_flags":{"save_rgb":true,"save_depth":false,"video_rgb":true,"video_depth":false}}
{"frame":14823,"timestamp":{"delta_seconds":0.05000000074505806,"elapsed_seconds":143.0326311290264},"control":{"throttle":1.0,"steer":0.20200000703334808,"brake":0.0,"hand_brake":false,"reverse":false,"manual_gear_shift":false,"gear":0},"transform":{"location":{"x":-87.62919616699219,"y":12.966833114624023,"z":-0.03720611333847046},"rotation":{"pitch":0.10875709354877472,"yaw":-179.74539184570312,"roll":-0.2082214057445526}},"velocity":{"x":-0.3687073886394501,"y":-0.0421922393143177,"z":0.20502632856369019},"angular_velocity":{"x":1.1909290552139282,"y":-0.2825391888618469,"z":0.6666921377182007},"acceleration":{"x":-7.329099178314209,"y":-0.8099841475486755,"z":-0.10360658168792725},"speed_mps":0.4239824511698395,"speed_kph":1.5263368242114224,"speed_limit_kph":30.0,"collisions_this_frame":[],"waypoint":{"x":-87.6291275024414,"y":12.940500259399414,"z":0.0},"lane_deviation_m":0.04558200016617775,"lane_width":3.5,"goal":{"x":45.76567459106445,"y":137.4599609375,"z":0.6000009179115295},"fault":{"name":"degraded_brake_pads","severity":1.0},"capture_flags":{"save_rgb":true,"save_depth":false,"video_rgb":true,"video_depth":false}}
{"frame":14824,"timestamp":{"delta_seconds":0.05000000074505806,"elapsed_seconds":143.08263112977147},"control":{"throttle":1.0,"steer":0.15299999713897705,"brake":0.0,"hand_brake":false,"reverse":false,"manual_gear_shift":false,"gear":0},"transform":{"location":{"x":-87.6773452758789,"y":12.962870597839355,"z":-0.027407607063651085},"rotation":{"pitch":0.14078384637832642,"yaw":-179.59951782226562,"roll":-0.22375482320785522}},"velocity":{"x":-1.2952402830123901,"y":-0.1239660233259201,"z":0.19391785562038422},"angular_velocity":{"x":-1.0351132154464722,"y":1.0198721885681152,"z":4.136343002319336},"acceleration":{"x":-18.530656814575195,"y":-1.635475754737854,"z":-0.22216945886611938},"speed_mps":1.31552996940612,"speed_kph":4.735907889862032,"speed_limit_kph":30.0,"collisions_this_frame":[],"waypoint":{"x":-87.67728424072266,"y":12.940364837646484,"z":0.0},"lane_deviation_m":0.03546392545104027,"lane_width":3.5,"goal":{"x":45.76567459106445,"y":137.4599609375,"z":0.6000009179115295},"fault":{"name":"degraded_brake_pads","severity":1.0},"capture_flags":{"save_rgb":true,"save_depth":false,"video_rgb":true,"video_depth":false}}
{"frame":14825,"timestamp":{"delta_seconds":0.05000000074505806,"elapsed_seconds":143.13263113051653},"control":{"throttle":1.0,"steer":0.1979999989271164,"brake":0.0,"hand_brake":false,"reverse":false,"manual_gear_shift":false,"gear":0},"transform":{"location":{"x":-87.76084899902344,"y":12.954394340515137,"z":-0.018621139228343964},"rotation":{"pitch":0.2076035887002945,"yaw":-179.25999450683594,"roll":-0.32376086711883545}},"velocity":{"x":-1.9246041774749756,"y":-0.23701457679271698,"z":0.1761619746685028},"angular_velocity":{"x":-2.626132011413574,"y":1.5383092164993286,"z":7.85445499420166},"acceleration":{"x":-12.587278366088867,"y":-2.2609710693359375,"z":-0.3551176190376282},"speed_mps":1.9471287042425993,"speed_kph":7.009663335273357,"speed_limit_kph":30.0,"collisions_this_frame":[],"waypoint":{"x":-87.76081085205078,"y":12.940134048461914,"z":0.0},"lane_deviation_m":0.023454299196600914,"lane_width":3.5,"goal":{"x":45.76567459106445,"y":137.4599609375,"z":0.6000009179115295},"fault":{"name":"degraded_brake_pads","severity":1.0},"capture_flags":{"save_rgb":true,"save_depth":false,"video_rgb":true,"video_depth":false}}
{"frame":14826,"timestamp":{"delta_seconds":0.05000000074505806,"elapsed_seconds":143.1826311312616},"control":{"throttle":1.0,"steer":0.2540000081062317,"brake":0.0,"hand_brake":false,"reverse":false,"manual_gear_shift":false,"gear":0},"transform":{"location":{"x":-87.8731689453125,"y":12.94063949584961,"z":-0.012009963393211365},"rotation":{"pitch":0.23125652968883514,"yaw":-178.71527099609375,"roll":-0.32669058442115784}},"velocity":{"x":-2.4411537647247314,"y":-0.39795637130737305,"z":0.09744487702846527},"angular_velocity":{"x":2.9184913635253906,"y":-0.6425704956054688,"z":12.43424129486084},"acceleration":{"x":-10.330991744995117,"y":-3.2188358306884766,"z":-1.5743420124053955},"speed_mps":2.47529725094845,"speed_kph":8.91107010341442,"speed_limit_kph":30.0,"collisions_this_frame":[],"waypoint":{"x":-87.8731689453125,"y":12.939821243286133,"z":0.0},"lane_deviation_m":0.012037805281579494,"lane_width":3.5,"goal":{"x":45.76567459106445,"y":137.4599609375,"z":0.6000009179115295},"fault":{"name":"degraded_brake_pads","severity":1.0},"capture_flags":{"save_rgb":true,"save_depth":false,"video_rgb":true,"video_depth":false}}
{"frame":14827,"timestamp":{"delta_seconds":0.05000000074505806,"elapsed_seconds":143.23263113200665},"control":{"throttle":1.0,"steer":0.15800000727176666,"brake":0.0,"hand_brake":false,"reverse":false,"manual_gear_shift":false,"gear":0},"transform":{"location":{"x":-88.01014709472656,"y":12.923990249633789,"z":-0.007060470525175333},"rotation":{"pitch":0.2498551309108734,"yaw":-178.1746063232422,"roll":-0.3473511040210724}},"velocity":{"x":-2.9219000339508057,"y":-0.38887181878089905,"z":0.09768544882535934},"angular_velocity":{"x":-0.9930565357208252,"y":0.6096044182777405,"z":10.165619850158691},"acceleration":{"x":-9.614925384521484,"y":0.18169105052947998,"z":0.00481143593788147},"speed_mps":2.9492818696685967,"speed_kph":10.61741473080695,"speed_limit_kph":30.0,"collisions_this_frame":[],"waypoint":{"x":-88.01019287109375,"y":12.93943977355957,"z":0.0},"lane_deviation_m":0.01698646880686283,"lane_width":3.5,"goal":{"x":45.76567459106445,"y":137.4599609375,"z":0.6000009179115295},"fault":{"name":"degraded_brake_pads","severity":1.0},"capture_flags":{"save_rgb":true,"save_depth":false,"video_rgb":true,"video_depth":false}}
{"frame":14828,"timestamp":{"delta_seconds":0.05000000074505806,"elapsed_seconds":143.2826311327517},"control":{"throttle":1.0,"steer":0.08500000089406967,"brake":0.0,"hand_brake":false,"reverse":false,"manual_gear_shift":false,"gear":0},"transform":{"location":{"x":-88.16853332519531,"y":12.909740447998047,"z":-0.005347786005586386},"rotation":{"pitch":0.15441690385341644,"yaw":-177.7762908935547,"roll":-0.090545654296875}},"velocity":{"x":-3.349789619445801,"y":-0.359321653842926,"z":0.021397313103079796},"angular_velocity":{"x":3.1133201122283936,"y":-1.279358983039856,"z":6.764570236206055},"acceleration":{"x":-8.557791709899902,"y":0.5910032987594604,"z":-1.525762677192688},"speed_mps":3.3690741147198424,"speed_kph":12.128666812991433,"speed_limit_kph":30.0,"collisions_this_frame":[],"waypoint":{"x":-88.16861724853516,"y":12.939001083374023,"z":0.0},"lane_deviation_m":0.02974543161690235,"lane_width":3.5,"goal":{"x":45.76567459106445,"y":137.4599609375,"z":0.6000009179115295},"fault":{"name":"degraded_brake_pads","severity":1.0},"capture_flags":{"save_rgb":true,"save_depth":false,"video_rgb":true,"video_depth":false}}
{"frame":14829,"timestamp":{"delta_seconds":0.05000000074505806,"elapsed_seconds":143.33263113349676},"control":{"throttle":1.0,"steer":0.125,"brake":0.0,"hand_brake":false,"reverse":false,"manual_gear_shift":false,"gear":0},"transform":{"location":{"x":-88.34733581542969,"y":12.891984939575195,"z":-0.00391742680221796},"rotation":{"pitch":0.1153140738606453,"yaw":-177.34361267089844,"roll":-0.0315856896340847}},"velocity":{"x":-3.7296595573425293,"y":-0.44847914576530457,"z":0.02471417374908924},"angular_velocity":{"x":0.5008626580238342,"y":-0.4720262289047241,"z":9.583085060119629},"acceleration":{"x":-7.59739875793457,"y":-1.7831498384475708,"z":0.0663372129201889},"speed_mps":3.7566081440904835,"speed_kph":13.523789318725742,"speed_limit_kph":30.0,"collisions_this_frame":[],"waypoint":{"x":-88.34746551513672,"y":12.93850326538086,"z":0.0},"lane_deviation_m":0.046683162450790405,"lane_width":3.5,"goal":{"x":45.76567459106445,"y":137.4599609375,"z":0.6000009179115295},"fault":{"name":"degraded_brake_pads","severity":1.0},"capture_flags":{"save_rgb":true,"save_depth":false,"video_rgb":true,"video_depth":false}}
{"frame":14830,"timestamp":{"delta_seconds":0.05000000074505806,"elapsed_seconds":143.38263113424182},"control":{"throttle":1.0,"steer":0.07800000160932541,"brake":0.0,"hand_brake":false,"reverse":false,"manual_gear_shift":false,"gear":0},"transform":{"location":{"x":-88.54481506347656,"y":12.87039852142334,"z":-0.002651328919455409},"rotation":{"pitch":0.10136000066995621,"yaw":-176.82701110839844,"roll":-0.0248718224465847}},"velocity":{"x":-4.092092514038086,"y":-0.5233180522918701,"z":0.022586669772863388},"angular_velocity":{"x":0.013873692601919174,"y":-0.17942847311496735,"z":10.755876541137695},"acceleration":{"x":-7.248659133911133,"y":-1.496778130531311,"z":-0.04255007952451706},"speed_mps":4.12548095195609,"speed_kph":14.851731427041926,"speed_limit_kph":30.0,"collisions_this_frame":[],"waypoint":{"x":-88.54500579833984,"y":12.93795394897461,"z":0.0},"lane_deviation_m":0.06760770827531815,"lane_width":3.5,"goal":{"x":45.76567459106445,"y":137.4599609375,"z":0.6000009179115295},"fault":{"name":"degraded_brake_pads","severity":1.0},"capture_flags":{"save_rgb":true,"save_depth":false,"video_rgb":true,"video_depth":false}}
{"frame":14831,"timestamp":{"delta_seconds":0.05000000074505806,"elapsed_seconds":143.43263113498688},"control":{"throttle":1.0,"steer":0.12399999797344208,"brake":0.0,"hand_brake":false,"reverse":false,"manual_gear_shift":false,"gear":0},"transform":{"location":{"x":-88.76009368896484,"y":12.845163345336914,"z":-0.0016064452938735485},"rotation":{"pitch":0.09599146991968155,"yaw":-176.2646942138672,"roll":-0.02780151180922985}},"velocity":{"x":-4.441491603851318,"y":-0.6026505827903748,"z":0.01861611381173134},"angular_velocity":{"x":-0.07918953150510788,"y":-0.0796615332365036,"z":11.575257301330566},"acceleration":{"x":-6.987981796264648,"y":-1.5866506099700928,"z":-0.07941111922264099},"speed_mps":4.482229573740371,"speed_kph":16.136026465465335,"speed_limit_kph":30.0,"collisions_this_frame":[],"waypoint":{"x":-88.76117706298828,"y":12.937352180480957,"z":0.0},"lane_deviation_m":0.09220919758081436,"lane_width":3.5,"goal":{"x":45.76567459106445,"y":137.4599609375,"z":0.6000009179115295},"fault":{"name":"degraded_brake_pads","severity":1.0},"capture_flags":{"save_rgb":true,"save_depth":false,"video_rgb":true,"video_depth":false}}
{"frame":14832,"timestamp":{"delta_seconds":0.05000000074505806,"elapsed_seconds":143.48263113573194},"control":{"throttle":1.0,"steer":0.12800000607967377,"brake":0.0,"hand_brake":false,"reverse":false,"manual_gear_shift":false,"gear":0},"transform":{"location":{"x":-88.99256896972656,"y":12.815640449523926,"z":-0.0007862853817641735},"rotation":{"pitch":0.09342332184314728,"yaw":-175.64987182617188,"roll":-0.0337829552590847}},"velocity":{"x":-4.779697418212891,"y":-0.7006838321685791,"z":0.014468593522906303},"angular_velocity":{"x":-0.12108338624238968,"y":-0.0498196966946125,"z":12.710678100585938},"acceleration":{"x":-6.764116287231445,"y":-1.960664987564087,"z":-0.0829504057765007},"speed_mps":4.830804755165742,"speed_kph":17.390897118596673,"speed_limit_kph":30.0,"collisions_this_frame":[],"waypoint":{"x":-88.99398803710938,"y":12.936705589294434,"z":0.0},"lane_deviation_m":0.12107601016759872,"lane_width":3.5,"goal":{"x":45.76567459106445,"y":137.4599609375,"z":0.6000009179115295},"fault":{"name":"degraded_brake_pads","severity":1.0},"capture_flags":{"save_rgb":true,"save_depth":false,"video_rgb":true,"video_depth":false}}
{"frame":14833,"timestamp":{"delta_seconds":0.05000000074505806,"elapsed_seconds":143.532631136477},"control":{"throttle":1.0,"steer":0.1979999989271164,"brake":0.0,"hand_brake":false,"reverse":false,"manual_gear_shift":false,"gear":0},"transform":{"location":{"x":-89.24079895019531,"y":12.77826976776123,"z":-3.929138074454386e-06},"rotation":{"pitch":0.09092347323894501,"yaw":-174.8292236328125,"roll":-0.0575866624712944}},"velocity":{"x":-5.072936534881592,"y":-0.9378816485404968,"z":0.017823351547122},"angular_velocity":{"x":-0.5999431610107422,"y":-0.10894635319709778,"z":18.853538513183594},"acceleration":{"x":-5.864782333374023,"y":-4.743956565856934,"z":0.06709516048431396},"speed_mps":5.158936396726157,"speed_kph":18.572171028214164,"speed_limit_kph":30.0,"collisions_this_frame":[],"waypoint":{"x":-89.24263763427734,"y":12.936014175415039,"z":0.0},"lane_deviation_m":0.15775512158870697,"lane_width":3.5,"goal":{"x":45.76567459106445,"y":137.4599609375,"z":0.6000009179115295},"fault":{"name":"degraded_brake_pads","severity":1.0},"capture_flags":{"save_rgb":true,"save_depth":false,"video_rgb":true,"video_depth":false}}
{"frame":14834,"timestamp":{"delta_seconds":0.05000000074505806,"elapsed_seconds":143.58263113722205},"control":{"throttle":1.0,"steer":0.17000000178813934,"brake":0.0,"hand_brake":false,"reverse":false,"manual_gear_shift":false,"gear":0},"transform":{"location":{"x":-89.50457763671875,"y":12.73306655883789,"z":0.0006391906645148993},"rotation":{"pitch":0.08904517441987991,"yaw":-173.8926544189453,"roll":-0.0682983249425888}},"velocity":{"x":-5.38028621673584,"y":-1.0601798295974731,"z":0.009855718351900578},"angular_velocity":{"x":-0.07040535658597946,"y":-0.059314146637916565,"z":18.018455505371094},"acceleration":{"x":-6.146993637084961,"y":-2.4459636211395264,"z":-0.15935266017913818},"speed_mps":5.483754022589563,"speed_kph":19.74151448132243,"speed_limit_kph":30.0,"collisions_this_frame":[],"waypoint":{"x":-89.50692749023438,"y":12.935279846191406,"z":0.0},"lane_deviation_m":0.20222795009613037,"lane_width":3.5,"goal":{"x":45.76567459106445,"y":137.4599609375,"z":0.6000009179115295},"fault":{"name":"degraded_brake_pads","severity":1.0},"capture_flags":{"save_rgb":true,"save_depth":false,"video_rgb":true,"video_depth":false}}
{"frame":14835,"timestamp":{"delta_seconds":0.05000000074505806,"elapsed_seconds":143.6326311379671},"control":{"throttle":1.0,"steer":0.07900000363588333,"brake":0.0,"hand_brake":false,"reverse":false,"manual_gear_shift":false,"gear":0},"transform":{"location":{"x":-89.77972412109375,"y":12.686660766601562,"z":0.0010326766641810536},"rotation":{"pitch":0.08237207680940628,"yaw":-173.14805603027344,"roll":-0.0471191368997097}},"velocity":{"x":-5.605469703674316,"y":-1.0057443380355835,"z":0.005586958024650812},"angular_velocity":{"x":0.43902868032455444,"y":-0.033649325370788574,"z":13.106528282165527},"acceleration":{"x":-4.503669738769531,"y":1.088709831237793,"z":-0.08537520468235016},"speed_mps":5.694984063753052,"speed_kph":20.50194262951099,"speed_limit_kph":30.0,"collisions_this_frame":[],"waypoint":{"x":-89.78260040283203,"y":12.934514045715332,"z":0.0},"lane_deviation_m":0.24787211418151855,"lane_width":3.5,"goal":{"x":45.76567459106445,"y":137.4599609375,"z":0.6000009179115295},"fault":{"name":"degraded_brake_pads","severity":1.0},"capture_flags":{"save_rgb":true,"save_depth":false,"video_rgb":true,"video_depth":false}}
{"frame":14836,"timestamp":{"delta_seconds":0.05000000074505806,"elapsed_seconds":143.68263113871217},"control":{"throttle":1.0,"steer":0.05900000035762787,"brake":0.0,"hand_brake":false,"reverse":false,"manual_gear_shift":false,"gear":0},"transform":{"location":{"x":-90.06407165527344,"y":12.640764236450195,"z":0.0012834548251703382},"rotation":{"pitch":0.07435343414545059,"yaw":-172.6890106201172,"roll":-0.0261535607278347}},"velocity":{"x":-5.770300388336182,"y":-0.9721576571464539,"z":0.003253354923799634},"angular_velocity":{"x":0.3411123752593994,"y":-0.07574396580457687,"z":6.43683385848999},"acceleration":{"x":-3.2966136932373047,"y":0.6717336177825928,"z":-0.04667206108570099},"speed_mps":5.851620943490738,"speed_kph":21.065835396566655,"speed_limit_kph":30.0,"collisions_this_frame":[],"waypoint":{"x":-90.06747436523438,"y":12.933722496032715,"z":0.0},"lane_deviation_m":0.292980819940567,"lane_width":3.5,"goal":{"x":45.76567459106445,"y":137.4599609375,"z":0.6000009179115295},"fault":{"name":"degraded_brake_pads","severity":1.0},"capture_flags":{"save_rgb":true,"save_depth":false,"video_rgb":true,"video_depth":false}}
{"frame":14837,"timestamp":{"delta_seconds":0.05000000074505806,"elapsed_seconds":143.73263113945723},"control":{"throttle":1.0,"steer":0.017999999225139618,"brake":0.0,"hand_brake":false,"reverse":false,"manual_gear_shift":false,"gear":0},"transform":{"location":{"x":-90.36341857910156,"y":12.595648765563965,"z":0.0014054107014089823},"rotation":{"pitch":0.07405290752649307,"yaw":-172.3898468017578,"roll":-0.006042479071766138}},"velocity":{"x":-6.11407995223999,"y":-0.9304635524749756,"z":0.0019399928860366344},"angular_velocity":{"x":0.3190246522426605,"y":0.04904722049832344,"z":4.318915843963623},"acceleration":{"x":-6.875591278076172,"y":0.8338820934295654,"z":-0.026267241686582565},"speed_mps":6.184475713303409,"speed_kph":22.264112567892273,"speed_limit_kph":30.0,"collisions_this_frame":[],"waypoint":{"x":-90.3673324584961,"y":12.932889938354492,"z":0.0},"lane_deviation_m":0.33726680278778076,"lane_width":3.5,"goal":{"x":45.76567459106445,"y":137.4599609375,"z":0.6000009179115295},"fault":{"name":"degraded_brake_pads","severity":1.0},"capture_flags":{"save_rgb":true,"save_depth":false,"video_rgb":true,"video_depth":false}}
{"frame":14838,"timestamp":{"delta_seconds":0.05000000074505806,"elapsed_seconds":143.78263114020228},"control":{"throttle":1.0,"steer":0.12300000339746475,"brake":0.0,"hand_brake":false,"reverse":false,"manual_gear_shift":false,"gear":0},"transform":{"location":{"x":-90.67558288574219,"y":12.549891471862793,"z":0.0014929580502212048},"rotation":{"pitch":0.07157354801893234,"yaw":-172.2133331298828,"roll":0.001204950618557632}},"velocity":{"x":-6.350291728973389,"y":-0.9482858180999756,"z":0.001192769967019558},"angular_velocity":{"x":0.0592278353869915,"y":-0.02284688502550125,"z":3.3296985626220703},"acceleration":{"x":-4.724235534667969,"y":-0.3564453125,"z":-0.01494445838034153},"speed_mps":6.420704981431366,"speed_kph":23.114537933152917,"speed_limit_kph":30.0,"collisions_this_frame":[],"waypoint":{"x":-90.68846130371094,"y":12.916160583496094,"z":0.0},"lane_deviation_m":0.36649850010871887,"lane_width":3.5,"goal":{"x":45.76567459106445,"y":137.4599609375,"z":0.6000009179115295},"fault":{"name":"degraded_brake_pads","severity":1.0},"capture_flags":{"save_rgb":true,"save_depth":false,"video_rgb":true,"video_depth":false}}
{"frame":14839,"timestamp":{"delta_seconds":0.05000000074505806,"elapsed_seconds":143.83263114094734},"control":{"throttle":1.0,"steer":-0.0010000000474974513,"brake":0.0,"hand_brake":false,"reverse":false,"manual_gear_shift":false,"gear":0},"transform":{"location":{"x":-91.00086975097656,"y":12.503457069396973,"z":0.0015444564633071423},"rotation":{"pitch":0.07050804048776627,"yaw":-172.12942504882812,"roll":0.00771317258477211}},"velocity":{"x":-6.613762855529785,"y":-0.9403066635131836,"z":0.0007498454651795328},"angular_velocity":{"x":0.11014070361852646,"y":0.001563783036544919,"z":0.9631087183952332},"acceleration":{"x":-5.26942253112793,"y":0.15958309173583984,"z":-0.00885848980396986},"speed_mps":6.680272172067618,"speed_kph":24.048979819443428,"speed_limit_kph":30.0,"collisions_this_frame":[],"waypoint":{"x":-90.97981262207031,"y":12.898585319519043,"z":0.0},"lane_deviation_m":0.39569196105003357,"lane_width":3.5,"goal":{"x":45.76567459106445,"y":137.4599609375,"z":0.6000009179115295},"fault":{"name":"degraded_brake_pads","severity":1.0},"capture_flags":{"save_rgb":true,"save_depth":false,"video_rgb":true,"video_depth":false}}
{"frame":14840,"timestamp":{"delta_seconds":0.05000000074505806,"elapsed_seconds":143.8826311416924},"control":{"throttle":1.0,"steer":-0.019999999552965164,"brake":0.0,"hand_brake":false,"reverse":false,"manual_gear_shift":false,"gear":0},"transform":{"location":{"x":-91.34220123291016,"y":12.456815719604492,"z":0.0015614317962899804},"rotation":{"pitch":0.0725434347987175,"yaw":-172.1801300048828,"roll":0.016495967283844948}},"velocity":{"x":-6.979919910430908,"y":-0.9265145063400269,"z":0.00048290251288563013},"angular_velocity":{"x":0.1450459510087967,"y":0.10758668184280396,"z":-2.9179906845092773},"acceleration":{"x":-7.323141098022461,"y":0.27584314346313477,"z":-0.005338858813047409},"speed_mps":7.041144176885115,"speed_kph":25.348119036786414,"speed_limit_kph":30.0,"collisions_this_frame":[],"waypoint":{"x":-91.28494262695312,"y":12.87372875213623,"z":0.0},"lane_deviation_m":0.42082950472831726,"lane_width":3.5,"goal":{"x":45.76567459106445,"y":137.4599609375,"z":0.6000009179115295},"fault":{"name":"degraded_brake_pads","severity":1.0},"capture_flags":{"save_rgb":true,"save_depth":false,"video_rgb":true,"video_depth":false}}
{"frame":14841,"timestamp":{"delta_seconds":0.05000000074505806,"elapsed_seconds":143.93263114243746},"control":{"throttle":1.0,"steer":0.029999999329447746,"brake":0.0,"hand_brake":false,"reverse":false,"manual_gear_shift":false,"gear":0},"transform":{"location":{"x":-91.70121765136719,"y":12.40964412689209,"z":0.0015579223399981856},"rotation":{"pitch":0.07633419334888458,"yaw":-172.28787231445312,"roll":0.020525213330984116}},"velocity":{"x":-7.31579065322876,"y":-0.9367914199829102,"z":0.0003128910029772669},"angular_velocity":{"x":0.027406616136431694,"y":0.06440672278404236,"z":-2.1105856895446777},"acceleration":{"x":-6.717414855957031,"y":-0.20553827285766602,"z":-0.0034002303145825863},"speed_mps":7.3755251436303615,"speed_kph":26.551890517069303,"speed_limit_kph":30.0,"collisions_this_frame":[],"waypoint":{"x":-91.725341796875,"y":12.82614517211914,"z":0.0},"lane_deviation_m":0.41720202565193176,"lane_width":3.5,"goal":{"x":45.76567459106445,"y":137.4599609375,"z":0.6000009179115295},"fault":{"name":"degraded_brake_pads","severity":1.0},"capture_flags":{"save_rgb":true,"save_depth":false,"video_rgb":true,"video_depth":false}}
{"frame":14842,"timestamp":{"delta_seconds":0.05000000074505806,"elapsed_seconds":143.98263114318252},"control":{"throttle":1.0,"steer":0.04399999976158142,"brake":0.0,"hand_brake":false,"reverse":false,"manual_gear_shift":false,"gear":0},"transform":{"location":{"x":-92.07767486572266,"y":12.357234001159668,"z":0.0015486144693568349},"rotation":{"pitch":0.08002249151468277,"yaw":-172.20848083496094,"roll":-0.0008544918964616954}},"velocity":{"x":-7.676248073577881,"y":-1.1258533000946045,"z":0.00020693778060376644},"angular_velocity":{"x":-0.4935203194618225,"y":0.024273592978715897,"z":4.227479457855225},"acceleration":{"x":-7.209148406982422,"y":-3.7812376022338867,"z":-0.0021190643310546875},"speed_mps":7.758371619306804,"speed_kph":27.930137829504496,"speed_limit_kph":30.0,"collisions_this_frame":[],"waypoint":{"x":-92.06067657470703,"y":12.780559539794922,"z":0.0},"lane_deviation_m":0.4236695170402527,"lane_width":3.5,"goal":{"x":45.76567459106445,"y":137.4599609375,"z":0.6000009179115295},"fault":{"name":"degraded_brake_pads","severity":1.0},"capture_flags":{"save_rgb":true,"save_depth":false,"video_rgb":true,"video_depth":false}}
{"frame":14843,"timestamp":{"delta_seconds":0.05000000074505806,"elapsed_seconds":144.03263114392757},"control":{"throttle":1.0,"steer":0.05400000140070915,"brake":0.0,"hand_brake":false,"reverse":false,"manual_gear_shift":false,"gear":0},"transform":{"location":{"x":-92.471435546875,"y":12.297612190246582,"z":0.0015384291764348745},"rotation":{"pitch":0.0831507220864296,"yaw":-171.92091369628906,"roll":-0.02157592959702015}},"velocity":{"x":-7.998921871185303,"y":-1.2804529666900635,"z":0.00013801574823446572},"angular_velocity":{"x":-0.3239051103591919,"y":-0.0035515548661351204,"z":6.725541114807129},"acceleration":{"x":-6.4534759521484375,"y":-3.0919933319091797,"z":-0.0013784406473860145},"speed_mps":8.100759897705913,"speed_kph":29.16273563174129,"speed_limit_kph":30.0,"collisions_this_frame":[],"waypoint":{"x":-92.52948760986328,"y":12.703108787536621,"z":0.0},"lane_deviation_m":0.4096338748931885,"lane_width":3.5,"goal":{"x":45.76567459106445,"y":137.4599609375,"z":0.6000009179115295},"fault":{"name":"degraded_brake_pads","severity":1.0},"capture_flags":{"save_rgb":true,"save_depth":false,"video_rgb":true,"video_depth":false}}
{"frame":14844,"timestamp":{"delta_seconds":0.05000000074505806,"elapsed_seconds":144.08263114467263},"control":{"throttle":1.0,"steer":0.09600000083446503,"brake":0.0,"hand_brake":false,"reverse":false,"manual_gear_shift":false,"gear":0},"transform":{"location":{"x":-92.88211822509766,"y":12.22901725769043,"z":0.0015298080397769809},"rotation":{"pitch":0.08560275286436081,"yaw":-171.39341735839844,"roll":-0.047607421875}},"velocity":{"x":-8.344137191772461,"y":-1.52657949924469,"z":9.350776235805824e-05},"angular_velocity":{"x":-0.5329881906509399,"y":-0.022298378869891167,"z":12.406649589538574},"acceleration":{"x":-6.904306411743164,"y":-4.922530651092529,"z":-0.0008901597466319799},"speed_mps":8.482633462043394,"speed_kph":30.537480463356218,"speed_limit_kph":30.0,"collisions_this_frame":[],"waypoint":{"x":-92.8930892944336,"y":12.631869316101074,"z":0.0},"lane_deviation_m":0.40300434827804565,"lane_width":3.5,"goal":{"x":45.76567459106445,"y":137.4599609375,"z":0.6000009179115295},"fault":{"name":"degraded_brake_pads","severity":1.0},"capture_flags":{"save_rgb":true,"save_depth":false,"video_rgb":true,"video_depth":false}}
{"frame":14845,"timestamp":{"delta_seconds":0.05000000074505806,"elapsed_seconds":144.1326311454177},"control":{"throttle":1.0,"steer":0.164000004529953,"brake":0.0,"hand_brake":false,"reverse":false,"manual_gear_shift":false,"gear":0},"transform":{"location":{"x":-93.3094482421875,"y":12.15060043334961,"z":0.0015225982060655951},"rotation":{"pitch":0.08747422695159912,"yaw":-170.6691436767578,"roll":-0.0667724534869194}},"velocity":{"x":-8.662138938903809,"y":-1.7291229963302612,"z":6.146430678199977e-05},"angular_velocity":{"x":-0.2920149862766266,"y":-0.02111305296421051,"z":15.400602340698242},"acceleration":{"x":-6.360034942626953,"y":-4.050869941711426,"z":-0.000640869140625},"speed_mps":8.833035567520918,"speed_kph":31.798928043075307,"speed_limit_kph":30.0,"collisions_this_frame":[],"waypoint":{"x":-93.38597106933594,"y":12.51943302154541,"z":0.0},"lane_deviation_m":0.3766902685165405,"lane_width":3.5,"goal":{"x":45.76567459106445,"y":137.4599609375,"z":0.6000009179115295},"fault":{"name":"degraded_brake_pads","severity":1.0},"capture_flags":{"save_rgb":true,"save_depth":false,"video_rgb":true,"video_depth":false}}
{"frame":14846,"timestamp":{"delta_seconds":0.05000000074505806,"elapsed_seconds":144.18263114616275},"control":{"throttle":1.0,"steer":-0.006000000052154064,"brake":0.0,"hand_brake":false,"reverse":false,"manual_gear_shift":false,"gear":0},"transform":{"location":{"x":-93.75572204589844,"y":12.068612098693848,"z":0.001510086003690958},"rotation":{"pitch":0.09002871811389923,"yaw":-170.18089294433594,"roll":-0.0438232384622097}},"velocity":{"x":-9.085594177246094,"y":-1.676289677619934,"z":4.2734143789857626e-05},"angular_velocity":{"x":0.6149162650108337,"y":0.1727583408355713,"z":6.157369136810303},"acceleration":{"x":-8.469104766845703,"y":1.056666374206543,"z":-0.0003746032598428428},"speed_mps":9.238937635828563,"speed_kph":33.26017548898283,"speed_limit_kph":30.0,"collisions_this_frame":[],"waypoint":{"x":-93.77554321289062,"y":12.41736888885498,"z":0.0},"lane_deviation_m":0.3493228554725647,"lane_width":3.5,"goal":{"x":45.76567459106445,"y":137.4599609375,"z":0.6000009179115295},"fault":{"name":"degraded_brake_pads","severity":1.0},"capture_flags":{"save_rgb":true,"save_depth":false,"video_rgb":true,"video_depth":false}}
{"frame":14847,"timestamp":{"delta_seconds":0.05000000074505806,"elapsed_seconds":144.2326311469078},"control":{"throttle":1.0,"steer":0.014999999664723873,"brake":0.0,"hand_brake":false,"reverse":false,"manual_gear_shift":false,"gear":0},"transform":{"location":{"x":-94.22196197509766,"y":11.984271049499512,"z":0.0014947891468182206},"rotation":{"pitch":0.0929383784532547,"yaw":-169.93841552734375,"roll":-0.02880859188735485}},"velocity":{"x":-9.473739624023438,"y":-1.747859001159668,"z":3.1747818866278976e-05},"angular_velocity":{"x":0.15472188591957092,"y":0.07716812193393707,"z":4.261510372161865},"acceleration":{"x":-7.762908935546875,"y":-1.4313864707946777,"z":-0.000219726498471573},"speed_mps":9.633626189173759,"speed_kph":34.68105428102553,"speed_limit_kph":30.0,"collisions_this_frame":[],"waypoint":{"x":-94.28762817382812,"y":12.265008926391602,"z":0.0},"lane_deviation_m":0.28831931948661804,"lane_width":3.5,"goal":{"x":45.76567459106445,"y":137.4599609375,"z":0.6000009179115295},"fault":{"name":"degraded_brake_pads","severity":1.0},"capture_flags":{"save_rgb":true,"save_depth":false,"video_rgb":true,"video_depth":false}}
{"frame":14848,"timestamp":{"delta_seconds":0.05000000074505806,"elapsed_seconds":144.28263114765286},"control":{"throttle":0.0,"steer":-0.04100000113248825,"brake":0.0,"hand_brake":false,"reverse":false,"manual_gear_shift":false,"gear":0},"transform":{"location":{"x":-94.70745849609375,"y":11.899767875671387,"z":0.0014893722254782915},"rotation":{"pitch":0.09408584982156754,"yaw":-169.97503662109375,"roll":-0.0016174321062862873}},"velocity":{"x":-9.85489273071289,"y":-1.6611292362213135,"z":2.1877287508687004e-05},"angular_velocity":{"x":0.5338252782821655,"y":0.09061484783887863,"z":-3.2416458129882812},"acceleration":{"x":-7.6230621337890625,"y":1.7345952987670898,"z":-0.00019741062715183944},"speed_mps":9.993911200014017,"speed_kph":35.97808032005046,"speed_limit_kph":30.0,"collisions_this_frame":[],"waypoint":{"x":-94.69890594482422,"y":12.127239227294922,"z":0.0},"lane_deviation_m":0.22763694822788239,"lane_width":3.5,"goal":{"x":45.76567459106445,"y":137.4599609375,"z":0.6000009179115295},"fault":{"name":"degraded_brake_pads","severity":1.0},"capture_flags":{"save_rgb":true,"save_depth":false,"video_rgb":true,"video_depth":false}}
{"frame":14849,"timestamp":{"delta_seconds":0.05000000074505806,"elapsed_seconds":144.33263114839792},"control":{"throttle":0.8821946978569031,"steer":-0.16500000655651093,"brake":0.0,"hand_brake":false,"reverse":false,"manual_gear_shift":false,"gear":0},"transform":{"location":{"x":-95.20856475830078,"y":11.821650505065918,"z":0.0015142059419304132},"rotation":{"pitch":0.08999456465244293,"yaw":-170.4884033203125,"roll":0.04689610004425049}},"velocity":{"x":-10.140583038330078,"y":-1.3739571571350098,"z":1.5239715139614418e-05},"angular_velocity":{"x":1.2424418926239014,"y":0.07965810596942902,"z":-15.92207145690918},"acceleration":{"x":-5.71380615234375,"y":5.743441581726074,"z":-0.00013275144738145173},"speed_mps":10.233239107298454,"speed_kph":36.839660786274436,"speed_limit_kph":30.0,"collisions_this_frame":[],"waypoint":{"x":-95.21315002441406,"y":11.934967041015625,"z":0.0},"lane_deviation_m":0.11341937631368637,"lane_width":3.5,"goal":{"x":45.76567459106445,"y":137.4599609375,"z":0.6000009179115295},"fault":{"name":"degraded_brake_pads","severity":1.0},"capture_flags":{"save_rgb":true,"save_depth":false,"video_rgb":true,"video_depth":false}}
{"frame":14850,"timestamp":{"delta_seconds":0.05000000074505806,"elapsed_seconds":144.38263114914298},"control":{"throttle":0.8321946859359741,"steer":-0.07999999821186066,"brake":0.0,"hand_brake":false,"reverse":false,"manual_gear_shift":false,"gear":0},"transform":{"location":{"x":-95.72279357910156,"y":11.751246452331543,"z":0.0015491485828533769},"rotation":{"pitch":0.08414109796285629,"yaw":-171.3306884765625,"roll":0.07287177443504333}},"velocity":{"x":-10.405448913574219,"y":-1.2839099168777466,"z":8.897781299310736e-06},"angular_velocity":{"x":0.2604575455188751,"y":-0.07096091657876968,"z":-16.885530471801758},"acceleration":{"x":-5.2973175048828125,"y":1.8009448051452637,"z":-0.00012683868408203125},"speed_mps":10.484359387570567,"speed_kph":37.743693795254046,"speed_limit_kph":30.0,"collisions_this_frame":[],"waypoint":{"x":-95.62674713134766,"y":11.763572692871094,"z":0.0},"lane_deviation_m":0.0968465581536293,"lane_width":3.5,"goal":{"x":45.76567459106445,"y":137.4599609375,"z":0.6000009179115295},"fault":{"name":"degraded_brake_pads","severity":1.0},"capture_flags":{"save_rgb":true,"save_depth":false,"video_rgb":true,"video_depth":false}}
{"frame":14851,"timestamp":{"delta_seconds":0.05000000074505806,"elapsed_seconds":144.43263114988804},"control":{"throttle":0.0,"steer":-0.12099999934434891,"brake":1.0,"hand_brake":false,"reverse":false,"manual_gear_shift":false,"gear":0},"transform":{"location":{"x":-96.24906921386719,"y":11.688016891479492,"z":0.0015886687906458974},"rotation":{"pitch":0.07744751125574112,"yaw":-172.3135528564453,"roll":0.09660185128450394}},"velocity":{"x":-10.619237899780273,"y":-1.065431833267212,"z":1.573562599332945e-06},"angular_velocity":{"x":0.5189201235771179,"y":-0.09036765992641449,"z":-21.18331527709961},"acceleration":{"x":-4.275779724121094,"y":4.369561672210693,"z":-0.00014648436626885086},"speed_mps":10.672551642576922,"speed_kph":38.42118591327692,"speed_limit_kph":30.0,"collisions_this_frame":[],"waypoint":{"x":-96.12060546875,"y":11.538455963134766,"z":0.0},"lane_deviation_m":0.19716472923755646,"lane_width":3.5,"goal":{"x":45.76567459106445,"y":137.4599609375,"z":0.6000009179115295},"fault":{"name":"degraded_brake_pads","severity":1.0},"capture_flags":{"save_rgb":true,"save_depth":false,"video_rgb":true,"video_depth":false}}
{"frame":14852,"timestamp":{"delta_seconds":0.05000000074505806,"elapsed_seconds":144.4826311506331},"control":{"throttle":0.0,"steer":-0.16599999368190765,"brake":1.0,"hand_brake":false,"reverse":false,"manual_gear_shift":false,"gear":0},"transform":{"location":{"x":-96.78177642822266,"y":11.634920120239258,"z":0.0016567229758948088},"rotation":{"pitch":0.06590449064970016,"yaw":-173.45277404785156,"roll":0.11747744679450989}},"velocity":{"x":-10.682332992553711,"y":-0.8432545065879822,"z":5.054473604104714e-07},"angular_velocity":{"x":0.3950295150279999,"y":-0.2430505007505417,"z":-23.90111541748047},"acceleration":{"x":-1.26190185546875,"y":4.443546295166016,"z":-2.136230432370212e-05},"speed_mps":10.71556420944239,"speed_kph":38.5760311539926,"speed_limit_kph":30.0,"collisions_this_frame":[],"waypoint":{"x":-96.58904266357422,"y":11.303319931030273,"z":0.0},"lane_deviation_m":0.38354626297950745,"lane_width":3.5,"goal":{"x":45.76567459106445,"y":137.4599609375,"z":0.6000009179115295},"fault":{"name":"degraded_brake_pads","severity":1.0},"capture_flags":{"save_rgb":true,"save_depth":false,"video_rgb":true,"video_depth":false}}
{"frame":14853,"timestamp":{"delta_seconds":0.05000000074505806,"elapsed_seconds":144.53263115137815},"control":{"throttle":0.0,"steer":-0.09700000286102295,"brake":1.0,"hand_brake":false,"reverse":false,"manual_gear_shift":false,"gear":0},"transform":{"location":{"x":-97.31237030029297,"y":11.590619087219238,"z":0.0017625045729801059},"rotation":{"pitch":0.047852303832769394,"yaw":-174.55337524414062,"roll":0.12061343342065811}},"velocity":{"x":-10.570789337158203,"y":-0.6994631886482239,"z":2.460479663568549e-06},"angular_velocity":{"x":0.005875803530216217,"y":-0.41091689467430115,"z":-21.111337661743164},"acceleration":{"x":2.2308731079101562,"y":2.875826358795166,"z":3.910064697265625e-05},"speed_mps":10.593905604773791,"speed_kph":38.13806017718565,"speed_limit_kph":30.0,"collisions_this_frame":[],"waypoint":{"x":-96.96771240234375,"y":11.09703254699707,"z":0.0},"lane_deviation_m":0.6020131707191467,"lane_width":3.5,"goal":{"x":45.76567459106445,"y":137.4599609375,"z":0.6000009179115295},"fault":{"name":"degraded_brake_pads","severity":1.0},"capture_flags":{"save_rgb":true,"save_depth":false,"video_rgb":true,"video_depth":false}}
{"frame":14854,"timestamp":{"delta_seconds":0.05000000074505806,"elapsed_seconds":144.5826311521232},"control":{"throttle":0.0,"steer":-0.11800000071525574,"brake":1.0,"hand_brake":false,"reverse":false,"manual_gear_shift":false,"gear":0},"transform":{"location":{"x":-97.83477020263672,"y":11.556118965148926,"z":0.0018886184552684426},"rotation":{"pitch":0.026412339881062508,"yaw":-175.66326904296875,"roll":0.12821350991725922}},"velocity":{"x":-10.381500244140625,"y":-0.4709473252296448,"z":1.535415663056483e-06},"angular_velocity":{"x":0.24160800874233246,"y":-0.40856504440307617,"z":-22.73360824584961},"acceleration":{"x":3.7857818603515625,"y":4.570317268371582,"z":-1.8501279555493966e-05},"speed_mps":10.392176802876055,"speed_kph":37.4118364903538,"speed_limit_kph":30.0,"collisions_this_frame":[],"waypoint":{"x":-97.93289184570312,"y":12.212381362915039,"z":0.0},"lane_deviation_m":0.6635599136352539,"lane_width":3.5,"goal":{"x":45.76567459106445,"y":137.4599609375,"z":0.6000009179115295},"fault":{"name":"degraded_brake_pads","severity":1.0},"capture_flags":{"save_rgb":true,"save_depth":false,"video_rgb":true,"video_depth":false}}
{"frame":14855,"timestamp":{"delta_seconds":0.05000000074505806,"elapsed_seconds":144.63263115286827},"control":{"throttle":0.5821946859359741,"steer":-0.05999999865889549,"brake":0.0,"hand_brake":false,"reverse":false,"manual_gear_shift":false,"gear":0},"transform":{"location":{"x":-98.34606170654297,"y":11.528677940368652,"z":0.0020058059599250555},"rotation":{"pitch":0.006406717002391815,"yaw":-176.60374450683594,"roll":0.11612353473901749}},"velocity":{"x":-10.145895957946777,"y":-0.4070112109184265,"z":6.4182281676039565e-06},"angular_velocity":{"x":-0.28209999203681946,"y":-0.3898729681968689,"z":-16.73248863220215},"acceleration":{"x":4.712085723876953,"y":1.2787222862243652,"z":9.765624417923391e-05},"speed_mps":10.154056475878752,"speed_kph":36.55460331316351,"speed_limit_kph":30.0,"collisions_this_frame":[],"waypoint":{"x":-98.47029876708984,"y":12.038893699645996,"z":0.0},"lane_deviation_m":0.5251275897026062,"lane_width":3.5,"goal":{"x":45.76567459106445,"y":137.4599609375,"z":0.6000009179115295},"fault":{"name":"degraded_brake_pads","severity":1.0},"capture_flags":{"save_rgb":true,"save_depth":false,"video_rgb":true,"video_depth":false}}
{"frame":14856,"timestamp":{"delta_seconds":0.05000000074505806,"elapsed_seconds":144.68263115361333},"control":{"throttle":0.5321947336196899,"steer":-0.10400000214576721,"brake":0.0,"hand_brake":false,"reverse":false,"manual_gear_shift":false,"gear":0},"transform":{"location":{"x":-98.84854888916016,"y":11.509560585021973,"z":0.002085571177303791},"rotation":{"pitch":-0.007144377566874027,"yaw":-177.49441528320312,"roll":0.12043707817792892}},"velocity":{"x":-10.009539604187012,"y":-0.19033807516098022,"z":8.106231348392612e-07},"angular_velocity":{"x":0.23325751721858978,"y":-0.18623173236846924,"z":-18.66707420349121},"acceleration":{"x":2.7271270751953125,"y":4.333462715148926,"z":-0.00011215210543014109},"speed_mps":10.011349143379473,"speed_kph":36.040856916166106,"speed_limit_kph":30.0,"collisions_this_frame":[],"waypoint":{"x":-98.97888946533203,"y":11.855674743652344,"z":0.0},"lane_deviation_m":0.3698486387729645,"lane_width":3.5,"goal":{"x":45.76567459106445,"y":137.4599609375,"z":0.6000009179115295},"fault":{"name":"degraded_brake_pads","severity":1.0},"capture_flags":{"save_rgb":true,"save_depth":false,"video_rgb":true,"video_depth":false}}
{"frame":14857,"timestamp":{"delta_seconds":0.05000000074505806,"elapsed_seconds":144.7326311543584},"control":{"throttle":0.482194721698761,"steer":-0.11699999868869781,"brake":0.0,"hand_brake":false,"reverse":false,"manual_gear_shift":false,"gear":0},"transform":{"location":{"x":-99.34581756591797,"y":11.50101089477539,"z":0.002123031532391906},"rotation":{"pitch":-0.013489622622728348,"yaw":-178.4873809814453,"roll":0.13252782821655273}},"velocity":{"x":-9.91580581665039,"y":0.028426891192793846,"z":-1.5068053471622989e-06},"angular_velocity":{"x":0.18859191238880157,"y":-0.08580296486616135,"z":-20.431989669799805},"acceleration":{"x":1.8746757507324219,"y":4.375299453735352,"z":-4.634857032215223e-05},"speed_mps":9.915846564043983,"speed_kph":35.69704763055834,"speed_limit_kph":30.0,"collisions_this_frame":[],"waypoint":{"x":-99.36935424804688,"y":11.702016830444336,"z":0.0},"lane_deviation_m":0.2023903876543045,"lane_width":3.5,"goal":{"x":45.76567459106445,"y":137.4599609375,"z":0.6000009179115295},"fault":{"name":"degraded_brake_pads","severity":1.0},"capture_flags":{"save_rgb":true,"save_depth":false,"video_rgb":true,"video_depth":false}}
{"frame":14858,"timestamp":{"delta_seconds":0.05000000074505806,"elapsed_seconds":144.78263115510345},"control":{"throttle":0.43219470977783203,"steer":0.03200000151991844,"brake":0.0,"hand_brake":false,"reverse":false,"manual_gear_shift":false,"gear":0},"transform":{"location":{"x":-99.84041595458984,"y":11.495226860046387,"z":0.0021298599895089865},"rotation":{"pitch":-0.014739547856152058,"yaw":-179.16458129882812,"roll":0.09765943139791489}},"velocity":{"x":-9.87844467163086,"y":-0.10115127265453339,"z":8.22067249828251e-06},"angular_velocity":{"x":-1.0575636625289917,"y":-0.011669671162962914,"z":-7.990330696105957},"acceleration":{"x":0.747222900390625,"y":-2.5915632247924805,"z":0.000194549560546875},"speed_mps":9.8789625320931,"speed_kph":35.56426511553516,"speed_limit_kph":30.0,"collisions_this_frame":[],"waypoint":{"x":-99.83261108398438,"y":11.504566192626953,"z":0.0},"lane_deviation_m":0.012356190010905266,"lane_width":3.5,"goal":{"x":45.76567459106445,"y":137.4599609375,"z":0.6000009179115295},"fault":{"name":"degraded_brake_pads","severity":1.0},"capture_flags":{"save_rgb":true,"save_depth":false,"video_rgb":true,"video_depth":false}}
{"frame":14859,"timestamp":{"delta_seconds":0.05000000074505806,"elapsed_seconds":144.8326311558485},"control":{"throttle":0.3821946978569031,"steer":-0.020999999716877937,"brake":0.0,"hand_brake":false,"reverse":false,"manual_gear_shift":false,"gear":0},"transform":{"location":{"x":-100.33294677734375,"y":11.489542961120605,"z":0.0021274567116051912},"rotation":{"pitch":-0.01422045286744833,"yaw":-179.4935302734375,"roll":0.07447635382413864}},"velocity":{"x":-9.832321166992188,"y":-0.052155110985040665,"z":8.19206252344884e-06},"angular_velocity":{"x":-0.27413827180862427,"y":0.003947432152926922,"z":-5.840038299560547},"acceleration":{"x":0.9224700927734375,"y":0.9799232482910156,"z":-5.721994966734201e-07},"speed_mps":9.832459493257604,"speed_kph":35.39685417572738,"speed_limit_kph":30.0,"collisions_this_frame":[],"waypoint":{"x":-100.2008056640625,"y":11.335494995117188,"z":0.0},"lane_deviation_m":0.20296938717365265,"lane_width":3.5,"goal":{"x":45.76567459106445,"y":137.4599609375,"z":0.6000009179115295},"fault":{"name":"degraded_brake_pads","severity":1.0},"capture_flags":{"save_rgb":true,"save_depth":false,"video_rgb":true,"video_depth":false}}
{"frame":14860,"timestamp":{"delta_seconds":0.05000000074505806,"elapsed_seconds":144.88263115659356},"control":{"throttle":0.3321947157382965,"steer":0.1340000033378601,"brake":0.0,"hand_brake":false,"reverse":false,"manual_gear_shift":false,"gear":0},"transform":{"location":{"x":-100.82343292236328,"y":11.480392456054688,"z":0.0021231460850685835},"rotation":{"pitch":-0.013489622622728348,"yaw":-179.4171142578125,"roll":0.027369849383831024}},"velocity":{"x":-9.784353256225586,"y":-0.3086489737033844,"z":6.189346095197834e-06},"angular_velocity":{"x":-1.3114371299743652,"y":-0.006047861184924841,"z":7.5254807472229},"acceleration":{"x":0.9593582153320312,"y":-5.129877090454102,"z":-4.0054328565020114e-05},"speed_mps":9.789220236138254,"speed_kph":35.24119285009772,"speed_limit_kph":30.0,"collisions_this_frame":[],"waypoint":{"x":-100.6240005493164,"y":11.127366065979004,"z":0.0},"lane_deviation_m":0.4054693877696991,"lane_width":3.5,"goal":{"x":45.76567459106445,"y":137.4599609375,"z":0.6000009179115295},"fault":{"name":"degraded_brake_pads","severity":1.0},"capture_flags":{"save_rgb":true,"save_depth":false,"video_rgb":true,"video_depth":false}}
{"frame":14861,"timestamp":{"delta_seconds":0.05000000074505806,"elapsed_seconds":144.93263115733862},"control":{"throttle":0.28219470381736755,"steer":0.08900000154972076,"brake":0.0,"hand_brake":false,"reverse":false,"manual_gear_shift":false,"gear":0},"transform":{"location":{"x":-101.31094360351562,"y":11.463391304016113,"z":0.0021223830990493298},"rotation":{"pitch":-0.013305207714438438,"yaw":-178.87557983398438,"roll":-0.013427735306322575}},"velocity":{"x":-9.722290992736816,"y":-0.45151960849761963,"z":3.1948088690114673e-06},"angular_velocity":{"x":-0.5799975395202637,"y":-0.017386607825756073,"z":12.460638999938965},"acceleration":{"x":1.2412452697753906,"y":-2.857412815093994,"z":-5.989074270473793e-05},"speed_mps":9.732770011888675,"speed_kph":35.03797204279923,"speed_limit_kph":30.0,"collisions_this_frame":[],"waypoint":{"x":-100.9739990234375,"y":10.943656921386719,"z":0.0},"lane_deviation_m":0.6194029450416565,"lane_width":3.5,"goal":{"x":45.76567459106445,"y":137.4599609375,"z":0.6000009179115295},"fault":{"name":"degraded_brake_pads","severity":1.0},"capture_flags":{"save_rgb":true,"save_depth":false,"video_rgb":true,"video_depth":false}}
{"frame":14862,"timestamp":{"delta_seconds":0.05000000074505806,"elapsed_seconds":144.98263115808368},"control":{"throttle":0.2321947067975998,"steer":0.23499999940395355,"brake":0.0,"hand_brake":false,"reverse":false,"manual_gear_shift":false,"gear":0},"transform":{"location":{"x":-101.79463958740234,"y":11.436628341674805,"z":0.002127799903973937},"rotation":{"pitch":-0.014193132519721985,"yaw":-177.9484100341797,"roll":-0.06173704192042351}},"velocity":{"x":-9.621454238891602,"y":-0.7947114109992981,"z":-1.5258788153005298e-06},"angular_velocity":{"x":-1.2630611658096313,"y":-0.08084198087453842,"z":23.707656860351562},"acceleration":{"x":2.016735076904297,"y":-6.863836288452148,"z":-9.441375732421875e-05},"speed_mps":9.654219175980002,"speed_kph":34.755189033528005,"speed_limit_kph":30.0,"collisions_this_frame":[],"waypoint":{"x":-101.36012268066406,"y":10.728307723999023,"z":0.0},"lane_deviation_m":0.8309798836708069,"lane_width":3.5,"goal":{"x":45.76567459106445,"y":137.4599609375,"z":0.6000009179115295},"fault":{"name":"degraded_brake_pads","severity":1.0},"capture_flags":{"save_rgb":true,"save_depth":false,"video_rgb":true,"video_depth":false}}
{"frame":14863,"timestamp":{"delta_seconds":0.05000000074505806,"elapsed_seconds":145.03263115882874},"control":{"throttle":0.18219470977783203,"steer":0.3100000023841858,"brake":0.0,"hand_brake":false,"reverse":false,"manual_gear_shift":false,"gear":0},"transform":{"location":{"x":-102.27041625976562,"y":11.39171314239502,"z":0.0021516799461096525},"rotation":{"pitch":-0.01818196289241314,"yaw":-176.3605499267578,"roll":-0.131500244140625}},"velocity":{"x":-9.424869537353516,"y":-1.269217848777771,"z":-1.0795592970680445e-05},"angular_velocity":{"x":-1.3532779216766357,"y":-0.17931291460990906,"z":36.87606430053711},"acceleration":{"x":3.9316940307617188,"y":-9.490128517150879,"z":-0.0001853942812886089},"speed_mps":9.509946358624052,"speed_kph":34.23580689104659,"speed_limit_kph":30.0,"collisions_this_frame":[],"waypoint":{"x":-101.6941909790039,"y":10.530797004699707,"z":0.0},"lane_deviation_m":1.0359617471694946,"lane_width":3.5,"goal":{"x":45.76567459106445,"y":137.4599609375,"z":0.6000009179115295},"fault":{"name":"degraded_brake_pads","severity":1.0},"capture_flags":{"save_rgb":true,"save_depth":false,"video_rgb":true,"video_depth":false}}
{"frame":14864,"timestamp":{"delta_seconds":0.05000000074505806,"elapsed_seconds":145.0826311595738},"control":{"throttle":0.13219471275806427,"steer":0.054999999701976776,"brake":0.0,"hand_brake":false,"reverse":false,"manual_gear_shift":false,"gear":0},"transform":{"location":{"x":-102.73905944824219,"y":11.33323860168457,"z":0.002163963159546256},"rotation":{"pitch":-0.02034713327884674,"yaw":-174.60568237304688,"roll":-0.1446533203125}},"velocity":{"x":-9.334790229797363,"y":-1.3522107601165771,"z":-9.117125955526717e-06},"angular_velocity":{"x":0.6159172654151917,"y":0.052904341369867325,"z":29.868865966796875},"acceleration":{"x":1.8015861511230469,"y":-1.659858226776123,"z":3.356934030307457e-05},"speed_mps":9.432220447708932,"speed_kph":33.955993611752156,"speed_limit_kph":30.0,"collisions_this_frame":[],"waypoint":{"x":-102.02428436279297,"y":10.324995040893555,"z":0.0},"lane_deviation_m":1.2359057664871216,"lane_width":3.5,"goal":{"x":45.76567459106445,"y":137.4599609375,"z":0.6000009179115295},"fault":{"name":"degraded_brake_pads","severity":1.0},"capture_flags":{"save_rgb":true,"save_depth":false,"video_rgb":true,"video_depth":false}}
{"frame":14865,"timestamp":{"delta_seconds":0.05000000074505806,"elapsed_seconds":145.13263116031885},"control":{"throttle":0.8775348663330078,"steer":0.27000001072883606,"brake":0.0,"hand_brake":false,"reverse":false,"manual_gear_shift":false,"gear":0},"transform":{"location":{"x":-103.20281219482422,"y":11.269923210144043,"z":0.0021718977950513363},"rotation":{"pitch":-0.021726829931139946,"yaw":-173.2376251220703,"roll":-0.1350402683019638}},"velocity":{"x":-9.196280479431152,"y":-1.5236235857009888,"z":-5.722045557376987e-07},"angular_velocity":{"x":-0.20173323154449463,"y":-0.06939183920621872,"z":27.84385108947754},"acceleration":{"x":2.7701950073242188,"y":-3.4282565116882324,"z":0.00017089842003770173},"speed_mps":9.321641673400192,"speed_kph":33.55791002424069,"speed_limit_kph":30.0,"collisions_this_frame":[],"waypoint":{"x":-102.36127471923828,"y":10.10346794128418,"z":0.0},"lane_deviation_m":1.4383351802825928,"lane_width":3.5,"goal":{"x":45.76567459106445,"y":137.4599609375,"z":0.6000009179115295},"fault":{"name":"degraded_brake_pads","severity":1.0},"capture_flags":{"save_rgb":true,"save_depth":false,"video_rgb":true,"video_depth":false}}
