{"frame":3044,"timestamp":{"delta_seconds":0.05000000074505806,"elapsed_seconds":32.440468506887555},"control":{"throttle":0.75,"steer":0.0,"brake":0.0,"hand_brake":false,"reverse":false,"manual_gear_shift":false,"gear":0},"transform":{"location":{"x":-64.64484405517578,"y":24.471010208129883,"z":0.48239994049072266},"rotation":{"pitch":0.0,"yaw":0.15919795632362366,"roll":0.0}},"velocity":{"x":0.0,"y":0.0,"z":-1.470000147819519},"angular_velocity":{"x":0.0,"y":0.0,"z":0.0},"acceleration":{"x":0.0,"y":0.0,"z":-9.80000114440918},"speed_mps":1.470000147819519,"speed_kph":5.2920005321502686,"speed_limit_kph":30.0,"collisions_this_frame":[],"waypoint":{"x":-64.64469146728516,"y":24.504404067993164,"z":0.0},"lane_deviation_m":0.4835544228553772,"lane_width":3.5,"goal":{"x":73.63292694091797,"y":66.35848999023438,"z":0.5999999642372131},"fault":{"name":"degraded_brake_pads","severity":1.0},"capture_flags":{"save_rgb":true,"save_depth":false,"video_rgb":true,"video_depth":false}}
{"frame":3045,"timestamp":{"delta_seconds":0.05000000074505806,"elapsed_seconds":32.49046850763261},"control":{"throttle":0.75,"steer":0.0,"brake":0.0,"hand_brake":false,"reverse":false,"manual_gear_shift":false,"gear":0},"transform":{"location":{"x":-64.64484405517578,"y":24.471010208129883,"z":0.394199937582016},"rotation":{"pitch":0.0,"yaw":0.15919795632362366,"roll":0.0}},"velocity":{"x":0.0,"y":0.0,"z":-1.9600002765655518},"angular_velocity":{"x":0.0,"y":0.0,"z":0.0},"acceleration":{"x":0.0,"y":0.0,"z":-9.800003051757812},"speed_mps":1.9600002765655518,"speed_kph":7.056000995635986,"speed_limit_kph":30.0,"collisions_this_frame":[],"waypoint":{"x":-64.64469146728516,"y":24.504404067993164,"z":0.0},"lane_deviation_m":0.39561188220977783,"lane_width":3.5,"goal":{"x":73.63292694091797,"y":66.35848999023438,"z":0.5999999642372131},"fault":{"name":"degraded_brake_pads","severity":1.0},"capture_flags":{"save_rgb":true,"save_depth":false,"video_rgb":true,"video_depth":false}}
{"frame":3046,"timestamp":{"delta_seconds":0.05000000074505806,"elapsed_seconds":32.54046850837767},"control":{"throttle":0.75,"steer":0.0,"brake":0.0,"hand_brake":false,"reverse":false,"manual_gear_shift":false,"gear":0},"transform":{"location":{"x":-64.64484405517578,"y":24.471010208129883,"z":0.28150004148483276},"rotation":{"pitch":0.0,"yaw":0.15919795632362366,"roll":0.0}},"velocity":{"x":0.0,"y":0.0,"z":-2.450000286102295},"angular_velocity":{"x":0.0,"y":0.0,"z":0.0},"acceleration":{"x":0.0,"y":0.0,"z":-9.800000190734863},"speed_mps":2.450000286102295,"speed_kph":8.820001029968262,"speed_limit_kph":30.0,"collisions_this_frame":[],"waypoint":{"x":-64.64469146728516,"y":24.504404067993164,"z":0.0},"lane_deviation_m":0.2834738790988922,"lane_width":3.5,"goal":{"x":73.63292694091797,"y":66.35848999023438,"z":0.5999999642372131},"fault":{"name":"degraded_brake_pads","severity":1.0},"capture_flags":{"save_rgb":true,"save_depth":false,"video_rgb":true,"video_depth":false}}
{"frame":3047,"timestamp":{"delta_seconds":0.05000000074505806,"elapsed_seconds":32.59046850912273},"control":{"throttle":0.75,"steer":0.0,"brake":0.0,"hand_brake":false,"reverse":false,"manual_gear_shift":false,"gear":0},"transform":{"location":{"x":-64.64484405517578,"y":24.471010208129883,"z":0.1442999690771103},"rotation":{"pitch":0.0,"yaw":0.15919795632362366,"roll":0.0}},"velocity":{"x":0.0,"y":0.0,"z":-2.93999981880188},"angular_velocity":{"x":0.0,"y":0.0,"z":0.0},"acceleration":{"x":0.0,"y":0.0,"z":-9.7999906539917},"speed_mps":2.93999981880188,"speed_kph":10.583999347686769,"speed_limit_kph":30.0,"collisions_this_frame":[],"waypoint":{"x":-64.64469146728516,"y":24.504404067993164,"z":0.0},"lane_deviation_m":0.1481136530637741,"lane_width":3.5,"goal":{"x":73.63292694091797,"y":66.35848999023438,"z":0.5999999642372131},"fault":{"name":"degraded_brake_pads","severity":1.0},"capture_flags":{"save_rgb":true,"save_depth":false,"video_rgb":true,"video_depth":false}}
{"frame":3048,"timestamp":{"delta_seconds":0.05000000074505806,"elapsed_seconds":32.64046850986779},"control":{"throttle":0.75,"steer":0.0,"brake":0.0,"hand_brake":false,"reverse":false,"manual_gear_shift":false,"gear":0},"transform":{"location":{"x":-64.64484405517578,"y":24.471010208129883,"z":0.008085555396974087},"rotation":{"pitch":0.0,"yaw":0.15919795632362366,"roll":0.0}},"velocity":{"x":-5.419469744083472e-07,"y":-8.412019269599114e-06,"z":-2.06459641456604},"angular_velocity":{"x":0.0008732697460800409,"y":-0.0008259261958301067,"z":-2.5191848607164502e-08},"acceleration":{"x":-1.0838939488166943e-05,"y":-0.00016824038175400347,"z":17.508068084716797},"speed_mps":2.064596414583248,"speed_kph":7.432547092499693,"speed_limit_kph":30.0,"collisions_this_frame":[],"waypoint":{"x":-64.64469146728516,"y":24.504404067993164,"z":0.0},"lane_deviation_m":0.034359123557806015,"lane_width":3.5,"goal":{"x":73.63292694091797,"y":66.35848999023438,"z":0.5999999642372131},"fault":{"name":"degraded_brake_pads","severity":1.0},"capture_flags":{"save_rgb":true,"save_depth":false,"video_rgb":true,"video_depth":false}}
{"frame":3049,"timestamp":{"delta_seconds":0.05000000074505806,"elapsed_seconds":32.690468510612845},"control":{"throttle":0.75,"steer":0.0,"brake":0.0,"hand_brake":false,"reverse":false,"manual_gear_shift":false,"gear":0},"transform":{"location":{"x":-64.64484405517578,"y":24.471010208129883,"z":-0.05158817023038864},"rotation":{"pitch":0.0,"yaw":0.15919795632362366,"roll":0.0}},"velocity":{"x":-1.7941823671208113e-07,"y":-1.4597358131140936e-06,"z":-0.7380887269973755},"angular_velocity":{"x":0.00017217978893313557,"y":-0.0002615972189232707,"z":2.631870721359064e-09},"acceleration":{"x":7.250574526551645e-06,"y":0.0001390456745866686,"z":26.530153274536133},"speed_mps":0.7380887269988408,"speed_kph":2.657119417195827,"speed_limit_kph":30.0,"collisions_this_frame":[],"waypoint":{"x":-64.64469146728516,"y":24.504404067993164,"z":0.0},"lane_deviation_m":0.061453334987163544,"lane_width":3.5,"goal":{"x":73.63292694091797,"y":66.35848999023438,"z":0.5999999642372131},"fault":{"name":"degraded_brake_pads","severity":1.0},"capture_flags":{"save_rgb":true,"save_depth":false,"video_rgb":true,"video_depth":false}}
{"frame":3050,"timestamp":{"delta_seconds":0.05000000074505806,"elapsed_seconds":32.7404685113579},"control":{"throttle":0.75,"steer":0.0,"brake":0.0,"hand_brake":false,"reverse":false,"manual_gear_shift":false,"gear":0},"transform":{"location":{"x":-64.64484405517578,"y":24.471010208129883,"z":-0.06773189455270767},"rotation":{"pitch":0.0,"yaw":0.15919795632362366,"roll":0.0}},"velocity":{"x":-3.280591798215937e-08,"y":1.2364070300918684e-07,"z":-0.1120968759059906},"angular_velocity":{"x":4.701039506471716e-05,"y":-4.777070353156887e-05,"z":-3.4607359200578003e-09},"acceleration":{"x":2.9322463888092898e-06,"y":3.166752867400646e-05,"z":12.51983642578125},"speed_mps":0.11209687590606358,"speed_kph":0.40354875326182893,"speed_limit_kph":30.0,"collisions_this_frame":[],"waypoint":{"x":-64.64469146728516,"y":24.504404067993164,"z":0.0},"lane_deviation_m":0.07551676779985428,"lane_width":3.5,"goal":{"x":73.63292694091797,"y":66.35848999023438,"z":0.5999999642372131},"fault":{"name":"degraded_brake_pads","severity":1.0},"capture_flags":{"save_rgb":true,"save_depth":false,"video_rgb":true,"video_depth":false}}
{"frame":3051,"timestamp":{"delta_seconds":0.05000000074505806,"elapsed_seconds":32.79046851210296},"control":{"throttle":0.75,"steer":0.0,"brake":0.0,"hand_brake":false,"reverse":false,"manual_gear_shift":false,"gear":0},"transform":{"location":{"x":-64.64484405517578,"y":24.471010208129883,"z":-0.06445319950580597},"rotation":{"pitch":0.0,"yaw":0.15919795632362366,"roll":0.0}},"velocity":{"x":5.457875928982503e-09,"y":8.52586623523166e-08,"z":0.15056157112121582},"angular_velocity":{"x":-4.805379285244271e-05,"y":7.451097189914435e-06,"z":3.2838367580723116e-09},"acceleration":{"x":7.652758426957007e-07,"y":-7.676408131374046e-07,"z":5.253169059753418},"speed_mps":0.15056157112124005,"speed_kph":0.5420216560364642,"speed_limit_kph":30.0,"collisions_this_frame":[],"waypoint":{"x":-64.64469146728516,"y":24.504404067993164,"z":0.0},"lane_deviation_m":0.07259055227041245,"lane_width":3.5,"goal":{"x":73.63292694091797,"y":66.35848999023438,"z":0.5999999642372131},"fault":{"name":"degraded_brake_pads","severity":1.0},"capture_flags":{"save_rgb":true,"save_depth":false,"video_rgb":true,"video_depth":false}}
{"frame":3052,"timestamp":{"delta_seconds":0.05000000074505806,"elapsed_seconds":32.84046851284802},"control":{"throttle":0.75,"steer":0.0,"brake":0.0,"hand_brake":false,"reverse":false,"manual_gear_shift":false,"gear":0},"transform":{"location":{"x":-64.64484405517578,"y":24.471010208129883,"z":-0.05396205931901932},"rotation":{"pitch":0.0,"yaw":0.15919795632362366,"roll":0.0}},"velocity":{"x":1.620716538752731e-08,"y":1.847302257829142e-07,"z":0.23337243497371674},"angular_velocity":{"x":-4.269638520781882e-05,"y":2.1952277165837586e-05,"z":5.017054549583122e-10},"acceleration":{"x":2.1498578917089617e-07,"y":1.989431211768533e-06,"z":1.656217336654663},"speed_mps":0.23337243497379043,"speed_kph":0.8401407659056456,"speed_limit_kph":30.0,"collisions_this_frame":[],"waypoint":{"x":-64.64469146728516,"y":24.504404067993164,"z":0.0},"lane_deviation_m":0.06345925480127335,"lane_width":3.5,"goal":{"x":73.63292694091797,"y":66.35848999023438,"z":0.5999999642372131},"fault":{"name":"degraded_brake_pads","severity":1.0},"capture_flags":{"save_rgb":true,"save_depth":false,"video_rgb":true,"video_depth":false}}
{"frame":3053,"timestamp":{"delta_seconds":0.05000000074505806,"elapsed_seconds":32.89046851359308},"control":{"throttle":0.75,"steer":0.0,"brake":0.0,"hand_brake":false,"reverse":false,"manual_gear_shift":false,"gear":0},"transform":{"location":{"x":-64.64484405517578,"y":24.471010208129883,"z":-0.04207824543118477},"rotation":{"pitch":0.0,"yaw":0.15919795632362366,"roll":0.0}},"velocity":{"x":2.3526395054318527e-08,"y":1.8543867552622828e-09,"z":0.23370592296123505},"angular_velocity":{"x":-1.3488269360095728e-05,"y":3.167600152664818e-05,"z":2.7403021518601633e-10},"acceleration":{"x":1.4638459333582432e-07,"y":-3.6575167996488744e-06,"z":0.006669759750366211},"speed_mps":0.23370592296123624,"speed_kph":0.8413413226604505,"speed_limit_kph":30.0,"collisions_this_frame":[],"waypoint":{"x":-64.64469146728516,"y":24.504404067993164,"z":0.0},"lane_deviation_m":0.05371919646859169,"lane_width":3.5,"goal":{"x":73.63292694091797,"y":66.35848999023438,"z":0.5999999642372131},"fault":{"name":"degraded_brake_pads","severity":1.0},"capture_flags":{"save_rgb":true,"save_depth":false,"video_rgb":true,"video_depth":false}}
{"frame":3054,"timestamp":{"delta_seconds":0.05000000074505806,"elapsed_seconds":32.940468514338136},"control":{"throttle":0.75,"steer":0.0,"brake":0.0,"hand_brake":false,"reverse":false,"manual_gear_shift":false,"gear":0},"transform":{"location":{"x":-64.63247680664062,"y":24.471046447753906,"z":-0.031377408653497696},"rotation":{"pitch":0.014541472308337688,"yaw":0.15892018377780914,"roll":-6.103515261202119e-05}},"velocity":{"x":0.6032189130783081,"y":0.0016932974103838205,"z":0.2014356553554535},"angular_velocity":{"x":0.0018380200490355492,"y":-0.6498922109603882,"z":0.0004675326053984463},"acceleration":{"x":12.06437873840332,"y":0.03386591002345085,"z":-0.6454053521156311},"speed_mps":0.6359656025289233,"speed_kph":2.289476169104124,"speed_limit_kph":30.0,"collisions_this_frame":[],"waypoint":{"x":-64.63232421875,"y":24.504438400268555,"z":0.0},"lane_deviation_m":0.045821256935596466,"lane_width":3.5,"goal":{"x":73.63292694091797,"y":66.35848999023438,"z":0.5999999642372131},"fault":{"name":"degraded_brake_pads","severity":1.0},"capture_flags":{"save_rgb":true,"save_depth":false,"video_rgb":true,"video_depth":false}}
{"frame":3055,"timestamp":{"delta_seconds":0.05000000074505806,"elapsed_seconds":32.990468515083194},"control":{"throttle":0.75,"steer":0.0,"brake":0.0,"hand_brake":false,"reverse":false,"manual_gear_shift":false,"gear":0},"transform":{"location":{"x":-64.58267974853516,"y":24.47118377685547,"z":-0.022708091884851456},"rotation":{"pitch":0.04654773697257042,"yaw":0.15889814496040344,"roll":-6.103514533606358e-05}},"velocity":{"x":1.2323728799819946,"y":0.0034191813319921494,"z":0.16076454520225525},"angular_velocity":{"x":0.0015348426532000303,"y":-0.5740026831626892,"z":0.0001668730255914852},"acceleration":{"x":12.58307933807373,"y":0.03451767936348915,"z":-0.8134222030639648},"speed_mps":1.242819313138553,"speed_kph":4.474149527298791,"speed_limit_kph":30.0,"collisions_this_frame":[],"waypoint":{"x":-64.58252716064453,"y":24.504575729370117,"z":0.0},"lane_deviation_m":0.04038196802139282,"lane_width":3.5,"goal":{"x":73.63292694091797,"y":66.35848999023438,"z":0.5999999642372131},"fault":{"name":"degraded_brake_pads","severity":1.0},"capture_flags":{"save_rgb":true,"save_depth":false,"video_rgb":true,"video_depth":false}}
{"frame":3056,"timestamp":{"delta_seconds":0.05000000074505806,"elapsed_seconds":33.04046851582825},"control":{"throttle":0.75,"steer":0.0004285215400159359,"brake":0.0,"hand_brake":false,"reverse":false,"manual_gear_shift":false,"gear":0},"transform":{"location":{"x":-64.5017318725586,"y":24.47142219543457,"z":-0.015995750203728676},"rotation":{"pitch":0.07300788909196854,"yaw":0.15953780710697174,"roll":-0.00012207029067212716}},"velocity":{"x":1.7996662855148315,"y":0.005476839374750853,"z":0.12241741269826889},"angular_velocity":{"x":0.0020700590685009956,"y":-0.38317492604255676,"z":0.017367752268910408},"acceleration":{"x":11.345868110656738,"y":0.041153162717819214,"z":-0.7669426202774048},"speed_mps":1.8038333509279691,"speed_kph":6.493800063340689,"speed_limit_kph":30.0,"collisions_this_frame":[],"waypoint":{"x":-64.5015869140625,"y":24.50480079650879,"z":0.0},"lane_deviation_m":0.03701372444629669,"lane_width":3.5,"goal":{"x":73.63292694091797,"y":66.35848999023438,"z":0.5999999642372131},"fault":{"name":"degraded_brake_pads","severity":1.0},"capture_flags":{"save_rgb":true,"save_depth":false,"video_rgb":true,"video_depth":false}}
{"frame":3057,"timestamp":{"delta_seconds":0.05000000074505806,"elapsed_seconds":33.09046851657331},"control":{"throttle":0.75,"steer":0.0004285215400159359,"brake":0.0,"hand_brake":false,"reverse":false,"manual_gear_shift":false,"gear":0},"transform":{"location":{"x":-64.39696502685547,"y":24.47173500061035,"z":-0.010951499454677105},"rotation":{"pitch":0.08761083334684372,"yaw":0.16053232550621033,"roll":-0.000152587890625}},"velocity":{"x":2.2368249893188477,"y":0.006865182891488075,"z":0.09030812978744507},"angular_velocity":{"x":0.0007515874458476901,"y":-0.1723518818616867,"z":0.02118075266480446},"acceleration":{"x":8.743173599243164,"y":0.027766870334744453,"z":-0.6421856880187988},"speed_mps":2.238657794725023,"speed_kph":8.059168061010084,"speed_limit_kph":30.0,"collisions_this_frame":[],"waypoint":{"x":-64.3968276977539,"y":24.50509262084961,"z":0.0},"lane_deviation_m":0.035109613090753555,"lane_width":3.5,"goal":{"x":73.63292694091797,"y":66.35848999023438,"z":0.5999999642372131},"fault":{"name":"degraded_brake_pads","severity":1.0},"capture_flags":{"save_rgb":true,"save_depth":false,"video_rgb":true,"video_depth":false}}
{"frame":3058,"timestamp":{"delta_seconds":0.05000000074505806,"elapsed_seconds":33.14046851731837},"control":{"throttle":0.75,"steer":0.005119187291711569,"brake":0.0,"hand_brake":false,"reverse":false,"manual_gear_shift":false,"gear":0},"transform":{"location":{"x":-64.27487182617188,"y":24.47210693359375,"z":-0.0072416686452925205},"rotation":{"pitch":0.09149721264839172,"yaw":0.1616225689649582,"roll":-0.000152587890625}},"velocity":{"x":2.5722572803497314,"y":0.007958788424730301,"z":0.065111443400383},"angular_velocity":{"x":0.00022615541820414364,"y":-0.028273509815335274,"z":0.015150182880461216},"acceleration":{"x":6.708645820617676,"y":0.021872110664844513,"z":-0.5039337277412415},"speed_mps":2.573093538658684,"speed_kph":9.263136739171262,"speed_limit_kph":30.0,"collisions_this_frame":[],"waypoint":{"x":-64.27474975585938,"y":24.50543212890625,"z":0.0},"lane_deviation_m":0.0341031551361084,"lane_width":3.5,"goal":{"x":73.63292694091797,"y":66.35848999023438,"z":0.5999999642372131},"fault":{"name":"degraded_brake_pads","severity":1.0},"capture_flags":{"save_rgb":true,"save_depth":false,"video_rgb":true,"video_depth":false}}
{"frame":3059,"timestamp":{"delta_seconds":0.05000000074505806,"elapsed_seconds":33.190468518063426},"control":{"throttle":0.75,"steer":0.005119187291711569,"brake":0.0,"hand_brake":false,"reverse":false,"manual_gear_shift":false,"gear":0},"transform":{"location":{"x":-64.13734436035156,"y":24.47273826599121,"z":-0.004571876488626003},"rotation":{"pitch":0.09042487293481827,"yaw":0.17311088740825653,"roll":-0.0010986328125}},"velocity":{"x":2.8669893741607666,"y":0.01637664996087551,"z":0.046136513352394104},"angular_velocity":{"x":0.016206257045269012,"y":0.04685701057314873,"z":0.2954927086830139},"acceleration":{"x":5.894641876220703,"y":0.1683572232723236,"z":-0.37949860095977783},"speed_mps":2.8674073383596896,"speed_kph":10.322666418094883,"speed_limit_kph":30.0,"collisions_this_frame":[],"waypoint":{"x":-64.1372299194336,"y":24.505813598632812,"z":0.0},"lane_deviation_m":0.03339000791311264,"lane_width":3.5,"goal":{"x":73.63292694091797,"y":66.35848999023438,"z":0.5999999642372131},"fault":{"name":"degraded_brake_pads","severity":1.0},"capture_flags":{"save_rgb":true,"save_depth":false,"video_rgb":true,"video_depth":false}}
{"frame":3060,"timestamp":{"delta_seconds":0.05000000074505806,"elapsed_seconds":33.240468518808484},"control":{"throttle":0.75,"steer":0.00696696387603879,"brake":0.0,"hand_brake":false,"reverse":false,"manual_gear_shift":false,"gear":0},"transform":{"location":{"x":-63.98524856567383,"y":24.47367286682129,"z":-0.0026823042426258326},"rotation":{"pitch":0.08746057003736496,"yaw":0.194144144654274,"roll":-0.001983642578125}},"velocity":{"x":3.1574718952178955,"y":0.023402327671647072,"z":0.032250355929136276},"angular_velocity":{"x":0.013266420923173428,"y":0.06313422322273254,"z":0.4692484736442566},"acceleration":{"x":5.809650421142578,"y":0.1405135542154312,"z":-0.27772313356399536},"speed_mps":3.157723313320674,"speed_kph":11.367803927954427,"speed_limit_kph":30.0,"collisions_this_frame":[],"waypoint":{"x":-63.974430084228516,"y":24.50592613220215,"z":0.0},"lane_deviation_m":0.03412487730383873,"lane_width":3.5,"goal":{"x":73.63292694091797,"y":66.35848999023438,"z":0.5999999642372131},"fault":{"name":"degraded_brake_pads","severity":1.0},"capture_flags":{"save_rgb":true,"save_depth":false,"video_rgb":true,"video_depth":false}}
{"frame":3061,"timestamp":{"delta_seconds":0.05000000074505806,"elapsed_seconds":33.29046851955354},"control":{"throttle":0.75,"steer":0.00696696387603879,"brake":0.0,"hand_brake":false,"reverse":false,"manual_gear_shift":false,"gear":0},"transform":{"location":{"x":-63.81917953491211,"y":24.47482681274414,"z":-0.0013618849916383624},"rotation":{"pitch":0.08405230194330215,"yaw":0.21920204162597656,"roll":-0.002288817660883069}},"velocity":{"x":3.431795358657837,"y":0.02752278931438923,"z":0.022298211231827736},"angular_velocity":{"x":0.0030154562555253506,"y":0.06967201083898544,"z":0.5204647779464722},"acceleration":{"x":5.486469268798828,"y":0.08240923285484314,"z":-0.1990428864955902},"speed_mps":3.4319781610408384,"speed_kph":12.355121379747018,"speed_limit_kph":30.0,"collisions_this_frame":[],"waypoint":{"x":-63.79075241088867,"y":24.504383087158203,"z":0.0},"lane_deviation_m":0.04103083536028862,"lane_width":3.5,"goal":{"x":73.63292694091797,"y":66.35848999023438,"z":0.5999999642372131},"fault":{"name":"degraded_brake_pads","severity":1.0},"capture_flags":{"save_rgb":true,"save_depth":false,"video_rgb":true,"video_depth":false}}
{"frame":3062,"timestamp":{"delta_seconds":0.05000000074505806,"elapsed_seconds":33.3404685202986},"control":{"throttle":0.75,"steer":0.0056107547134160995,"brake":0.0,"hand_brake":false,"reverse":false,"manual_gear_shift":false,"gear":0},"transform":{"location":{"x":-63.639408111572266,"y":24.47608757019043,"z":-0.0004483032098505646},"rotation":{"pitch":0.08076015114784241,"yaw":0.2427913397550583,"roll":-0.0020446772687137127}},"velocity":{"x":3.701521635055542,"y":0.028772268444299698,"z":0.015276088379323483},"angular_velocity":{"x":-0.005747751332819462,"y":0.06579417735338211,"z":0.46011656522750854},"acceleration":{"x":5.394525527954102,"y":0.02498958259820938,"z":-0.14044246077537537},"speed_mps":3.701664979045491,"speed_kph":13.325993924563768,"speed_limit_kph":30.0,"collisions_this_frame":[],"waypoint":{"x":-63.63935089111328,"y":24.5071964263916,"z":0.0},"lane_deviation_m":0.03111213818192482,"lane_width":3.5,"goal":{"x":73.63292694091797,"y":66.35848999023438,"z":0.5999999642372131},"fault":{"name":"degraded_brake_pads","severity":1.0},"capture_flags":{"save_rgb":true,"save_depth":false,"video_rgb":true,"video_depth":false}}
{"frame":3063,"timestamp":{"delta_seconds":0.05000000074505806,"elapsed_seconds":33.39046852104366},"control":{"throttle":0.75,"steer":0.0056107547134160995,"brake":0.0,"hand_brake":false,"reverse":false,"manual_gear_shift":false,"gear":0},"transform":{"location":{"x":-63.44682312011719,"y":24.47747039794922,"z":0.0001818084710976109},"rotation":{"pitch":0.07729724794626236,"yaw":0.2664565145969391,"roll":-0.0018615720327943563}},"velocity":{"x":3.951427459716797,"y":0.0317542739212513,"z":0.01038702018558979},"angular_velocity":{"x":-0.0021771658211946487,"y":0.06966477632522583,"z":0.48352620005607605},"acceleration":{"x":4.998116493225098,"y":0.05964010953903198,"z":-0.09778136014938354},"speed_mps":3.9515687003397195,"speed_kph":14.22564732122299,"speed_limit_kph":30.0,"collisions_this_frame":[],"waypoint":{"x":-63.44677734375,"y":24.507732391357422,"z":0.0},"lane_deviation_m":0.030262574553489685,"lane_width":3.5,"goal":{"x":73.63292694091797,"y":66.35848999023438,"z":0.5999999642372131},"fault":{"name":"degraded_brake_pads","severity":1.0},"capture_flags":{"save_rgb":true,"save_depth":false,"video_rgb":true,"video_depth":false}}
{"frame":3064,"timestamp":{"delta_seconds":0.05000000074505806,"elapsed_seconds":33.440468521788716},"control":{"throttle":0.75,"steer":-0.00266388151794672,"brake":0.0,"hand_brake":false,"reverse":false,"manual_gear_shift":false,"gear":0},"transform":{"location":{"x":-63.24202346801758,"y":24.4785099029541,"z":0.0006150436238385737},"rotation":{"pitch":0.07388215512037277,"yaw":0.2671933174133301,"roll":0.0003830856585409492}},"velocity":{"x":4.1919026374816895,"y":0.01723702810704708,"z":0.007016544230282307},"angular_velocity":{"x":-0.041547469794750214,"y":0.06695348024368286,"z":-0.14249096810817719},"acceleration":{"x":4.809503555297852,"y":-0.2903449237346649,"z":-0.06740951538085938},"speed_mps":4.191943948713632,"speed_kph":15.090998215369076,"speed_limit_kph":30.0,"collisions_this_frame":[],"waypoint":{"x":-63.24198532104492,"y":24.50830078125,"z":0.0},"lane_deviation_m":0.029797252267599106,"lane_width":3.5,"goal":{"x":73.63292694091797,"y":66.35848999023438,"z":0.5999999642372131},"fault":{"name":"degraded_brake_pads","severity":1.0},"capture_flags":{"save_rgb":true,"save_depth":false,"video_rgb":true,"video_depth":false}}
{"frame":3065,"timestamp":{"delta_seconds":0.05000000074505806,"elapsed_seconds":33.490468522533774},"control":{"throttle":0.75,"steer":-0.00266388151794672,"brake":0.0,"hand_brake":false,"reverse":false,"manual_gear_shift":false,"gear":0},"transform":{"location":{"x":-63.025428771972656,"y":24.479312896728516,"z":0.0009119796450249851},"rotation":{"pitch":0.0706992819905281,"yaw":0.2565719783306122,"roll":0.00155452114995569}},"velocity":{"x":4.4253740310668945,"y":0.01404639333486557,"z":0.004714431706815958},"angular_velocity":{"x":-0.013712604530155659,"y":0.06094270572066307,"z":-0.23879265785217285},"acceleration":{"x":4.669427871704102,"y":-0.06381269544363022,"z":-0.046042248606681824},"speed_mps":4.425398834215204,"speed_kph":15.931435803174734,"speed_limit_kph":30.0,"collisions_this_frame":[],"waypoint":{"x":-63.0254020690918,"y":24.50890350341797,"z":0.0},"lane_deviation_m":0.02960466966032982,"lane_width":3.5,"goal":{"x":73.63292694091797,"y":66.35848999023438,"z":0.5999999642372131},"fault":{"name":"degraded_brake_pads","severity":1.0},"capture_flags":{"save_rgb":true,"save_depth":false,"video_rgb":true,"video_depth":false}}
{"frame":3066,"timestamp":{"delta_seconds":0.05000000074505806,"elapsed_seconds":33.54046852327883},"control":{"throttle":0.75,"steer":0.004994520917534828,"brake":0.0,"hand_brake":false,"reverse":false,"manual_gear_shift":false,"gear":0},"transform":{"location":{"x":-62.79731369018555,"y":24.480541229248047,"z":0.001114807091653347},"rotation":{"pitch":0.06787841767072678,"yaw":0.26732704043388367,"roll":-0.0003662109375}},"velocity":{"x":4.654048442840576,"y":0.03063718043267727,"z":0.0031512449495494366},"angular_velocity":{"x":0.039864979684352875,"y":0.05325490981340408,"z":0.3790975511074066},"acceleration":{"x":4.573488235473633,"y":0.3318157494068146,"z":-0.03126373514533043},"speed_mps":4.654150349470501,"speed_kph":16.754941258093805,"speed_limit_kph":30.0,"collisions_this_frame":[],"waypoint":{"x":-62.777339935302734,"y":24.508281707763672,"z":0.0},"lane_deviation_m":0.034201283007860184,"lane_width":3.5,"goal":{"x":73.63292694091797,"y":66.35848999023438,"z":0.5999999642372131},"fault":{"name":"degraded_brake_pads","severity":1.0},"capture_flags":{"save_rgb":true,"save_depth":false,"video_rgb":true,"video_depth":false}}
{"frame":3067,"timestamp":{"delta_seconds":0.05000000074505806,"elapsed_seconds":33.59046852402389},"control":{"throttle":0.75,"steer":0.004994520917534828,"brake":0.0,"hand_brake":false,"reverse":false,"manual_gear_shift":false,"gear":0},"transform":{"location":{"x":-62.5573844909668,"y":24.48247718811035,"z":0.0025983047671616077},"rotation":{"pitch":0.1359412521123886,"yaw":0.2853468060493469,"roll":-0.163970947265625}},"velocity":{"x":4.879003047943115,"y":0.011036927811801434,"z":0.026824453845620155},"angular_velocity":{"x":1.3128917217254639,"y":-0.7448554039001465,"z":0.24471093714237213},"acceleration":{"x":4.499092102050781,"y":-0.3920050859451294,"z":0.47346416115760803},"speed_mps":4.879089270236593,"speed_kph":17.564721372851736,"speed_limit_kph":30.0,"collisions_this_frame":[],"waypoint":{"x":-62.51470184326172,"y":24.50430679321289,"z":0.0},"lane_deviation_m":0.04801136627793312,"lane_width":3.5,"goal":{"x":73.63292694091797,"y":66.35848999023438,"z":0.5999999642372131},"fault":{"name":"degraded_brake_pads","severity":1.0},"capture_flags":{"save_rgb":true,"save_depth":false,"video_rgb":true,"video_depth":false}}
{"frame":3068,"timestamp":{"delta_seconds":0.05000000074505806,"elapsed_seconds":33.64046852476895},"control":{"throttle":0.48631682991981506,"steer":0.0049590119160711765,"brake":0.0,"hand_brake":false,"reverse":false,"manual_gear_shift":false,"gear":0},"transform":{"location":{"x":-62.30702590942383,"y":24.483476638793945,"z":0.0034542465582489967},"rotation":{"pitch":0.15096083283424377,"yaw":0.29431119561195374,"roll":-0.183197021484375}},"velocity":{"x":5.081258773803711,"y":0.023872222751379013,"z":0.01702962815761566},"angular_velocity":{"x":0.07888264209032059,"y":-0.09618224203586578,"z":0.18841025233268738},"acceleration":{"x":4.045114517211914,"y":0.2567059099674225,"z":-0.19589650630950928},"speed_mps":5.081343387098679,"speed_kph":18.292836193555246,"speed_limit_kph":30.0,"collisions_this_frame":[],"waypoint":{"x":-62.24071502685547,"y":24.49652099609375,"z":0.0},"lane_deviation_m":0.06766993552446365,"lane_width":3.5,"goal":{"x":73.63292694091797,"y":66.35848999023438,"z":0.5999999642372131},"fault":{"name":"degraded_brake_pads","severity":1.0},"capture_flags":{"save_rgb":true,"save_depth":false,"video_rgb":true,"video_depth":false}}
{"frame":3069,"timestamp":{"delta_seconds":0.05000000074505806,"elapsed_seconds":33.69046852551401},"control":{"throttle":0.48631682991981506,"steer":0.0049590119160711765,"brake":0.0,"hand_brake":false,"reverse":false,"manual_gear_shift":false,"gear":0},"transform":{"location":{"x":-62.04840087890625,"y":24.48434066772461,"z":0.0034432602114975452},"rotation":{"pitch":0.11633177846670151,"yaw":0.3167433440685272,"roll":-0.0876464694738388}},"velocity":{"x":5.242106914520264,"y":0.04853369668126106,"z":-0.040079593658447266},"angular_velocity":{"x":-5.369086265563965,"y":2.109243631362915,"z":0.442219614982605},"acceleration":{"x":3.2169628143310547,"y":0.493229478597641,"z":-1.1421844959259033},"speed_mps":5.242484792233787,"speed_kph":18.872945252041635,"speed_limit_kph":30.0,"collisions_this_frame":[],"waypoint":{"x":-61.957820892333984,"y":24.484573364257812,"z":0.0},"lane_deviation_m":0.0906457006931305,"lane_width":3.5,"goal":{"x":73.63292694091797,"y":66.35848999023438,"z":0.5999999642372131},"fault":{"name":"degraded_brake_pads","severity":1.0},"capture_flags":{"save_rgb":true,"save_depth":false,"video_rgb":true,"video_depth":false}}
{"frame":3070,"timestamp":{"delta_seconds":0.05000000074505806,"elapsed_seconds":33.740468526259065},"control":{"throttle":0.10646013915538788,"steer":-0.0019245718140155077,"brake":0.0,"hand_brake":false,"reverse":false,"manual_gear_shift":false,"gear":0},"transform":{"location":{"x":-61.78839874267578,"y":24.485990524291992,"z":0.0025111387949436903},"rotation":{"pitch":0.0562397763133049,"yaw":0.33571934700012207,"roll":-0.003509521484375}},"velocity":{"x":5.18147087097168,"y":0.04334290325641632,"z":-0.018205275759100914},"angular_velocity":{"x":-0.5814275145530701,"y":0.7920487523078918,"z":-0.5294713377952576},"acceleration":{"x":-1.2127208709716797,"y":-0.10381586849689484,"z":0.43748635053634644},"speed_mps":5.181684130285846,"speed_kph":18.654062869029044,"speed_limit_kph":30.0,"collisions_this_frame":[],"waypoint":{"x":-61.714866638183594,"y":24.471139907836914,"z":0.0},"lane_deviation_m":0.07505875825881958,"lane_width":3.5,"goal":{"x":73.63292694091797,"y":66.35848999023438,"z":0.5999999642372131},"fault":{"name":"degraded_brake_pads","severity":1.0},"capture_flags":{"save_rgb":true,"save_depth":false,"video_rgb":true,"video_depth":false}}
{"frame":3071,"timestamp":{"delta_seconds":0.05000000074505806,"elapsed_seconds":33.79046852700412},"control":{"throttle":0.10646013915538788,"steer":-0.0019245718140155077,"brake":0.0,"hand_brake":false,"reverse":false,"manual_gear_shift":false,"gear":0},"transform":{"location":{"x":-61.53118896484375,"y":24.487821578979492,"z":0.002090988215059042},"rotation":{"pitch":0.03098173625767231,"yaw":0.3292711675167084,"roll":0.005756205413490534}},"velocity":{"x":5.122650623321533,"y":0.03369290009140968,"z":-0.007835435681045055},"angular_velocity":{"x":-0.06328313797712326,"y":0.3754251301288605,"z":0.1661565601825714},"acceleration":{"x":-1.1764049530029297,"y":-0.19300006330013275,"z":0.20739680528640747},"speed_mps":5.122767417537651,"speed_kph":18.441962703135545,"speed_limit_kph":30.0,"collisions_this_frame":[],"waypoint":{"x":-61.53125762939453,"y":24.5130558013916,"z":0.0},"lane_deviation_m":0.02532080002129078,"lane_width":3.5,"goal":{"x":73.63292694091797,"y":66.35848999023438,"z":0.5999999642372131},"fault":{"name":"degraded_brake_pads","severity":1.0},"capture_flags":{"save_rgb":true,"save_depth":false,"video_rgb":true,"video_depth":false}}
{"frame":3072,"timestamp":{"delta_seconds":0.05000000074505806,"elapsed_seconds":33.84046852774918},"control":{"throttle":0.10646013915538788,"steer":0.004327910020947456,"brake":0.0,"hand_brake":false,"reverse":false,"manual_gear_shift":false,"gear":0},"transform":{"location":{"x":-61.277156829833984,"y":24.489686965942383,"z":0.0019393156981095672},"rotation":{"pitch":0.017150603234767914,"yaw":0.328691691160202,"roll":0.004891458433121443}},"velocity":{"x":5.055461406707764,"y":0.038646407425403595,"z":-0.0030312538146972656},"angular_velocity":{"x":0.03212963044643402,"y":0.22833549976348877,"z":-0.1880674809217453},"acceleration":{"x":-1.3437843322753906,"y":0.09907014667987823,"z":0.0960836410522461},"speed_mps":5.055610029266322,"speed_kph":18.20019610535876,"speed_limit_kph":30.0,"collisions_this_frame":[],"waypoint":{"x":-61.2772216796875,"y":24.513761520385742,"z":0.0},"lane_deviation_m":0.02415262535214424,"lane_width":3.5,"goal":{"x":73.63292694091797,"y":66.35848999023438,"z":0.5999999642372131},"fault":{"name":"degraded_brake_pads","severity":1.0},"capture_flags":{"save_rgb":true,"save_depth":false,"video_rgb":true,"video_depth":false}}
{"frame":3073,"timestamp":{"delta_seconds":0.05000000074505806,"elapsed_seconds":33.89046852849424},"control":{"throttle":0.10646013915538788,"steer":0.004327910020947456,"brake":0.0,"hand_brake":false,"reverse":false,"manual_gear_shift":false,"gear":0},"transform":{"location":{"x":-61.02609634399414,"y":24.49160385131836,"z":0.0018462371081113815},"rotation":{"pitch":0.008933886885643005,"yaw":0.34581077098846436,"roll":0.003341915551573038}},"velocity":{"x":5.031167030334473,"y":0.0413101390004158,"z":-0.006983632687479258},"angular_velocity":{"x":0.0238774623721838,"y":0.061830129474401474,"z":0.5061532855033875},"acceleration":{"x":-0.4858875274658203,"y":0.05327463150024414,"z":-0.07904757559299469},"speed_mps":5.031341469810446,"speed_kph":18.112829291317606,"speed_limit_kph":30.0,"collisions_this_frame":[],"waypoint":{"x":-61.026161193847656,"y":24.51445960998535,"z":0.0},"lane_deviation_m":0.022930296137928963,"lane_width":3.5,"goal":{"x":73.63292694091797,"y":66.35848999023438,"z":0.5999999642372131},"fault":{"name":"degraded_brake_pads","severity":1.0},"capture_flags":{"save_rgb":true,"save_depth":false,"video_rgb":true,"video_depth":false}}
{"frame":3074,"timestamp":{"delta_seconds":0.05000000074505806,"elapsed_seconds":33.9404685292393},"control":{"throttle":0.10646013915538788,"steer":0.01036133710294962,"brake":0.0,"hand_brake":false,"reverse":false,"manual_gear_shift":false,"gear":0},"transform":{"location":{"x":-60.77486801147461,"y":24.49417495727539,"z":0.0018931960221379995},"rotation":{"pitch":0.005197773687541485,"yaw":0.3559616804122925,"roll":0.0003068408404942602}},"velocity":{"x":4.98974609375,"y":0.05481807887554169,"z":0.0005438041407614946},"angular_velocity":{"x":0.0348464697599411,"y":0.11128458380699158,"z":-2.993950843811035},"acceleration":{"x":-0.8284187316894531,"y":0.2701587975025177,"z":0.15054874122142792},"speed_mps":4.990047234003696,"speed_kph":17.964170042413308,"speed_limit_kph":30.0,"collisions_this_frame":[],"waypoint":{"x":-60.774925231933594,"y":24.51515769958496,"z":0.0},"lane_deviation_m":0.02106805518269539,"lane_width":3.5,"goal":{"x":73.63292694091797,"y":66.35848999023438,"z":0.5999999642372131},"fault":{"name":"degraded_brake_pads","severity":1.0},"capture_flags":{"save_rgb":true,"save_depth":false,"video_rgb":true,"video_depth":false}}
{"frame":3075,"timestamp":{"delta_seconds":0.05000000074505806,"elapsed_seconds":33.990468529984355},"control":{"throttle":0.10646013915538788,"steer":0.01036133710294962,"brake":0.0,"hand_brake":false,"reverse":false,"manual_gear_shift":false,"gear":0},"transform":{"location":{"x":-60.52451705932617,"y":24.496973037719727,"z":0.0018420028500258923},"rotation":{"pitch":0.0030804150737822056,"yaw":0.3924611508846283,"roll":-0.0011901856632903218}},"velocity":{"x":5.001650333404541,"y":0.06216149032115936,"z":-0.005139551125466824},"angular_velocity":{"x":0.016977926716208458,"y":0.026561953127384186,"z":1.1187992095947266},"acceleration":{"x":0.2380847930908203,"y":0.14686822891235352,"z":-0.11366710066795349},"speed_mps":5.002039236502497,"speed_kph":18.007341251408988,"speed_limit_kph":30.0,"collisions_this_frame":[],"waypoint":{"x":-60.52457046508789,"y":24.515853881835938,"z":0.0},"lane_deviation_m":0.018970558419823647,"lane_width":3.5,"goal":{"x":73.63292694091797,"y":66.35848999023438,"z":0.5999999642372131},"fault":{"name":"degraded_brake_pads","severity":1.0},"capture_flags":{"save_rgb":true,"save_depth":false,"video_rgb":true,"video_depth":false}}
{"frame":3076,"timestamp":{"delta_seconds":0.05000000074505806,"elapsed_seconds":34.04046853072941},"control":{"throttle":0.09657565504312515,"steer":0.030268631875514984,"brake":0.0,"hand_brake":false,"reverse":false,"manual_gear_shift":false,"gear":0},"transform":{"location":{"x":-60.27473068237305,"y":24.501258850097656,"z":0.0017358397599309683},"rotation":{"pitch":0.001728037721477449,"yaw":0.5067799687385559,"roll":-0.007843016646802425}},"velocity":{"x":4.994963645935059,"y":0.11456353217363358,"z":-0.0024128532968461514},"angular_velocity":{"x":0.12099659442901611,"y":0.02101953886449337,"z":2.7797083854675293},"acceleration":{"x":-0.13373374938964844,"y":1.0480408668518066,"z":0.054533958435058594},"speed_mps":4.996277859464782,"speed_kph":17.986600294073217,"speed_limit_kph":30.0,"collisions_this_frame":[],"waypoint":{"x":-60.27477264404297,"y":24.51654815673828,"z":0.0},"lane_deviation_m":0.015387585386633873,"lane_width":3.5,"goal":{"x":73.63292694091797,"y":66.35848999023438,"z":0.5999999642372131},"fault":{"name":"degraded_brake_pads","severity":1.0},"capture_flags":{"save_rgb":true,"save_depth":false,"video_rgb":true,"video_depth":false}}
{"frame":3077,"timestamp":{"delta_seconds":0.05000000074505806,"elapsed_seconds":34.09046853147447},"control":{"throttle":0.09657565504312515,"steer":0.030268631875514984,"brake":0.0,"hand_brake":false,"reverse":false,"manual_gear_shift":false,"gear":0},"transform":{"location":{"x":-60.02567672729492,"y":24.506864547729492,"z":0.0016870498657226562},"rotation":{"pitch":0.00036200002068653703,"yaw":0.6578173041343689,"roll":-0.011566162109375}},"velocity":{"x":4.9686808586120605,"y":0.1373717039823532,"z":-0.00048214910202659667},"angular_velocity":{"x":0.046136703342199326,"y":0.03393058851361275,"z":3.0993428230285645},"acceleration":{"x":-0.5256557464599609,"y":0.4561634361743927,"z":0.03861408308148384},"speed_mps":4.97057951271888,"speed_kph":17.894086245787967,"speed_limit_kph":30.0,"collisions_this_frame":[],"waypoint":{"x":-60.02570343017578,"y":24.517240524291992,"z":0.0},"lane_deviation_m":0.010512266308069229,"lane_width":3.5,"goal":{"x":73.63292694091797,"y":66.35848999023438,"z":0.5999999642372131},"fault":{"name":"degraded_brake_pads","severity":1.0},"capture_flags":{"save_rgb":true,"save_depth":false,"video_rgb":true,"video_depth":false}}
{"frame":3078,"timestamp":{"delta_seconds":0.05000000074505806,"elapsed_seconds":34.14046853221953},"control":{"throttle":0.28321218490600586,"steer":0.026208681985735893,"brake":0.0,"hand_brake":false,"reverse":false,"manual_gear_shift":false,"gear":0},"transform":{"location":{"x":-59.77823257446289,"y":24.513036727905273,"z":0.001701087923720479},"rotation":{"pitch":-0.001372867962345481,"yaw":0.8012738227844238,"roll":-0.011444091796875}},"velocity":{"x":4.938121318817139,"y":0.143403559923172,"z":0.0003459358122199774},"angular_velocity":{"x":-0.014139252714812756,"y":0.030877308920025826,"z":2.784656286239624},"acceleration":{"x":-0.6111907958984375,"y":0.12063711881637573,"z":0.01656169816851616},"speed_mps":4.940203119308612,"speed_kph":17.784731229511003,"speed_limit_kph":30.0,"collisions_this_frame":[],"waypoint":{"x":-59.77824401855469,"y":24.517927169799805,"z":0.0},"lane_deviation_m":0.005177861545234919,"lane_width":3.5,"goal":{"x":73.63292694091797,"y":66.35848999023438,"z":0.5999999642372131},"fault":{"name":"degraded_brake_pads","severity":1.0},"capture_flags":{"save_rgb":true,"save_depth":false,"video_rgb":true,"video_depth":false}}
{"frame":3079,"timestamp":{"delta_seconds":0.05000000074505806,"elapsed_seconds":34.19046853296459},"control":{"throttle":0.28321218490600586,"steer":0.026208681985735893,"brake":0.0,"hand_brake":false,"reverse":false,"manual_gear_shift":false,"gear":0},"transform":{"location":{"x":-59.53219223022461,"y":24.519853591918945,"z":0.003505554050207138},"rotation":{"pitch":-0.07480422407388687,"yaw":0.9443487524986267,"roll":-0.1358642280101776}},"velocity":{"x":4.9285712242126465,"y":0.1326659768819809,"z":0.021853579208254814},"angular_velocity":{"x":1.263978123664856,"y":0.987587034702301,"z":2.997487783432007},"acceleration":{"x":-0.19100189208984375,"y":-0.21475166082382202,"z":0.43015286326408386},"speed_mps":4.9304048669945155,"speed_kph":17.749457521180258,"speed_limit_kph":30.0,"collisions_this_frame":[],"waypoint":{"x":-59.532188415527344,"y":24.51861000061035,"z":0.0},"lane_deviation_m":0.0037196027114987373,"lane_width":3.5,"goal":{"x":73.63292694091797,"y":66.35848999023438,"z":0.5999999642372131},"fault":{"name":"degraded_brake_pads","severity":1.0},"capture_flags":{"save_rgb":true,"save_depth":false,"video_rgb":true,"video_depth":false}}
{"frame":3080,"timestamp":{"delta_seconds":0.05000000074505806,"elapsed_seconds":34.240468533709645},"control":{"throttle":0.46795305609703064,"steer":0.021207433193922043,"brake":0.0,"hand_brake":false,"reverse":false,"manual_gear_shift":false,"gear":0},"transform":{"location":{"x":-59.28571319580078,"y":24.52596092224121,"z":0.004281654488295317},"rotation":{"pitch":-0.09592317044734955,"yaw":1.0821155309677124,"roll":-0.1549682766199112}},"velocity":{"x":4.939963340759277,"y":0.14076648652553558,"z":0.008507690392434597},"angular_velocity":{"x":0.08644979447126389,"y":0.18146367371082306,"z":2.6467931270599365},"acceleration":{"x":0.2278423309326172,"y":0.16201019287109375,"z":-0.26691776514053345},"speed_mps":4.941975859165049,"speed_kph":17.791113092994177,"speed_limit_kph":30.0,"collisions_this_frame":[],"waypoint":{"x":-59.28569412231445,"y":24.519296646118164,"z":0.0},"lane_deviation_m":0.007921205833554268,"lane_width":3.5,"goal":{"x":73.63292694091797,"y":66.35848999023438,"z":0.5999999642372131},"fault":{"name":"degraded_brake_pads","severity":1.0},"capture_flags":{"save_rgb":true,"save_depth":false,"video_rgb":true,"video_depth":false}}
{"frame":3081,"timestamp":{"delta_seconds":0.05000000074505806,"elapsed_seconds":34.2904685344547},"control":{"throttle":0.46795305609703064,"steer":0.021207433193922043,"brake":0.0,"hand_brake":false,"reverse":false,"manual_gear_shift":false,"gear":0},"transform":{"location":{"x":-59.03744125366211,"y":24.53260612487793,"z":0.003968734759837389},"rotation":{"pitch":-0.07181260734796524,"yaw":1.2049154043197632,"roll":-0.10302734375}},"velocity":{"x":4.9797139167785645,"y":0.17113251984119415,"z":-0.030548224225640297},"angular_velocity":{"x":-3.786289930343628,"y":-2.100736379623413,"z":2.3165693283081055},"acceleration":{"x":0.7950115203857422,"y":0.6073206663131714,"z":-0.7811182737350464},"speed_mps":4.982747256916475,"speed_kph":17.937890124899308,"speed_limit_kph":30.0,"collisions_this_frame":[],"waypoint":{"x":-59.03740692138672,"y":24.51998519897461,"z":0.0},"lane_deviation_m":0.013230261392891407,"lane_width":3.5,"goal":{"x":73.63292694091797,"y":66.35848999023438,"z":0.5999999642372131},"fault":{"name":"degraded_brake_pads","severity":1.0},"capture_flags":{"save_rgb":true,"save_depth":false,"video_rgb":true,"video_depth":false}}
{"frame":3082,"timestamp":{"delta_seconds":0.05000000074505806,"elapsed_seconds":34.34046853519976},"control":{"throttle":0.15783783793449402,"steer":0.026677709072828293,"brake":0.0,"hand_brake":false,"reverse":false,"manual_gear_shift":false,"gear":0},"transform":{"location":{"x":-58.78654098510742,"y":24.540876388549805,"z":0.0026977919042110443},"rotation":{"pitch":-0.011078566312789917,"yaw":1.3359191417694092,"roll":-0.01699829287827015}},"velocity":{"x":5.025588512420654,"y":0.2013520449399948,"z":-0.011737299151718616},"angular_velocity":{"x":-0.7339333295822144,"y":-0.7848370671272278,"z":2.75538969039917},"acceleration":{"x":0.9174919128417969,"y":0.6043905019760132,"z":0.3762184977531433},"speed_mps":5.029634211984738,"speed_kph":18.106683163145057,"speed_limit_kph":30.0,"collisions_this_frame":[],"waypoint":{"x":-58.78648376464844,"y":24.52068328857422,"z":0.0},"lane_deviation_m":0.020372595638036728,"lane_width":3.5,"goal":{"x":73.63292694091797,"y":66.35848999023438,"z":0.5999999642372131},"fault":{"name":"degraded_brake_pads","severity":1.0},"capture_flags":{"save_rgb":true,"save_depth":false,"video_rgb":true,"video_depth":false}}
{"frame":3083,"timestamp":{"delta_seconds":0.05000000074505806,"elapsed_seconds":34.39046853594482},"control":{"throttle":0.15783783793449402,"steer":0.026677709072828293,"brake":0.0,"hand_brake":false,"reverse":false,"manual_gear_shift":false,"gear":0},"transform":{"location":{"x":-58.53549575805664,"y":24.550235748291016,"z":0.0021845626179128885},"rotation":{"pitch":0.00505433976650238,"yaw":1.473055124282837,"roll":-0.005462646018713713}},"velocity":{"x":5.023056983947754,"y":0.20802199840545654,"z":-0.004303521942347288},"angular_velocity":{"x":-0.07597251981496811,"y":-0.17725810408592224,"z":3.148731231689453},"acceleration":{"x":-0.05063056945800781,"y":0.13339906930923462,"z":0.14867554605007172},"speed_mps":5.027364432394773,"speed_kph":18.098511956621184,"speed_limit_kph":30.0,"collisions_this_frame":[],"waypoint":{"x":-58.53541564941406,"y":24.521381378173828,"z":0.0},"lane_deviation_m":0.02893705852329731,"lane_width":3.5,"goal":{"x":73.63292694091797,"y":66.35848999023438,"z":0.5999999642372131},"fault":{"name":"degraded_brake_pads","severity":1.0},"capture_flags":{"save_rgb":true,"save_depth":false,"video_rgb":true,"video_depth":false}}
{"frame":3084,"timestamp":{"delta_seconds":0.05000000074505806,"elapsed_seconds":34.44046853668988},"control":{"throttle":0.10521805286407471,"steer":0.03248336911201477,"brake":0.0,"hand_brake":false,"reverse":false,"manual_gear_shift":false,"gear":0},"transform":{"location":{"x":-58.28591537475586,"y":24.56037712097168,"z":0.0019526290707290173},"rotation":{"pitch":0.0063110943883657455,"yaw":1.6183838844299316,"roll":-0.006164550315588713}},"velocity":{"x":4.982905387878418,"y":0.2274547666311264,"z":-0.007117938715964556},"angular_velocity":{"x":0.0309555996209383,"y":0.013588659465312958,"z":3.2454416751861572},"acceleration":{"x":-0.8030319213867188,"y":0.3886553645133972,"z":-0.05628833547234535},"speed_mps":4.988099080858614,"speed_kph":17.95715669109101,"speed_limit_kph":30.0,"collisions_this_frame":[],"waypoint":{"x":-58.28580856323242,"y":24.52207374572754,"z":0.0},"lane_deviation_m":0.03835326060652733,"lane_width":3.5,"goal":{"x":73.63292694091797,"y":66.35848999023438,"z":0.5999999642372131},"fault":{"name":"degraded_brake_pads","severity":1.0},"capture_flags":{"save_rgb":true,"save_depth":false,"video_rgb":true,"video_depth":false}}
{"frame":3085,"timestamp":{"delta_seconds":0.05000000074505806,"elapsed_seconds":34.490468537434936},"control":{"throttle":0.10521805286407471,"steer":0.03248336911201477,"brake":0.0,"hand_brake":false,"reverse":false,"manual_gear_shift":false,"gear":0},"transform":{"location":{"x":-58.037391662597656,"y":24.57127571105957,"z":0.0017482757102698088},"rotation":{"pitch":0.004624038003385067,"yaw":1.7874438762664795,"roll":-0.007812499534338713}},"velocity":{"x":4.957371234893799,"y":0.24375326931476593,"z":-0.0027908801566809416},"angular_velocity":{"x":0.028013058006763458,"y":0.04750608280301094,"z":3.3890867233276367},"acceleration":{"x":-0.5106830596923828,"y":0.3259700536727905,"z":0.08654117584228516},"speed_mps":4.963361059389711,"speed_kph":17.86809981380296,"speed_limit_kph":30.0,"collisions_this_frame":[],"waypoint":{"x":-58.03725814819336,"y":24.522764205932617,"z":0.0},"lane_deviation_m":0.04854318127036095,"lane_width":3.5,"goal":{"x":73.63292694091797,"y":66.35848999023438,"z":0.5999999642372131},"fault":{"name":"degraded_brake_pads","severity":1.0},"capture_flags":{"save_rgb":true,"save_depth":false,"video_rgb":true,"video_depth":false}}
{"frame":3086,"timestamp":{"delta_seconds":0.05000000074505806,"elapsed_seconds":34.540468538179994},"control":{"throttle":0.30906352400779724,"steer":0.02552509866654873,"brake":0.0,"hand_brake":false,"reverse":false,"manual_gear_shift":false,"gear":0},"transform":{"location":{"x":-57.79047393798828,"y":24.58245277404785,"z":0.0016928863478824496},"rotation":{"pitch":0.0021105282939970493,"yaw":1.9341634511947632,"roll":-0.006927489768713713}},"velocity":{"x":4.9281907081604,"y":0.2414633184671402,"z":-0.0006921100430190563},"angular_velocity":{"x":-0.021307701244950294,"y":0.04575355350971222,"z":2.770150661468506},"acceleration":{"x":-0.5836105346679688,"y":-0.04579901695251465,"z":0.04197540134191513},"speed_mps":4.934102620454907,"speed_kph":17.762769433637665,"speed_limit_kph":30.0,"collisions_this_frame":[],"waypoint":{"x":-57.79030990600586,"y":24.52345085144043,"z":0.0},"lane_deviation_m":0.059026435017585754,"lane_width":3.5,"goal":{"x":73.63292694091797,"y":66.35848999023438,"z":0.5999999642372131},"fault":{"name":"degraded_brake_pads","severity":1.0},"capture_flags":{"save_rgb":true,"save_depth":false,"video_rgb":true,"video_depth":false}}
{"frame":3087,"timestamp":{"delta_seconds":0.05000000074505806,"elapsed_seconds":34.59046853892505},"control":{"throttle":0.30906352400779724,"steer":0.02552509866654873,"brake":0.0,"hand_brake":false,"reverse":false,"manual_gear_shift":false,"gear":0},"transform":{"location":{"x":-57.54433822631836,"y":24.593957901000977,"z":0.0016983413370326161},"rotation":{"pitch":0.0005532453069463372,"yaw":2.0690228939056396,"roll":-0.006530761253088713}},"velocity":{"x":4.920783042907715,"y":0.2496156245470047,"z":0.00023082732514012605},"angular_velocity":{"x":-0.001093395403586328,"y":0.020507918670773506,"z":2.670933246612549},"acceleration":{"x":-0.14815330505371094,"y":0.16304612159729004,"z":0.018458746373653412},"speed_mps":4.927110082864737,"speed_kph":17.737596298313054,"speed_limit_kph":30.0,"collisions_this_frame":[],"waypoint":{"x":-57.54414367675781,"y":24.52413558959961,"z":0.0},"lane_deviation_m":0.06984323263168335,"lane_width":3.5,"goal":{"x":73.63292694091797,"y":66.35848999023438,"z":0.5999999642372131},"fault":{"name":"degraded_brake_pads","severity":1.0},"capture_flags":{"save_rgb":true,"save_depth":false,"video_rgb":true,"video_depth":false}}
{"frame":3088,"timestamp":{"delta_seconds":0.05000000074505806,"elapsed_seconds":34.64046853967011},"control":{"throttle":0.4641035795211792,"steer":0.014921021647751331,"brake":0.0,"hand_brake":false,"reverse":false,"manual_gear_shift":false,"gear":0},"transform":{"location":{"x":-57.2978515625,"y":24.605302810668945,"z":0.0017217635177075863},"rotation":{"pitch":0.0004849433898925781,"yaw":2.168729305267334,"roll":-0.0037231440655887127}},"velocity":{"x":4.939866065979004,"y":0.23609678447246552,"z":0.0005637073190882802},"angular_velocity":{"x":-0.04984645918011665,"y":-0.01513008400797844,"z":1.7508906126022339},"acceleration":{"x":0.38166046142578125,"y":-0.2703768014907837,"z":0.006657600402832031},"speed_mps":4.945504904376808,"speed_kph":17.803817655756507,"speed_limit_kph":30.0,"collisions_this_frame":[],"waypoint":{"x":-57.297630310058594,"y":24.52482032775879,"z":0.0},"lane_deviation_m":0.08050119876861572,"lane_width":3.5,"goal":{"x":73.63292694091797,"y":66.35848999023438,"z":0.5999999642372131},"fault":{"name":"degraded_brake_pads","severity":1.0},"capture_flags":{"save_rgb":true,"save_depth":false,"video_rgb":true,"video_depth":false}}
{"frame":3089,"timestamp":{"delta_seconds":0.05000000074505806,"elapsed_seconds":34.69046854041517},"control":{"throttle":0.4641035795211792,"steer":0.014921021647751331,"brake":0.0,"hand_brake":false,"reverse":false,"manual_gear_shift":false,"gear":0},"transform":{"location":{"x":-57.049442291259766,"y":24.616701126098633,"z":0.0017424774123355746},"rotation":{"pitch":0.002144679194316268,"yaw":2.2509050369262695,"roll":-0.0025024411734193563}},"velocity":{"x":4.988946914672852,"y":0.23996537923812866,"z":0.0006160545162856579},"angular_velocity":{"x":-0.007996940053999424,"y":-0.044820960611104965,"z":1.6076105833053589},"acceleration":{"x":0.9816169738769531,"y":0.07737189531326294,"z":0.0010469439439475536},"speed_mps":4.994714714593801,"speed_kph":17.980972972537685,"speed_limit_kph":30.0,"collisions_this_frame":[],"waypoint":{"x":-57.04918670654297,"y":24.525510787963867,"z":0.0},"lane_deviation_m":0.0912073403596878,"lane_width":3.5,"goal":{"x":73.63292694091797,"y":66.35848999023438,"z":0.5999999642372131},"fault":{"name":"degraded_brake_pads","severity":1.0},"capture_flags":{"save_rgb":true,"save_depth":false,"video_rgb":true,"video_depth":false}}
{"frame":3090,"timestamp":{"delta_seconds":0.05000000074505806,"elapsed_seconds":34.740468541160226},"control":{"throttle":0.06022372096776962,"steer":0.021669745445251465,"brake":0.0,"hand_brake":false,"reverse":false,"manual_gear_shift":false,"gear":0},"transform":{"location":{"x":-56.79851531982422,"y":24.628915786743164,"z":0.001974906772375107},"rotation":{"pitch":0.004501094575971365,"yaw":2.353909969329834,"roll":-0.004974364303052425}},"velocity":{"x":5.0277862548828125,"y":0.26389795541763306,"z":0.004427823703736067},"angular_velocity":{"x":0.05056821554899216,"y":-0.02629505656659603,"z":2.3016393184661865},"acceleration":{"x":0.7767868041992188,"y":0.4786515235900879,"z":0.07623538374900818},"speed_mps":5.0347091635252275,"speed_kph":18.12495298869082,"speed_limit_kph":30.0,"collisions_this_frame":[],"waypoint":{"x":-56.7982292175293,"y":24.526206970214844,"z":0.0},"lane_deviation_m":0.10272820293903351,"lane_width":3.5,"goal":{"x":73.63292694091797,"y":66.35848999023438,"z":0.5999999642372131},"fault":{"name":"degraded_brake_pads","severity":1.0},"capture_flags":{"save_rgb":true,"save_depth":false,"video_rgb":true,"video_depth":false}}
{"frame":3091,"timestamp":{"delta_seconds":0.05000000074505806,"elapsed_seconds":34.790468541905284},"control":{"throttle":0.06022372096776962,"steer":0.021669745445251465,"brake":0.0,"hand_brake":false,"reverse":false,"manual_gear_shift":false,"gear":0},"transform":{"location":{"x":-56.54813003540039,"y":24.64167594909668,"z":0.0020408248528838158},"rotation":{"pitch":0.0032580001279711723,"yaw":2.4782938957214355,"roll":-0.00616455078125}},"velocity":{"x":4.9886674880981445,"y":0.27257680892944336,"z":-0.004933051764965057},"angular_velocity":{"x":0.010039322078227997,"y":0.035174667835235596,"z":2.183608293533325},"acceleration":{"x":-0.7823753356933594,"y":0.17357707023620605,"z":-0.18721751868724823},"speed_mps":4.996111063474602,"speed_kph":17.985999828508568,"speed_limit_kph":30.0,"collisions_this_frame":[],"waypoint":{"x":-56.547813415527344,"y":24.52690315246582,"z":0.0},"lane_deviation_m":0.1147913783788681,"lane_width":3.5,"goal":{"x":73.63292694091797,"y":66.35848999023438,"z":0.5999999642372131},"fault":{"name":"degraded_brake_pads","severity":1.0},"capture_flags":{"save_rgb":true,"save_depth":false,"video_rgb":true,"video_depth":false}}
{"frame":3092,"timestamp":{"delta_seconds":0.05000000074505806,"elapsed_seconds":34.84046854265034},"control":{"throttle":0.0986722782254219,"steer":0.021199431270360947,"brake":0.0,"hand_brake":false,"reverse":false,"manual_gear_shift":false,"gear":0},"transform":{"location":{"x":-56.29940414428711,"y":24.654993057250977,"z":0.0018945311894640326},"rotation":{"pitch":0.001263584941625595,"yaw":2.586468458175659,"roll":-0.00677490234375}},"velocity":{"x":4.96388578414917,"y":0.282709538936615,"z":-0.0022181891836225986},"angular_velocity":{"x":0.008817977271974087,"y":0.04049299657344818,"z":2.1843674182891846},"acceleration":{"x":-0.4956340789794922,"y":0.20265460014343262,"z":0.054297253489494324},"speed_mps":4.971930377815766,"speed_kph":17.898949360136758,"speed_limit_kph":30.0,"collisions_this_frame":[],"waypoint":{"x":-56.299049377441406,"y":24.5275936126709,"z":0.0},"lane_deviation_m":0.1274140328168869,"lane_width":3.5,"goal":{"x":73.63292694091797,"y":66.35848999023438,"z":0.5999999642372131},"fault":{"name":"degraded_brake_pads","severity":1.0},"capture_flags":{"save_rgb":true,"save_depth":false,"video_rgb":true,"video_depth":false}}
{"frame":3093,"timestamp":{"delta_seconds":0.05000000074505806,"elapsed_seconds":34.8904685433954},"control":{"throttle":0.0986722782254219,"steer":0.021199431270360947,"brake":0.0,"hand_brake":false,"reverse":false,"manual_gear_shift":false,"gear":0},"transform":{"location":{"x":-56.052337646484375,"y":24.668725967407227,"z":0.001841697609052062},"rotation":{"pitch":-0.0009493962279520929,"yaw":2.696617603302002,"roll":-0.00714111328125}},"velocity":{"x":4.923988342285156,"y":0.29056093096733093,"z":-0.0008379077771678567},"angular_velocity":{"x":0.0026268574874848127,"y":0.04658520594239235,"z":2.2028777599334717},"acceleration":{"x":-0.7979488372802734,"y":0.15702784061431885,"z":0.027605628594756126},"speed_mps":4.932553856944105,"speed_kph":17.75719388499878,"speed_limit_kph":30.0,"collisions_this_frame":[],"waypoint":{"x":-56.05194854736328,"y":24.52828025817871,"z":0.0},"lane_deviation_m":0.14045831561088562,"lane_width":3.5,"goal":{"x":73.63292694091797,"y":66.35848999023438,"z":0.5999999642372131},"fault":{"name":"degraded_brake_pads","severity":1.0},"capture_flags":{"save_rgb":true,"save_depth":false,"video_rgb":true,"video_depth":false}}
{"frame":3094,"timestamp":{"delta_seconds":0.05000000074505806,"elapsed_seconds":34.94046854414046},"control":{"throttle":0.44420161843299866,"steer":0.006674861069768667,"brake":0.0,"hand_brake":false,"reverse":false,"manual_gear_shift":false,"gear":0},"transform":{"location":{"x":-55.80727767944336,"y":24.681888580322266,"z":0.0018337249057367444},"rotation":{"pitch":-0.0030257736798375845,"yaw":2.760946273803711,"roll":-0.0030517578125}},"velocity":{"x":4.889257907867432,"y":0.26407548785209656,"z":-0.00017850875156000257},"angular_velocity":{"x":-0.08011232316493988,"y":0.029185816645622253,"z":0.9506789445877075},"acceleration":{"x":-0.6946086883544922,"y":-0.5297088623046875,"z":0.013187980279326439},"speed_mps":4.89638425624398,"speed_kph":17.626983322478328,"speed_limit_kph":30.0,"collisions_this_frame":[],"waypoint":{"x":-55.806854248046875,"y":24.528961181640625,"z":0.0},"lane_deviation_m":0.15293897688388824,"lane_width":3.5,"goal":{"x":73.63292694091797,"y":66.35848999023438,"z":0.5999999642372131},"fault":{"name":"degraded_brake_pads","severity":1.0},"capture_flags":{"save_rgb":true,"save_depth":false,"video_rgb":true,"video_depth":false}}
{"frame":3095,"timestamp":{"delta_seconds":0.05000000074505806,"elapsed_seconds":34.990468544885516},"control":{"throttle":0.44420161843299866,"steer":0.006674861069768667,"brake":0.0,"hand_brake":false,"reverse":false,"manual_gear_shift":false,"gear":0},"transform":{"location":{"x":-55.562782287597656,"y":24.6946964263916,"z":0.0018362808041274548},"rotation":{"pitch":-0.0033263019286096096,"yaw":2.8006350994110107,"roll":-0.000762939453125}},"velocity":{"x":4.89593505859375,"y":0.2606544494628906,"z":0.00010765075421659276},"angular_velocity":{"x":-0.025326304137706757,"y":-0.01420349720865488,"z":0.7380344867706299},"acceleration":{"x":0.1335430145263672,"y":-0.06842076778411865,"z":0.005723190493881702},"speed_mps":4.9028686349504484,"speed_kph":17.650327085821615,"speed_limit_kph":30.0,"collisions_this_frame":[],"waypoint":{"x":-55.56232452392578,"y":24.52964210510254,"z":0.0},"lane_deviation_m":0.16506516933441162,"lane_width":3.5,"goal":{"x":73.63292694091797,"y":66.35848999023438,"z":0.5999999642372131},"fault":{"name":"degraded_brake_pads","severity":1.0},"capture_flags":{"save_rgb":true,"save_depth":false,"video_rgb":true,"video_depth":false}}
